LOKALNYID,TERYT,IDTERC,IDSIMC,IDPRNG,NAZWA,RODZAJ,LICZ_MIESZ,lat,lon
25D957B8-9256-A0E9-E053-CC2BA8C0C44E,1801,1801083,0358411,199773,Górny Koniec,część wsi,56.0,49.547073185262654,22.45348699662325
6D4E92F1-40A5-4F23-B405-040A83147559,1801,1801052,0994331,63826,Krywka,część wsi,0.0,49.25535433303542,22.730017710168973
91B7AA2F-87BD-4902-A7F4-03A337952F71,1801,1801083,0996318,43615,Jamna Dolna,wieś,0.0,49.625699165026944,22.576351683179627
25D957B8-924E-A0E9-E053-CC2BA8C0C44E,1801,1801083,0361672,175855,Łodyna-Ług,część wsi,88.0,49.467955722961165,22.60978823747514
0DD425C2-E951-41A3-90BD-358B7932F68D,1801,1801052,0996264,13293,Bukowiec,wieś,0.0,49.05965622784391,22.81243381910905
B51F9EB3-7D60-46C3-AD93-83C5573906D4,1801,1801052,0991077,168435,Sianki,wieś,0.0,49.0186323014257,22.863931483712296
25D957B8-9251-A0E9-E053-CC2BA8C0C44E,1801,1801032,0348051,179143,Górny Koniec,część wsi,101.0,49.29914004947308,22.59137812125226
25D957B8-923D-A0E9-E053-CC2BA8C0C44E,1801,1801052,0356145,15540,Chmiel,wieś,144.0,49.22713179971362,22.601769509387225
25D957B8-9248-A0E9-E053-CC2BA8C0C44E,1801,1801052,0356263,164279,Żurawin,osada,11.0,49.22150391162725,22.71411003419547
25D957B8-9258-A0E9-E053-CC2BA8C0C44E,1801,1801083,0361502,2284,Bandrów Narodowy,wieś,434.0,49.376988896454996,22.712437089780156
25D957B8-922B-A0E9-E053-CC2BA8C0C44E,1801,1801052,0356240,86038,Nasiczne,osada,53.0,49.17616192386579,22.566750291760382
25D957B8-9276-A0E9-E053-CC2BA8C0C44E,1801,1801083,0361608,62163,Krościenko,wieś,558.0,49.45490780428208,22.679449201574098
25D957B8-921E-A0E9-E053-CC2BA8C0C44E,1801,1801083,0361790,140541,Trójca,osada,2.0,49.65331547535598,22.557670449689976
25D957B8-924F-A0E9-E053-CC2BA8C0C44E,1801,1801083,0996330,175857,Teleśnica Sanna,wieś,3.0,49.365035630153436,22.504263477144907
25D957B8-921C-A0E9-E053-CC2BA8C0C44E,1801,1801052,0356317,138913,Tarnawa Niżna,wieś,35.0,49.10369508182016,22.786198137306474
25D957B8-9257-A0E9-E053-CC2BA8C0C44E,1801,1801083,0361525,21558,Daszówka,wieś,36.0,49.37171411754868,22.578590531959346
25D957B8-9281-A0E9-E053-CC2BA8C0C44E,1801,1801083,0358233,67421,Leszczowate,wieś,80.0,49.50712101792572,22.560180481549803
25D957B8-926A-A0E9-E053-CC2BA8C0C44E,1801,1801083,0358351,116529,Ropienka Dolna,część wsi,268.0,49.543018063111425,22.504335371182638
25D957B8-926B-A0E9-E053-CC2BA8C0C44E,1801,1801083,0358368,116530,Ropienka Górna,część wsi,324.0,49.52914362230943,22.525283049700622
25D957B8-9249-A0E9-E053-CC2BA8C0C44E,1801,1801083,0361643,168434,Pod Jaworem,część wsi,240.0,49.40511863588311,22.47386633767489
25D957B8-9252-A0E9-E053-CC2BA8C0C44E,1801,1801083,0953852,179144,Strwiążyczek,część miasta,12.0,49.44772479150781,22.539891159320234
25D957B8-926F-A0E9-E053-CC2BA8C0C44E,1801,1801083,0361703,117341,Równia,wieś,659.0,49.40258602406628,22.58835256595087
25D957B8-9253-A0E9-E053-CC2BA8C0C44E,1801,1801032,0347991,18835,Czarna Dolna,wieś,370.0,49.33240896297411,22.622905099233478
25D957B8-9254-A0E9-E053-CC2BA8C0C44E,1801,1801032,0348000,18865,Czarna Górna,wieś,834.0,49.32167468456462,22.667872843218372
25D957B8-9255-A0E9-E053-CC2BA8C0C44E,1801,1801032,0996229,18880,Czarna Kopalnia,część wsi,336.0,49.30655716828287,22.667934551250625
25D957B8-9271-A0E9-E053-CC2BA8C0C44E,1801,1801083,0358380,121296,Serednica,wieś,67.0,49.488502928337596,22.510336956196213
25D957B8-9269-A0E9-E053-CC2BA8C0C44E,1801,1801032,0348074,113587,Rabe,wieś,202.0,49.36131877543918,22.665245975884588
25D957B8-9267-A0E9-E053-CC2BA8C0C44E,1801,1801083,0361554,41565,Hoszów,wieś,308.0,49.389121630037074,22.642451091555152
25D957B8-9231-A0E9-E053-CC2BA8C0C44E,1801,1801052,0356323,143296,Ustrzyki Górne,wieś,77.0,49.10124787863756,22.64603673356666
25D957B8-9262-A0E9-E053-CC2BA8C0C44E,1801,1801052,0356228,108952,Posada Górna,część wsi,102.0,49.253061209635796,22.7072395516961
25D957B8-926D-A0E9-E053-CC2BA8C0C44E,1801,1801083,0361577,44881,Jasień,część miasta,308.0,49.4179063357541,22.620033024493605
7A74B125-3B63-48B3-8CC4-FD2B19737E05,1801,1801052,0991060,3754,Beniowa,wieś,0.0,49.041467351614116,22.84139897706096
BF0C5813-5B2D-44EA-8CD1-E4100D62BCB3,1801,1801083,0996301,1025,Arłamów,osada,0.0,49.578002575102616,22.663101595545278
55A21B1C-3663-4CC5-A898-D6267D55521A,1801,1801052,0996287,73100,Łokieć,wieś,0.0,49.146527483099185,22.750009902466125
3C6E43F5-B151-45E0-9004-1225C0DC040A,1801,1801052,0356180,29346,Dźwiniacz Górny,osada,0.0,49.13945404688876,22.77919809336233
5CAE9796-E6EA-4E4D-8F75-637E9751147D,1801,1801052,0996293,175852,Tarnawa Wyżna,wieś,0.0,49.08911414537937,22.818105627057182
4E255458-A4CE-475F-9346-00CCD040FF82,1801,1801052,0992237,175851,Sokoliki,wieś,0.0,49.08706272354959,22.86447178222143
25D957B8-925C-A0E9-E053-CC2BA8C0C44E,1801,1801083,0996353,36556,Górny Koniec,część wsi,8.0,49.47213477162661,22.654664273613225
25D957B8-924C-A0E9-E053-CC2BA8C0C44E,1801,1801052,0356168,175853,Za Sanem,część wsi,16.0,49.213238469598366,22.627585664401344
25D957B8-9237-A0E9-E053-CC2BA8C0C44E,1801,1801032,0996206,96718,Paniszczów,wieś,2.0,49.33350723436192,22.56502651106027
25D957B8-9229-A0E9-E053-CC2BA8C0C44E,1801,1801032,0348022,79452,Michniowiec,wieś,149.0,49.28362582246322,22.722243224142755
25D957B8-9274-A0E9-E053-CC2BA8C0C44E,1801,1801083,0358256,57043,Górny Koniec,część wsi,36.0,49.50632532231805,22.550822378985846
70344706-FF6D-4B36-874E-B4C5DFAA4C39,1801,1801032,0996212,126271,Sokołowa Wola,osada,0.0,49.35709277814107,22.610899444328997
29A11D7D-E6C1-41BD-A664-C3AF6CCFACAE,1801,1801032,0996258,141976,Tworylne,osada,0.0,49.25968132408448,22.479450183472036
25D957B8-9236-A0E9-E053-CC2BA8C0C44E,1801,1801032,0348068,94980,Ostre,część wsi,32.0,49.29063404743196,22.620953717545362
25D957B8-9243-A0E9-E053-CC2BA8C0C44E,1801,1801032,0347979,16483,Chrewt,osada,1.0,49.31042358914555,22.526160265335395
25D957B8-922F-A0E9-E053-CC2BA8C0C44E,1801,1801083,0953869,143233,Ustjanowa Górna,część miasta,56.0,49.41935551808471,22.57039820921988
25D957B8-924A-A0E9-E053-CC2BA8C0C44E,1801,1801083,0361821,16959,Chwaniów,część wsi,4.0,49.54688905242824,22.543206583374364
25D957B8-9238-A0E9-E053-CC2BA8C0C44E,1801,1801083,0361590,9882,Braniów,część wsi,16.0,49.54654993287798,22.604983799161182
25D957B8-9232-A0E9-E053-CC2BA8C0C44E,1801,1801052,0356139,14353,Caryńskie,osada,1.0,49.154140577644185,22.60968720885272
25D957B8-9272-A0E9-E053-CC2BA8C0C44E,1801,1801032,0990497,121300,Serednie Małe,wieś,4.0,49.27815029646008,22.544148243760713
F51BF935-1B98-4FE2-994E-3BD48E8CD387,1801,1801083,0361761,149777,Wojtkowa,wieś,259.0,49.57477828968617,22.556118701037217
25D957B8-9268-A0E9-E053-CC2BA8C0C44E,1801,1801052,0356369,41928,Hulskie,osada,2.0,49.23368677407862,22.51830939591823
25D957B8-9261-A0E9-E053-CC2BA8C0C44E,1801,1801052,0356122,10838,Brzegi Górne,wieś,5.0,49.123899641238594,22.56910587706729
25D957B8-923F-A0E9-E053-CC2BA8C0C44E,1801,1801083,0358339,116527,Ropienka,wieś,603.0,49.5368719332941,22.510221123209423
25D957B8-9235-A0E9-E053-CC2BA8C0C44E,1801,1801083,0358397,150249,Wola Romanowa,wieś,6.0,49.47900217760073,22.537618400545814
25D957B8-922E-A0E9-E053-CC2BA8C0C44E,1801,1801083,0953823,94142,Osiedle Fabryczne,część miasta,252.0,49.43074618149534,22.605352858524828
25D957B8-926C-A0E9-E053-CC2BA8C0C44E,1801,1801083,0361560,43510,Jałowe,wieś,241.0,49.41042371276628,22.65188560038946
25D957B8-926E-A0E9-E053-CC2BA8C0C44E,1801,1801083,0361583,47667,Jureczkowa,wieś,260.0,49.53526612439999,22.586729811540668
25D957B8-922C-A0E9-E053-CC2BA8C0C44E,1801,1801083,0361695,89739,Nowosielce Kozickie,wieś,134.0,49.55920988175702,22.52144866658609
25D957B8-922D-A0E9-E053-CC2BA8C0C44E,1801,1801032,0347985,92203,Olchowiec,osada,10.0,49.29955462460672,22.50083401530208
25D957B8-922A-A0E9-E053-CC2BA8C0C44E,1801,1801083,0361689,82186,Moczary,wieś,261.0,49.38225845769457,22.674226702134806
25D957B8-9227-A0E9-E053-CC2BA8C0C44E,1801,1801083,0361732,143231,Ustjanowa Dolna,wieś,283.0,49.43527756642318,22.510574034249636
25D957B8-9275-A0E9-E053-CC2BA8C0C44E,1801,1801083,0358345,57600,Kopalnia,część wsi,116.0,49.528929428345826,22.49633271934635
790C9769-4235-4097-A59E-9A5C36DD8E65,1801,1801032,0996241,116647,Rosolin,wieś,0.0,49.31560512913511,22.588869179095944
CDD15D3B-C0BD-4B77-8A10-D5344E7815B7,1801,1801032,0996235,117050,Rosochate,wieś,0.0,49.266248278129076,22.598915600018362
25D957B8-925F-A0E9-E053-CC2BA8C0C44E,1801,1801083,0953830,103132,Pod Dębami,część miasta,428.0,49.43451103829919,22.59283340355109
25D957B8-9260-A0E9-E053-CC2BA8C0C44E,1801,1801083,0361519,10836,Brzegi Dolne,wieś,399.0,49.439702287162184,22.63420031240589
25D957B8-924D-A0E9-E053-CC2BA8C0C44E,1801,1801083,0358530,175854,Borsukowce,część wsi,16.0,49.573035937655966,22.439911660566057
25D957B8-9270-A0E9-E053-CC2BA8C0C44E,1801,1801083,0358428,119718,Rzeki,część wsi,56.0,49.56924232022902,22.41410902953924
25D957B8-9246-A0E9-E053-CC2BA8C0C44E,1801,1801083,0358523,159743,Zawadka,wieś,153.0,49.569924443070626,22.45671169982242
25D957B8-921F-A0E9-E053-CC2BA8C0C44E,1801,1801083,0361809,140732,Trzcianiec,osada,147.0,49.590423780067056,22.495519395100704
25D957B8-9279-A0E9-E053-CC2BA8C0C44E,1801,1801052,0356257,125419,Smolnik,wieś,158.0,49.2158677680072,22.68835284607696
25D957B8-925B-A0E9-E053-CC2BA8C0C44E,1801,1801083,0361531,29344,Dźwiniacz Dolny,wieś,254.0,49.46765349297331,22.557694190800518
25D957B8-925D-A0E9-E053-CC2BA8C0C44E,1801,1801083,0361778,38424,Grąziowa,osada,27.0,49.60867935308263,22.54302200542753
25D957B8-9222-A0E9-E053-CC2BA8C0C44E,1801,1801052,0356205,70861,Lutowiska,wieś,710.0,49.25020816362295,22.698260082397603
25D957B8-9239-A0E9-E053-CC2BA8C0C44E,1801,1801083,0358210,9970,Brelików,wieś,205.0,49.513050580452614,22.511989111581695
25D957B8-9250-A0E9-E053-CC2BA8C0C44E,1801,1801032,0348045,179142,Dolny Koniec,część wsi,199.0,49.30057244804947,22.569067281276137
A82377B0-253D-4A5B-A5DE-E3DE27CBFF95,1801,1801083,0358227,236414,Za Działem,część wsi,60.0,49.51571226184379,22.52043943127392
5880F86D-FE52-405B-B514-26631A81D1AB,1801,1801083,0996324,43617,Jamna Górna,wieś,0.0,49.59312943154151,22.600943431582866
25D957B8-923A-A0E9-E053-CC2BA8C0C44E,1801,1801052,0356330,150713,Wołosate,osada,43.0,49.06587960725183,22.7049089903149
25D957B8-9277-A0E9-E053-CC2BA8C0C44E,1801,1801052,0356375,121576,Sękowiec,część wsi,112.0,49.24482471126947,22.5755944971814
25D957B8-9244-A0E9-E053-CC2BA8C0C44E,1801,1801052,0356197,84169,Muczne,osada,35.0,49.116897758833545,22.745093580749373
25D957B8-927F-A0E9-E053-CC2BA8C0C44E,1801,1801052,0991090,63723,Krywe,wieś,1.0,49.25630408969836,22.51496314778602
25D957B8-927E-A0E9-E053-CC2BA8C0C44E,1801,1801083,0361620,62164,Wolica,część wsi,124.0,49.48530846875861,22.662693814519635
25D957B8-927C-A0E9-E053-CC2BA8C0C44E,1801,1801083,0953846,132182,Strwiążek,część miasta,140.0,49.440035298985535,22.560307133028893
25D957B8-927A-A0E9-E053-CC2BA8C0C44E,1801,1801083,0361726,126185,Sokole,osada,4.0,49.34416087420663,22.535599964503277
25D957B8-9273-A0E9-E053-CC2BA8C0C44E,1801,1801083,0358240,57040,Dolny Koniec,część wsi,54.0,49.51081426448824,22.53703744944411
25D957B8-9247-A0E9-E053-CC2BA8C0C44E,1801,1801032,0348080,163811,Żłobek,wieś,143.0,49.342479334884544,22.693272176079653
25D957B8-927B-A0E9-E053-CC2BA8C0C44E,1801,1801083,0358405,128022,Stańkowa,wieś,220.0,49.561134928840424,22.430841280838482
25D957B8-9245-A0E9-E053-CC2BA8C0C44E,1801,1801052,0356346,159611,Zatwarnica,wieś,189.0,49.21260325133518,22.541918255319143
25D957B8-9240-A0E9-E053-CC2BA8C0C44E,1801,1801083,0953875,168433,Zabłocie,część miasta,50.0,49.418674247856735,22.561624335648236
25D957B8-921B-A0E9-E053-CC2BA8C0C44E,1801,1801052,0356352,133084,Suche Rzeki,część wsi,1.0,49.1917155715277,22.516426605974328
25D957B8-9228-A0E9-E053-CC2BA8C0C44E,1801,1801083,0361749,143232,Ustjanowa Górna,wieś,899.0,49.42146986274749,22.54579685144615
25D957B8-923B-A0E9-E053-CC2BA8C0C44E,1801,1801032,0990505,152353,Wydrne,wieś,17.0,49.29930570755258,22.5462988271392
25D957B8-9241-A0E9-E053-CC2BA8C0C44E,1801,1801032,0348039,107123,Polana,wieś,326.0,49.29265630867563,22.592530367646287
25D957B8-924B-A0E9-E053-CC2BA8C0C44E,1801,1801052,0356211,172750,Posada Dolna,część wsi,144.0,49.240666406745895,22.68228056457342
25D957B8-9234-A0E9-E053-CC2BA8C0C44E,1801,1801083,0996347,150121,Wola Maćkowa,wieś,0.0,49.48810572375531,22.577202036477548
25D957B8-9233-A0E9-E053-CC2BA8C0C44E,1801,1801083,0361815,149792,Wojtkówka,wieś,178.0,49.55250227601563,22.559708832313508
25D957B8-923E-A0E9-E053-CC2BA8C0C44E,1801,1801083,0361838,155595,Zadwórze,wieś,74.0,49.37175526557605,22.64079520802459
25D957B8-923C-A0E9-E053-CC2BA8C0C44E,1801,1801083,0361755,154864,Zabłocie,część wsi,220.0,49.41849139208382,22.555083634560688
100AEB36-DA8D-43C0-BF7A-6CE017A5E062,1801,1801052,0996270,27782,Dydiowa,wieś,0.0,49.15221653037178,22.72435619140285
25D957B8-921D-A0E9-E053-CC2BA8C0C44E,1801,1801083,0361710,139330,Teleśnica Oszwarowa,wieś,193.0,49.38029724481596,22.5366588489187
25D957B8-9230-A0E9-E053-CC2BA8C0C44E,1801,1801083,0953817,143295,Ustrzyki Dolne,miasto,8251.0,49.430892428649564,22.585630582001915
25D957B8-927D-A0E9-E053-CC2BA8C0C44E,1801,1801052,0356270,132809,Stuposiany,wieś,88.0,49.189834929284594,22.693252107374896
25D957B8-9226-A0E9-E053-CC2BA8C0C44E,1801,1801032,0347962,14083,Bystre,wieś,57.0,49.3259385214751,22.726665464062098
25D957B8-9263-A0E9-E053-CC2BA8C0C44E,1801,1801052,0356286,3854,Bereżki,wieś,35.0,49.13216005124392,22.670995386818685
25D957B8-925A-A0E9-E053-CC2BA8C0C44E,1801,1801052,0356151,27438,Dwernik,wieś,154.0,49.20192286977341,22.62783506368268
25D957B8-9280-A0E9-E053-CC2BA8C0C44E,1801,1801083,0361784,66028,Kwaszenina,osada,6.0,49.55511538690888,22.63384460224085
25D957B8-9265-A0E9-E053-CC2BA8C0C44E,1801,1801052,0356292,112698,Pszczeliny,wieś,128.0,49.165558688479074,22.68039422667906
25D957B8-9221-A0E9-E053-CC2BA8C0C44E,1801,1801083,0361614,69613,Liskowate,wieś,203.0,49.50039157317054,22.625890257851047
25D957B8-9225-A0E9-E053-CC2BA8C0C44E,1801,1801083,0361666,73049,Łodyna,wieś,269.0,49.4680629803623,22.594895099049626
25D957B8-9264-A0E9-E053-CC2BA8C0C44E,1801,1801052,0356300,110165,Procisne,osada,44.0,49.196405204255875,22.655719695954183
25D957B8-9278-A0E9-E053-CC2BA8C0C44E,1801,1801052,0356234,123729,Skorodne,osada,30.0,49.2680719681677,22.64757125707174
25D957B8-9259-A0E9-E053-CC2BA8C0C44E,1801,1801052,0356174,27437,Dwerniczek,wieś,52.0,49.21773649544123,22.662772241763694
25D957B8-9224-A0E9-E053-CC2BA8C0C44E,1801,1801083,0361650,73000,Łobozew Górny,wieś,259.0,49.40185088698487,22.517734998664118
25D957B8-9266-A0E9-E053-CC2BA8C0C44E,1801,1801083,0361548,41563,Hoszowczyk,wieś,167.0,49.3865214927333,22.614726014105468
25D957B8-9220-A0E9-E053-CC2BA8C0C44E,1801,1801032,0348016,68524,Lipie,wieś,213.0,49.29582553086003,22.694127839548926
25D957B8-9223-A0E9-E053-CC2BA8C0C44E,1801,1801083,0361637,72999,Łobozew Dolny,wieś,262.0,49.40980967405719,22.488116430524222
2BE36587-76D3-BC4E-E053-CC2BA8C0B402,1802,1802062,0357370,179319,Barszczówki,część wsi,,49.7981196814863,22.120557907002624
2BE36587-7655-BC4E-E053-CC2BA8C0ML00,1802,1802062,0357601,179391,Potok,część wsi,,49.78017448980329,22.137253793920713
2BE36587-7639-BC4E-E053-CC2BA8C0B402,1802,1802052,0352414,179304,Fiejdaszówka,część wsi,,49.757937585159624,21.949995527188868
2BE36587-7596-BC4E-E053-CC2BA8C0B402,1802,1802062,0357558,179359,Olszańce,część wsi,,49.774531391980844,22.135788036579658
2BE36587-76B1-BC4E-E053-CC2BA8C0B402,1802,1802062,0357831,179354,Łąka,część wsi,,49.77219915664457,22.19778901854603
2BE36587-76B4-BC4E-E053-CC2BA8C0B402,1802,1802052,0352472,104986,Podlas,część wsi,,49.77109702809655,21.917866746245743
2BE36587-764B-BC4E-E053-CC2BA8C0B402,1802,1802013,0345934,179189,Ostrowiec,część wsi,,49.73640649305366,22.081266288200595
2BE36587-762F-BC4E-E053-CC2BA8C0B402,1802,1802032,0350757,42845,Jabłonka,wieś,1040.0,49.701066398022576,22.1052785162185
2BE36587-75C6-BC4E-E053-CC2BA8C0B402,1802,1802032,0350987,87112,Niewistka,wieś,274.0,49.72526055760921,22.206649881030483
2BE36587-761D-BC4E-E053-CC2BA8C0B402,1802,1802022,0348708,34391,Golcowa,wieś,2106.0,49.77487257780542,22.02993660439567
2BE36587-75A9-BC4E-E053-CC2BA8C0B402,1802,1802022,0348507,25790,Domaradz,wieś,3054.0,49.79346718267021,21.963880300221337
2BE36587-7696-BC4E-E053-CC2BA8C0B402,1802,1802062,0357995,144156,Wara,wieś,1144.0,49.75144537821718,22.191330545269
2BE36587-761F-BC4E-E053-CC2BA8C0B402,1802,1802013,0345704,41946,Humniska,wieś,4550.0,49.68162480036888,22.04773297212253
2BE36587-75EE-BC4E-E053-CC2BA8C0B402,1802,1802052,0352213,6354,Blizne,wieś,3408.0,49.75010151549429,21.98438777038774
2BE36587-76C5-BC4E-E053-CC2BA8C0B402,1802,1802032,0350898,86343,Niebocko,wieś,1499.0,49.67518914707239,22.1113747335646
2BE36587-75D5-BC4E-E053-CC2BA8C0B402,1802,1802062,0357363,41294,Hłudno,wieś,842.0,49.77906951618536,22.136192915596926
2BE36587-7677-BC4E-E053-CC2BA8C0B402,1802,1802022,0348358,3131,Barycz,wieś,779.0,49.816122218214126,22.03373732612327
2BE36587-7607-BC4E-E053-CC2BA8C0B402,1802,1802062,0358115,145039,Wesoła,wieś,1420.0,49.80477449182801,22.082580564868213
2BE36587-76BC-BC4E-E053-CC2BA8C0B402,1802,1802042,0351389,44979,Jasionów,wieś,1369.0,49.65334876464222,21.976555662161473
2BE36587-7634-BC4E-E053-CC2BA8C0B402,1802,1802013,0952841,11773,Brzozów,miasto,7065.0,49.69697872466159,22.021047554196656
2BE36587-75E5-BC4E-E053-CC2BA8C0B402,1802,1802013,0346046,128620,Stara Wieś,wieś,3528.0,49.71193906161003,21.994986770918537
2BE36587-7659-BC4E-E053-CC2BA8C0B402,1802,1802013,0345822,112288,Przysietnica,wieś,3832.0,49.729172573948716,22.062387811322846
2BE36587-759F-BC4E-E053-CC2BA8C0B402,1802,1802042,0351350,23120,Dębina,część wsi,,49.6872148334353,21.89825867721542
2BE36587-7623-BC4E-E053-CC2BA8C0B402,1802,1802013,0346000,179206,Wolajnówka,część wsi,,49.725760857453814,22.057219684925705
2BE36587-7683-BC4E-E053-CC2BA8C0B402,1802,1802052,0352510,93778,Orzechówka,wieś,1449.0,49.72434151951228,21.939407439967994
2BE36587-762E-BC4E-E053-CC2BA8C0B402,1802,1802042,0351320,42814,Jabłonica Polska,wieś,1083.0,49.70061000949981,21.901138795559618
2BE36587-76BB-BC4E-E053-CC2BA8C0B402,1802,1802032,0350846,63211,Krzemienna,wieś,378.0,49.697200443699515,22.189423463747353
2BE36587-76E6-BC4E-E053-CC2BA8C0B402,1802,1802042,0351248,40546,Haczów,wieś,3134.0,49.661876134792855,21.89598742204794
2BE36587-76EC-BC4E-E053-CC2BA8C0B402,1802,1802032,0351030,90596,Obarzym,wieś,308.0,49.718851944607174,22.1774808443902
2BE36587-7588-BC4E-E053-CC2BA8C0B402,1802,1802042,0351231,13522,Buków,wieś,351.0,49.64268155025091,21.96327236076698
2BE36587-75D0-BC4E-E053-CC2BA8C0B402,1802,1802032,1042271,199781,Hroszówka,osada leśna,,49.697592723670546,22.228118424576483
2BE36587-75ED-BC4E-E053-CC2BA8C0B402,1802,1802062,0358150,86785,Niemcówki,część wsi,,49.78842155337087,22.101439681062416
35ca670e-59b0-40f0-8125-c110301ba334,1802,1802022,0348826,75298,Magierów,część wsi,,49.782112969856335,22.052259879877024
5daf4075-ecbd-4706-a5de-ca216f24dbaa,1802,1802022,0348418,217708,Kudłówka,część wsi,,49.810870992681004,22.041318678553928
2BE36587-7668-BC4E-E053-CC2BA8C0B402,1802,1802013,0345928,179188,Obszar,część wsi,,49.71713327499952,22.05154313251587
2BE36587-761E-BC4E-E053-CC2BA8C0ML00,1802,1802022,0348499,168438,Wójcikówka,część wsi,,49.814193113156875,22.02751421830394
2BE36587-76D1-BC4E-E053-CC2BA8C0B402,1802,1802032,0350958,119713,Rzeki,część wsi,,49.66456873001355,22.11693127233095
2BE36587-75E9-BC4E-E053-CC2BA8C0B402,1802,1802013,0345785,179193,Podlesie,część wsi,,49.68117855716966,22.012583586235092
2BE36587-766A-BC4E-E053-CC2BA8C0B402,1802,1802062,0357481,179340,Jantoniówka,część wsi,,49.77357232846026,22.16162155273048
2BE36587-766C-BC4E-E053-CC2BA8C0B402,1802,1802013,0345986,136716,Ściborówka,część wsi,,49.73452201118734,22.078745188873786
2BE36587-7627-BC4E-E053-CC2BA8C0B402,1802,1802013,0345992,179205,Terchówka,część wsi,,49.72649414327641,22.04862943681539
2BE36587-763A-BC4E-E053-CC2BA8C0B402,1802,1802062,0357498,179342,Kamieniec,część wsi,,49.78478332659853,22.11841017204083
2BE36587-765F-BC4E-E053-CC2BA8C0B402,1802,1802052,0352450,102552,Płosina Dolna,część wsi,,49.76204233777461,21.941410714161563
2BE36587-75C3-BC4E-E053-CC2BA8C0B402,1802,1802032,0351047,179256,Bucznik,część wsi,,49.71823255173201,22.160815742360594
2BE36587-75F1-BC4E-E053-CC2BA8C0B402,1802,1802022,0348766,179213,Filipówka,część wsi,,49.7675649103473,22.041783409296965
2BE36587-75C4-BC4E-E053-CC2BA8C0B402,1802,1802013,0346023,5674,Bielówka,przysiółek,,49.7518167401012,22.06545588265855
2BE36587-769C-BC4E-E053-CC2BA8C0B402,1802,1802062,0357430,179335,Góralówka,część wsi,,49.78756623162223,22.127324513216752
2BE36587-7601-BC4E-E053-CC2BA8C0B402,1802,1802032,0350740,42815,Jabłonica Ruska,wieś,1.0,49.70316666760971,22.23943052262045
557f3b3b-730d-44a8-a59d-bacd0e449cd3,1802,1802062,0357593,238738,Poręby,część wsi,,49.76101596664365,22.153109620983603
2BE36587-768A-BC4E-E053-CC2BA8C0B402,1802,1802062,0357713,42739,Izdebki,wieś,2420.0,49.75073017356456,22.1152803497548
2BE36587-7675-BC4E-E053-CC2BA8C0B402,1802,1802062,0358204,150697,Wołodź,wieś,9.0,49.72769059000844,22.238889631839594
2BE36587-76C8-BC4E-E053-CC2BA8C0B402,1802,1802013,0346135,141811,Turze Pole,wieś,1110.0,49.664336669355784,22.004502026013395
2BE36587-7681-BC4E-E053-CC2BA8C0B402,1802,1802032,0351107,139340,Temeszów,wieś,283.0,49.687266751573965,22.21972454208402
2BE36587-75D4-BC4E-E053-CC2BA8C0B402,1802,1802032,0351225,152352,Wydrna,wieś,547.0,49.71758955346682,22.129153575732754
2BE36587-76B8-BC4E-E053-CC2BA8C0B402,1802,1802042,0351449,76218,Malinówka,wieś,1067.0,49.69403670940785,21.937526242297622
2BE36587-75E4-BC4E-E053-CC2BA8C0B402,1802,1802062,0357972,121905,Siedliska,wieś,359.0,49.75531919813221,22.25330222327672
2BE36587-7657-BC4E-E053-CC2BA8C0B402,1802,1802062,0357771,90513,Nozdrzec,wieś,1255.0,49.776228733773884,22.200493046791365
2BE36587-75D2-BC4E-E053-CC2BA8C0B402,1802,1802062,0357699,42141,Huta Poręby,wieś,180.0,49.73862404601231,22.266510373041154
2BE36587-76C7-BC4E-E053-CC2BA8C0B402,1802,1802013,0346218,162145,Zmiennica,wieś,1220.0,49.67570525768657,21.961983953204967
2BE36587-75B6-BC4E-E053-CC2BA8C0B402,1802,1802042,0351515,141216,Trześniów,wieś,1057.0,49.643543578741,21.939842658782908
2BE36587-75A2-BC4E-E053-CC2BA8C0B402,1802,1802032,0350668,27784,Dydnia,wieś,1484.0,49.68581982393256,22.158547336703855
2BE36587-7667-BC4E-E053-CC2BA8C0B402,1802,1802042,0351544,154125,Wzdów,wieś,904.0,49.637619272141066,21.99373845481595
2BE36587-76B3-BC4E-E053-CC2BA8C0B402,1802,1802013,0345495,36192,Górki,wieś,1444.0,49.64206764202709,22.046026970821785
2BE36587-7612-BC4E-E053-CC2BA8C0B402,1802,1802032,0351142,142864,Ulucz,osada,73.0,49.6825486617537,22.28713203043729
2BE36587-75E2-BC4E-E053-CC2BA8C0B402,1802,1802032,0351159,149001,Witryłów,wieś,394.0,49.6657494698326,22.238797316275246
2BE36587-76A3-BC4E-E053-CC2BA8C0B402,1802,1802032,0350817,57466,Końskie,wieś,457.0,49.64392598455419,22.22242961830531
2BE36587-76CF-BC4E-E053-CC2BA8C0B402,1802,1802032,0350881,63719,Krzywe,wieś,369.0,49.66375852422822,22.191217145534868
2BE36587-75A1-BC4E-E053-CC2BA8C0B402,1802,1802032,0350697,37690,Grabówka,wieś,542.0,49.656237931051415,22.14380894123465
2BE36587-7599-BC4E-E053-CC2BA8C0B402,1802,1802013,0345615,37533,Grabownica Starzeńska,wieś,3215.0,49.659261595770346,22.080116718829416
2BE36587-76C3-BC4E-E053-CC2BA8C0B402,1802,1802052,0352667,150028,Wola Jasienicka,wieś,647.0,49.75915287267392,21.886774342009407
2BE36587-75A5-BC4E-E053-CC2BA8C0B402,1802,1802052,0352360,44795,Jasienica Rosielna,wieś,2163.0,49.755899128338825,21.92677529237311
2BE36587-75F3-BC4E-E053-CC2BA8C0B402,1802,1802062,0357890,179394,Rymarczyna,część wsi,,49.77471011198326,22.206709175393552
2BE36587-7617-BC4E-E053-CC2BA8C0B402,1802,1802032,0350970,153168,Wypchaj,część wsi,,49.66921303927126,22.132294753378357
2BE36587-76A1-BC4E-E053-CC2BA8C0B402,1802,1802022,0348677,156848,Zakarczma,część wsi,,49.78995316601006,21.98176231763942
2BE36587-76A7-BC4E-E053-CC2BA8C0B402,1802,1802013,0346017,179208,Zublówka,część wsi,,49.73065950377437,22.06426749890776
2BE36587-75F6-BC4E-E053-CC2BA8C0B402,1802,1802022,0348938,179223,Śmiglówka,część wsi,,49.767466121410074,22.035617142504613
2BE36587-7666-BC4E-E053-CC2BA8C0B402,1802,1802013,0346230,26010,Dół,część wsi,,49.67246730531267,21.964618519890067
2BE36587-76C2-BC4E-E053-CC2BA8C0ML00,1802,1802062,0357682,119739,Rzeki Hłudzieńskie,przysiółek,,49.760584715057185,22.161385680138455
2BE36587-758F-BC4E-E053-CC2BA8C0B402,1802,1802062,0357423,30839,Gacówki,część wsi,,49.771882351764994,22.130308469878855
2BE36587-762C-BC4E-E053-CC2BA8C0B402,1802,1802052,0352489,109366,Potoki,część wsi,,49.74619969126112,21.92576326501011
2BE36587-7628-BC4E-E053-CC2BA8C0B402,1802,1802013,0345644,30322,Folwark,część wsi,,49.654805501340284,22.0733829227118
2BE36587-7620-BC4E-E053-CC2BA8C0B402,1802,1802062,0357966,164249,Żurawiec,przysiółek,,49.78837232424915,22.220435898073973
2BE36587-762D-BC4E-E053-CC2BA8C0B402,1802,1802052,0352727,108389,Poprawka,część wsi,,49.76967296146827,21.893649116309987
2BE36587-7693-BC4E-E053-CC2BA8C0B402,1802,1802052,0352265,179303,Dwór,część wsi,,49.76011298789829,21.96670563530899
2BE36587-763D-BC4E-E053-CC2BA8C0B402,1802,1802052,0352638,150175,Wola Orzechowska,część wsi,,49.71621289681756,21.96434628348322
2BE36587-766D-BC4E-E053-CC2BA8C0B402,1802,1802022,0348743,155542,Drykowa,przysiółek,,49.79816212029356,22.011791403168463
2BE36587-763F-BC4E-E053-CC2BA8C0B402,1802,1802032,0350680,149859,Wola Dydyńska,przysiółek,,49.676500909183666,22.144092899464443
2BE36587-769B-BC4E-E053-CC2BA8C0B402,1802,1802022,0348861,108504,Porąbki,część wsi,,49.770995225206185,22.00013694400389
2BE36587-7590-BC4E-E053-CC2BA8C0B402,1802,1802062,0358180,119442,Ryta Górka,przysiółek,,49.82118806223466,22.065673052172475
2BE36587-76A8-BC4E-E053-CC2BA8C0B402,1802,1802032,0350929,109370,Potoki,część wsi,,49.683359174130786,22.100905940610676
2BE36587-75EA-BC4E-E053-CC2BA8C0B402,1802,1802062,0357541,179356,Mistakówka,część wsi,,49.766673723239926,22.176318153093266
2BE36587-75EC-BC4E-E053-CC2BA8C0B402,1802,1802032,0350786,57804,Kopaniska,część wsi,,49.706521910498864,22.111710580469676
2BE36587-76EB-BC4E-E053-CC2BA8C0B402,1802,1802052,0352288,175874,Jasionka,część wsi,,49.76176224865264,21.95613856082236
2BE36587-76D5-BC4E-E053-CC2BA8C0B402,1802,1802052,0352650,158674,Zapolany,część wsi,,49.734286121933785,21.9292249764837
2BE36587-760B-BC4E-E053-CC2BA8C0B402,1802,1802052,0352584,43334,Jakowiec,część wsi,,49.72617764964548,21.960913151852232
777a4b4c-58dc-48e3-b401-6752ca1f89b4,1802,1802062,0357386,179321,Dolina,część wsi,,49.77278384833021,22.17918918619745
2BE36587-76BE-BC4E-E053-CC2BA8C0B402,1802,1802062,0357860,179383,Poddąb,część wsi,,49.771180563052575,22.189024156123835
2BE36587-7690-BC4E-E053-CC2BA8C0B402,1802,1802013,0345549,179163,Góra,część wsi,,49.647456141902595,22.045939175474125
2BE36587-75AD-BC4E-E053-CC2BA8C0B402,1802,1802022,0348720,24624,Doboszówka,część wsi,,49.76912318701801,22.052394259719897
2BE36587-769E-BC4E-E053-CC2BA8C0B402,1802,1802062,0357742,119712,Rzeki,część wsi,,49.75515366850193,22.144685960803237
d278bcef-ffc0-4474-b790-5b96c6156ae6,1802,1802062,0357452,37148,Grabnik,część wsi,,49.77928707420531,22.136828584755836
e1868931-eabd-4399-9710-a13bd4caa5d8,1802,1802062,0357446,179336,Górka,część wsi,,49.773381705260626,22.144720237017392
46101316-625a-41bf-8ef5-b0f7983e49a5,1802,1802062,0357417,179334,Filówka,część wsi,,49.77397972773328,22.140485750780407
2BE36587-765E-BC4E-E053-CC2BA8C0B402,1802,1802013,0345503,179154,Baniówka,część wsi,,49.64636122722861,22.049357036386702
2BE36587-7664-BC4E-E053-CC2BA8C0B402,1802,1802013,0345963,179198,Rębówka,część wsi,,49.72797090686653,22.04826458097609
2BE36587-7644-BC4E-E053-CC2BA8C0B402,1802,1802042,0351567,179299,Nowa Wieś,część wsi,,49.63343860473066,21.996431552438743
2BE36587-76B2-BC4E-E053-CC2BA8C0B402,1802,1802032,0350823,1465,Babińskie,część wsi,,49.63906479172405,22.216202202179034
2BE36587-76E7-BC4E-E053-CC2BA8C0B402,1802,1802052,0352590,72246,Łąki,część wsi,,49.720727949628234,21.95932420678685
2BE36587-7642-BC4E-E053-CC2BA8C0B402,1802,1802013,0345673,147995,Wieliwiszczyzna,część wsi,,49.66473697300992,22.059814804926333
2BE36587-75C7-BC4E-E053-CC2BA8C0B402,1802,1802042,0351455,179295,Dół,część wsi,,49.69868964445914,21.920819423313034
2BE36587-76DF-BC4E-E053-CC2BA8C0B402,1802,1802062,0358109,179402,Stadnikówka,część wsi,,49.75428718621519,22.203163874046094
2BE36587-76E0-BC4E-E053-CC2BA8C0B402,1802,1802032,0350792,71811,Łazy,część wsi,,49.697781668523255,22.103981010759025
2BE36587-75E8-BC4E-E053-CC2BA8C0B402,1802,1802013,0345800,152718,Wygon,część wsi,,49.68061011514025,22.062230192544444
2BE36587-7589-BC4E-E053-CC2BA8C0B402,1802,1802013,0346224,13488,Bukowskie Góry,część wsi,,49.66953772516615,21.967446935702004
2BE36587-7641-BC4E-E053-CC2BA8C0B402,1802,1802042,0351260,101849,Plac,część wsi,,49.678754841704,21.881023670760115
2BE36587-7646-BC4E-E053-CC2BA8C0B402,1802,1802062,0358003,179317,Banachówka,część wsi,,49.75792339143681,22.173641549554922
2BE36587-76DE-BC4E-E053-CC2BA8C0B402,1802,1802013,0345791,145688,Widły,część wsi,,49.66141168254965,22.048688969067673
2BE36587-76E2-BC4E-E053-CC2BA8C0B402,1802,1802032,0350705,35705,Góra,część wsi,,49.64946895209706,22.160244392611656
2BE36587-76EA-BC4E-E053-CC2BA8C0B402,1802,1802062,0357877,179392,Półanki,część wsi,,49.7723789099184,22.206401813421767
2BE36587-7672-BC4E-E053-CC2BA8C0B402,1802,1802032,0351076,175870,Łaz,część wsi,,49.712816607781754,22.194848222522154
2BE36587-76E5-BC4E-E053-CC2BA8C0B402,1802,1802062,0357587,179389,Politówka,część wsi,,49.77088034120424,22.163582797333266
2BE36587-75F5-BC4E-E053-CC2BA8C0B402,1802,1802022,0348594,179225,Pilchówka,część wsi,,49.791395753896914,21.979375387455473
2BE36587-75CB-BC4E-E053-CC2BA8C0B402,1802,1802032,0351060,179266,Kamieniec,część wsi,,49.71878296778168,22.17380679741378
2BE36587-75FC-BC4E-E053-CC2BA8C0B402,1802,1802062,0358078,179361,Perczówka,część wsi,,49.7587558965693,22.185351800312738
2BE36587-766E-BC4E-E053-CC2BA8C0B402,1802,1802052,0352644,156082,Zagórze,część wsi,,49.712135135408026,21.95619268022855
7c3d1f35-bc28-4b98-8a36-c3abda29ML00,1802,1802062,0357618,175876,Rosochy,część wsi,,49.77532361036325,22.118011447399315
a6f36881-1e5c-4369-97e7-940a01a37956,1802,1802062,0357653,179413,Warszawa,część wsi,,49.77229352553652,22.147637315068177
2BE36587-759A-BC4E-E053-CC2BA8C0B402,1802,1802022,0348370,7290,Bobrówka,część wsi,,49.81163761786109,22.045693753176202
2BE36587-75B7-BC4E-E053-CC2BA8C0B402,1802,1802042,0351410,37129,Grabiec,część wsi,,49.66398243077011,21.991276000434013
2BE36587-75BA-BC4E-E053-CC2BA8C0B402,1802,1802013,0345957,179196,Potok,część wsi,,49.71417354763276,22.046186413143648
2BE36587-76C4-BC4E-E053-CC2BA8C0B402,1802,1802013,0345650,76465,Mała Strona,część wsi,,49.65066236454654,22.080476418245766
2BE36587-7645-BC4E-E053-CC2BA8C0B402,1802,1802013,0345756,76463,Mała Strona,część wsi,,49.678246693697815,22.022642775518964
2BE36587-758D-BC4E-E053-CC2BA8C0B402,1802,1802062,0358144,179326,Dział,część wsi,,49.80462805269433,22.082767123592745
2BE36587-75DC-BC4E-E053-CC2BA8C0B402,1802,1802032,0350711,51991,Kąty,część wsi,,49.66757182473158,22.136460785279958
2BE36587-75DE-BC4E-E053-CC2BA8C0B402,1802,1802052,0352437,179312,Niebylec,część wsi,,49.7491591758217,21.91814609737193
2BE36587-766B-BC4E-E053-CC2BA8C0B402,1802,1802013,0346081,35696,Góra,część wsi,,49.706061720442044,22.00530367346179
2BE36587-7686-BC4E-E053-CC2BA8C0B402,1802,1802013,0345970,119814,Rzepkówka,część wsi,,49.7187461235288,22.048241011765047
2BE36587-7689-BC4E-E053-CC2BA8C0B402,1802,1802013,0345845,179148,Bazelówka,część wsi,,49.72148752945069,22.045819739741873
2BE36587-76ED-BC4E-E053-CC2BA8C0B402,1802,1802022,0348737,179211,Dół,część wsi,,49.777750107553096,22.017109649629543
2BE36587-76EE-BC4E-E053-CC2BA8C0B402,1802,1802062,0357788,179316,Banachówka,część wsi,,49.76909176348457,22.18540202410435
2BE36587-76D6-BC4E-E053-CC2BA8C0B402,1802,1802013,0345839,179147,Baranówka,część wsi,,49.72254798460776,22.047219055275505
2BE36587-76AC-BC4E-E053-CC2BA8C0B402,1802,1802062,0357535,179351,Łąka,część wsi,,49.78184016776537,22.132754298026097
2BE36587-76DD-BC4E-E053-CC2BA8C0B402,1802,1802062,0357707,44980,Jasionów,część wsi,,49.72881705262773,22.277205811311998
2BE36587-76AA-BC4E-E053-CC2BA8C0B402,1802,1802062,0357564,179368,Podchełm,część wsi,,49.78501944495266,22.123825009595798
2BE36587-76E9-BC4E-E053-CC2BA8C0B402,1802,1802062,0358084,179365,Pilasówka,część wsi,,49.75204984152681,22.203754619415722
2BE36587-7621-BC4E-E053-CC2BA8C0B402,1802,1802052,0352383,10911,Brzezianka,część wsi,,49.73601568479017,21.909309011946444
e781308b-d795-4615-b164-14885861e290,1802,1802062,0358167,75297,Magierów,przysiółek,,49.78356473702834,22.056413898773766
2BE36587-7684-BC4E-E053-CC2BA8C0B402,1802,1802013,0346158,175867,Grabiec,część wsi,,49.66835313595407,21.990505264975198
2BE36587-764D-BC4E-E053-CC2BA8C0B402,1802,1802062,0357914,179404,Stawki,część wsi,,49.77354999667866,22.190283123943892
2BE36587-75AE-BC4E-E053-CC2BA8C0B402,1802,1802052,0352615,105281,Podlesie,część wsi,,49.73500139329055,21.917446031468263
2BE36587-75AC-BC4E-E053-CC2BA8C0B402,1802,1802062,0357908,179399,Smorogówka,część wsi,,49.77166396155882,22.20104973044505
2BE36587-76D9-BC4E-E053-CC2BA8C0B402,1802,1802062,0357736,109369,Potoki,część wsi,,49.763099582421845,22.124968084753654
2BE36587-76DB-BC4E-E053-CC2BA8C0B402,1802,1802062,0357469,168439,Horb,część wsi,,49.78300204689437,22.128731567190655
2BE36587-769F-BC4E-E053-CC2BA8C0ML00,1802,1802062,0357819,179337,Grabnik,część wsi,,49.76781173798783,22.19568461262463
2BE36587-760A-BC4E-E053-CC2BA8C0B402,1802,1802013,0345584,117384,Równie,część wsi,,49.65402594237252,22.04510849800511
2BE36587-7658-BC4E-E053-CC2BA8C0B402,1802,1802013,0345727,179181,Jakla Duża,część wsi,,49.70137472807076,22.057111885055274
2BE36587-75A0-BC4E-E053-CC2BA8C0B402,1802,1802013,0345578,179169,Pasterniki,część wsi,,49.648190962349645,22.031643527120785
2BE36587-7603-BC4E-E053-CC2BA8C0B402,1802,1802032,0350869,179286,Poddoliny,część wsi,,49.70444999719089,22.19484619987509
2BE36587-75B5-BC4E-E053-CC2BA8C0B402,1802,1802062,0357624,179396,Skała,część wsi,,49.789295870928186,22.11627879218446
2BE36587-7630-BC4E-E053-CC2BA8C0B402,1802,1802022,0348789,179216,Hadamówka,część wsi,,49.77042785149984,22.025292646380684
2BE36587-7593-BC4E-E053-CC2BA8C0B402,1802,1802062,0357854,198709,Podchełm,część wsi,,49.769248306054294,22.178130121677384
2BE36587-767B-BC4E-E053-CC2BA8C0B402,1802,1802013,0346193,104546,Podgórze,część wsi,,49.66162900884347,22.007965491839258
2BE36587-767D-BC4E-E053-CC2BA8C0B402,1802,1802013,0345851,179149,Buczkówka,część wsi,,49.719239094074034,22.043163577089608
2BE36587-76DC-BC4E-E053-CC2BA8C0B402,1802,1802022,0348648,116361,Role,część wsi,,49.797976443248075,21.955699805002933
2BE36587-766F-BC4E-E053-CC2BA8C0B402,1802,1802042,0351343,12892,Budzyń,część wsi,,49.686630001681586,21.883764036674677
2BE36587-768C-BC4E-E053-CC2BA8C0B402,1802,1802042,0351426,117491,Różanka,część wsi,,49.66353028249653,21.972486066202688
2BE36587-7682-BC4E-E053-CC2BA8C0B402,1802,1802032,0351001,42040,Huty,część wsi,,49.73142734344073,22.195859711432973
2BE36587-759C-BC4E-E053-CC2BA8C0B402,1802,1802042,0351366,152618,Wygoda,część wsi,,49.70179258531635,21.8826765369431
2BE36587-76BA-BC4E-E053-CC2BA8C0B402,1802,1802013,0346187,104426,Podgóra,część wsi,,49.67050923207177,22.00656608268545
2BE36587-760F-BC4E-E053-CC2BA8C0B402,1802,1802042,0351509,179300,Paniczówka,część wsi,,49.694973038543154,21.922017489392147
2BE36587-76C0-BC4E-E053-CC2BA8C0B402,1802,1802013,0346030,172755,Nowiny,przysiółek,,49.74373669078702,22.030267461248254
7cb496f4-8b72-4aba-8e89-a4014cb66d04,1802,1802022,0348832,89546,Nowiny,część wsi,,49.75267151729302,22.03731600922654
2BE36587-75BC-BC4E-E053-CC2BA8C0B402,1802,1802022,0348884,179238,Półanek,część wsi,,49.76854644430817,22.03102619191491
2BE36587-7650-BC4E-E053-CC2BA8C0B402,1802,1802022,0348536,35695,Góra,część wsi,,49.79160784793804,21.9713877456458
2BE36587-76B5-BC4E-E053-CC2BA8C0B402,1802,1802013,0346069,26008,Dół,część wsi,,49.72616674044263,22.004786621826753
2BE36587-7679-BC4E-E053-CC2BA8C0B402,1802,1802042,0351550,179296,Hektary,część wsi,,49.63286362161107,21.98663449710988
2BE36587-7610-BC4E-E053-CC2BA8C0B402,1802,1802052,0352578,35925,Górka,część wsi,,49.735527113814165,21.94447241778072
2BE36587-768F-BC4E-E053-CC2BA8C0B402,1802,1802042,0351538,72627,Łęg,osada,,49.62768928441388,21.936090455803008
2BE36587-759B-BC4E-E053-CC2BA8C0B402,1802,1802042,0351314,139562,Tłoki,przysiółek,,49.675440221931716,21.922295487496203
2BE36587-7691-BC4E-E053-CC2BA8C0B402,1802,1802013,0345638,27197,Duża Strona,część wsi,,49.65305613926594,22.085622360773474
2BE36587-75F9-BC4E-E053-CC2BA8C0B402,1802,1802032,0351171,179264,Dzilec,część wsi,,49.673333513630006,22.238895835330197
2BE36587-7616-BC4E-E053-CC2BA8C0B402,1802,1802062,0357950,119711,Rzeki,przysiółek,,49.78909351358263,22.20515131732512
2BE36587-75F2-BC4E-E053-CC2BA8C0B402,1802,1802062,0358196,142626,Ujazdy,przysiółek,,49.82503017727351,22.098511695421344
2BE36587-75F7-BC4E-E053-CC2BA8C0B402,1802,1802022,0348513,12834,Budzisz,część wsi,,49.78654216791187,21.950245465987518
2BE36587-76B6-BC4E-E053-CC2BA8C0B402,1802,1802062,0357794,179318,Baranówki,część wsi,,49.76788126080805,22.2165214906068
2BE36587-75BE-BC4E-E053-CC2BA8C0B402,1802,1802062,0357660,179414,Widacz,część wsi,,49.76895861936142,22.16922538963949
2BE36587-76AD-BC4E-E053-CC2BA8C0B402,1802,1802013,0345696,64128,Ksawerów,przysiółek,,49.678698254196036,22.08498520800677
2BE36587-76B0-BC4E-E053-CC2BA8C0B402,1802,1802052,0352549,26007,Dół,część wsi,,49.73649467282472,21.95429211524106
2BE36587-7661-BC4E-E053-CC2BA8C0B402,1802,1802022,0348387,179214,Grządzielówka,część wsi,,49.8144000598133,22.039152405550436
2BE36587-76C6-BC4E-E053-CC2BA8C0B402,1802,1802032,0351120,179268,Łaz,część wsi,,49.68354697216461,22.218594184588863
2BE36587-75A6-BC4E-E053-CC2BA8C0B402,1802,1802032,0351202,119604,Rzeki pod Mordaniem,część wsi,,49.64506587700827,22.249951478642664
2BE36587-7633-BC4E-E053-CC2BA8C0B402,1802,1802022,0348453,179247,Sowówka,część wsi,,49.81911226984957,22.014945402235394
2BE36587-7605-BC4E-E053-CC2BA8C0B402,1802,1802042,0351277,105939,Podole,część wsi,,49.64142093922932,21.907259096520537
2BE36587-75AA-BC4E-E053-CC2BA8C0B402,1802,1802032,0350830,75299,Magierów,część wsi,,49.64893948554478,22.20632797526712
2BE36587-7606-BC4E-E053-CC2BA8C0B402,1802,1802022,0348424,179222,Miasto,część wsi,,49.81017670968531,22.037592416658573
2BE36587-7692-BC4E-E053-CC2BA8C0B402,1802,1802052,0352466,102553,Płosina Górna,część wsi,,49.76756955348019,21.936325134024976
2BE36587-762B-BC4E-E053-CC2BA8C0B402,1802,1802062,0357676,179415,Zakopiec,część wsi,,49.77834328044102,22.132397009478833
2BE36587-758C-BC4E-E053-CC2BA8C0B402,1802,1802042,0351308,121703,Sicina,przysiółek,,49.64797615281871,21.88020503315858
2BE36587-75CA-BC4E-E053-CC2BA8C0B402,1802,1802032,0350912,76464,Mała Strona,część wsi,,49.6738771553098,22.101560439509683
2BE36587-75A3-BC4E-E053-CC2BA8C0B402,1802,1802052,0352704,179311,Moczarze,część wsi,,49.76612329486873,21.87881877228529
2BE36587-7631-BC4E-E053-CC2BA8C0B402,1802,1802042,0351521,156008,Trześniówka,część wsi,,49.65096871476148,21.943777545408878
2BE36587-7592-BC4E-E053-CC2BA8C0B402,1802,1802013,0345874,179178,Jajkówka,część wsi,,49.71910829110989,22.04511397161149
2BE36587-7587-BC4E-E053-CC2BA8C0B402,1802,1802022,0348625,104985,Podlas,część wsi,,49.782976760025576,21.914654941226775
2BE36587-758A-BC4E-E053-CC2BA8C0B402,1802,1802032,0351136,119714,Rzeki,część wsi,,49.66296270524378,22.259108198452815
2BE36587-7698-BC4E-E053-CC2BA8C0B402,1802,1802032,0350941,111873,Przylaski,część wsi,,49.68487390225052,22.117116435409574
2BE36587-75FB-BC4E-E053-CC2BA8C0B402,1802,1802052,0352331,116362,Role,część wsi,,49.74908394198327,21.969122034921472
2BE36587-759E-BC4E-E053-CC2BA8C0B402,1802,1802013,0345905,179184,Mikosiówka,część wsi,,49.724579008746424,22.047688083111407
2BE36587-7697-BC4E-E053-CC2BA8C0B402,1802,1802032,0350964,131822,Wielka Strona,część wsi,,49.677100136700425,22.09880776811219
2BE36587-7699-BC4E-E053-CC2BA8C0B402,1802,1802062,0358061,179357,Nad Borsukami,część wsi,,49.7607630012575,22.220096019095088
2BE36587-7649-BC4E-E053-CC2BA8C0B402,1802,1802013,0952918,145636,Widacz,część miasta,,49.705658867005695,22.02812825636373
2BE36587-75DD-BC4E-E053-CC2BA8C0B402,1802,1802013,0952893,105283,Podlesie,część miasta,,49.684038585340474,21.99791372552153
2BE36587-76D8-BC4E-E053-CC2BA8C0B402,1802,1802013,0952858,179145,Blich,część miasta,,49.701729473313776,22.023192516310623
2BE36587-76D2-BC4E-E053-CC2BA8C0B402,1802,1802013,0952870,175860,Jakla Mała,część miasta,,49.69597693620281,22.04214418375808
2BE36587-760C-BC4E-E053-CC2BA8C0B402,1802,1802062,0358032,179333,Dżyłówka,część wsi,,49.75568053551868,22.196445092073535
2BE36587-760D-BC4E-E053-CC2BA8C0B402,1802,1802052,0352242,20881,Czubówka,część wsi,,49.737179495972796,21.99770312017379
2BE36587-760E-BC4E-E053-CC2BA8C0B402,1802,1802022,0348654,115615,Rynki,część wsi,,49.79253252490623,21.975186462971127
2BE36587-75BB-BC4E-E053-CC2BA8C0B402,1802,1802042,0351490,179298,Niebylec,część wsi,,49.69498106455133,21.932370139767656
2BE36587-7614-BC4E-E053-CC2BA8C0B402,1802,1802052,0352348,130522,Stawiska,część wsi,,49.73780324183261,21.977026667648392
2BE36587-758B-BC4E-E053-CC2BA8C0B402,1802,1802022,0348915,179239,Stańkówka,część wsi,,49.76250662969221,22.046558626895802
2BE36587-7586-BC4E-E053-CC2BA8C0B402,1802,1802022,0348619,104726,Podhyb,część wsi,,49.78586513286891,21.954915166013212
2BE36587-7613-BC4E-E053-CC2BA8C0B402,1802,1802062,0357512,179347,Lemciówka,część wsi,,49.771431792541584,22.155077599828118
2BE36587-758E-BC4E-E053-CC2BA8C0B402,1802,1802013,0345555,179165,Graboniówka,część wsi,,49.64093262238342,22.046292622985412
2BE36587-75E3-BC4E-E053-CC2BA8C0B402,1802,1802013,0345880,179182,Jasek,część wsi,,49.7175814619761,22.044364842403166
2BE36587-75E6-BC4E-E053-CC2BA8C0B402,1802,1802042,0351573,175873,Ruda,część wsi,,49.6452078783216,21.983297442760232
2BE36587-75C9-BC4E-E053-CC2BA8C0B402,1802,1802062,0357848,179362,Pierogówka,część wsi,,49.77559006737365,22.1878591432494
2BE36587-765B-BC4E-E053-CC2BA8C0B402,1802,1802052,0352390,18863,Czarna Górka,część wsi,,49.7471802956188,21.935922146406366
2BE36587-75B0-BC4E-E053-CC2BA8C0B402,1802,1802022,0348542,45052,Jasna Góra,część wsi,,49.782482010490135,21.998792761303243
2BE36587-7619-BC4E-E053-CC2BA8C0B402,1802,1802022,0348401,179219,Kozubówka,część wsi,,49.81575661718693,22.019695296378583
2BE36587-767A-BC4E-E053-CC2BA8C0B402,1802,1802022,0348631,108740,Poręby,przysiółek,,49.81212283270205,21.98866456589643
2BE36587-7656-BC4E-E053-CC2BA8C0B402,1802,1802062,0357506,179343,Krąg,część wsi,,49.7874367388167,22.112731439911272
2BE36587-75FE-BC4E-E053-CC2BA8C0B402,1802,1802013,0345609,150003,Wola Górecka,przysiółek,,49.62721669889987,22.058348895223627
2BE36587-765A-BC4E-E053-CC2BA8C0B402,1802,1802022,0348571,179224,Obszar,część wsi,,49.78997017898941,21.98699776116926
2BE36587-75D3-BC4E-E053-CC2BA8C0B402,1802,1802013,0346052,179150,Budy,część wsi,,49.714288504661006,22.014375089499644
2BE36587-76CB-BC4E-E053-CC2BA8C0B402,1802,1802013,0345710,168039,Duża Strona,część wsi,,49.67864566991168,22.04734338681059
2BE36587-75B4-BC4E-E053-CC2BA8C0B402,1802,1802062,0358090,179395,Seniusiówka,część wsi,,49.75272137996642,22.21240568960589
2BE36587-7625-BC4E-E053-CC2BA8C0B402,1802,1802052,0352271,35697,Góra,część wsi,,49.73114076987844,21.986199438391253
2BE36587-764E-BC4E-E053-CC2BA8C0B402,1802,1802032,0350935,110741,Przedmieście,część wsi,,49.6772573256609,22.11489291596094
2BE36587-75B3-BC4E-E053-CC2BA8C0B402,1802,1802062,0357802,179323,Dół,część wsi,,49.76724700394381,22.212896946619306
2BE36587-7647-BC4E-E053-CC2BA8C0B402,1802,1802032,0350734,179281,Od Lalina,część wsi,,49.651132654693015,22.13139521412705
2BE36587-75CC-BC4E-E053-CC2BA8C0B402,1802,1802013,0345940,179190,Pietrykówka,część wsi,,49.729652034507325,22.061800898428395
2BE36587-764A-BC4E-E053-CC2BA8C0B402,1802,1802022,0348476,179254,Stecówka,część wsi,,49.817279147645145,22.02460927889043
0fe18191-dc4e-43df-831a-32122486305e,1802,1802022,0348447,179242,Ryta Górka,część wsi,,49.824917202387404,22.054938295596074
2BE36587-76A6-BC4E-E053-CC2BA8C0B402,1802,1802032,0351219,155271,Zaciepłe,część wsi,,49.665739891689576,22.216448327131353
2BE36587-76CA-BC4E-E053-CC2BA8C0B402,1802,1802042,0351254,179297,Miasteczko,część wsi,,49.670191950391214,21.888875836475247
2BE36587-75E1-BC4E-E053-CC2BA8C0B402,1802,1802032,0351024,119603,Rzeka,część wsi,,49.7255178960766,22.18425766036315
2BE36587-76CC-BC4E-E053-CC2BA8C0B402,1802,1802052,0352561,179306,Góra Pierwsza,część wsi,,49.72290693665767,21.934496714927658
2BE36587-76D0-BC4E-E053-CC2BA8C0B402,1802,1802052,0352319,179308,Kuflowa Górka,część wsi,,49.755088057576145,21.970567207031408
2BE36587-7598-BC4E-E053-CC2BA8C0B402,1802,1802013,0346075,175863,Folwark,część wsi,,49.72720525388522,21.992278880192334
2BE36587-75C8-BC4E-E053-CC2BA8C0B402,1802,1802013,0346141,29075,Dziki Gaj,część wsi,,49.66736714694075,22.007223405172788
2BE36587-767E-BC4E-E053-CC2BA8C0B402,1802,1802032,0350728,179280,Od Folwarku,część wsi,,49.66061905228345,22.129201611359147
2BE36587-75D8-BC4E-E053-CC2BA8C0B402,1802,1802013,0952864,8826,Borkówka,część miasta,,49.69666281341515,22.033076784980544
2BE36587-76CE-BC4E-E053-CC2BA8C0B402,1802,1802062,0358138,2906,Barszczówki,część wsi,,49.801100103927844,22.11850057143352
2BE36587-7597-BC4E-E053-CC2BA8C0B402,1802,1802062,0357937,179412,Uryciówka,część wsi,,49.77247267102482,22.184283748177165
2BE36587-75BD-BC4E-E053-CC2BA8C0B402,1802,1802013,0346282,149857,Wola,część wsi,,49.680363729286015,21.947699476392117
2BE36587-76A9-BC4E-E053-CC2BA8C0B402,1802,1802013,0345532,179160,Futówka,część wsi,,49.65088225653425,22.039047299861906
2BE36587-76AB-BC4E-E053-CC2BA8C0B402,1802,1802013,0346106,179207,Zagroda,część wsi,,49.71029726451636,22.00788779821061
2BE36587-7680-BC4E-E053-CC2BA8C0B402,1802,1802062,0358026,179324,Dół,część wsi,,49.75413637611264,22.21871213452735
2BE36587-76DA-BC4E-E053-CC2BA8C0B402,1802,1802032,0351194,175871,Rzeki nad Sanem,część wsi,,49.66798278227428,22.252051260959227
2BE36587-76C9-BC4E-E053-CC2BA8C0B402,1802,1802022,0348772,172756,Górka,część wsi,,49.792801719944435,21.971875005441284
2BE36587-75E7-BC4E-E053-CC2BA8C0B402,1802,1802013,0345868,179177,Folwark,część wsi,,49.71320029909955,22.045600111425443
2BE36587-7591-BC4E-E053-CC2BA8C0B402,1802,1802013,0345561,53285,Kijowiec,część wsi,,49.6471144224637,22.056078995082114
2BE36587-76BF-BC4E-E053-CC2BA8C0B402,1802,1802062,0357570,179386,Podolszyna,część wsi,,49.77751094781377,22.141329431019898
2BE36587-7622-BC4E-E053-CC2BA8C0B402,1802,1802052,0352680,179307,Krzemionka,część wsi,,49.75089081237423,21.881061920288104
2BE36587-76E3-BC4E-E053-CC2BA8C0B402,1802,1802013,0952901,179146,Potok,część miasta,,49.692629811718355,22.007968473121135
2BE36587-75CE-BC4E-E053-CC2BA8C0B402,1802,1802013,0952887,175859,Jakla Wielka,część miasta,,49.707429066823266,22.051360849742377
2BE36587-76EF-BC4E-E053-CC2BA8C0B402,1802,1802013,0345621,26012,Dół,część wsi,,49.66552963156527,22.07574740230669
2BE36587-75E0-BC4E-E053-CC2BA8C0B402,1802,1802052,0352526,179301,Brzezianka,część wsi,,49.733957621626814,21.908537286987094
2BE36587-76B9-BC4E-E053-CC2BA8C0B402,1802,1802022,0348559,63585,Krzywa,część wsi,,49.805060895293714,21.959961493348494
2BE36587-75F0-BC4E-E053-CC2BA8C0B402,1802,1802032,0350852,179258,Dział,część wsi,,49.69537778390677,22.194971177212263
2BE36587-7648-BC4E-E053-CC2BA8C0B402,1802,1802022,0348602,102551,Płosina,część wsi,,49.77790950976229,21.944677688575005
2BE36587-75AB-BC4E-E053-CC2BA8C0B402,1802,1802022,0348690,159624,Zatyle,część wsi,,49.8121711506502,21.96013015707962
2BE36587-75EF-BC4E-E053-CC2BA8C0B402,1802,1802013,0345740,175865,Łazy,część wsi,,49.68653834524982,22.06699806036394
2BE36587-763C-BC4E-E053-CC2BA8C0B402,1802,1802013,0346247,35701,Góra,część wsi,,49.67897003140433,21.95648934892965
2BE36587-7660-BC4E-E053-CC2BA8C0B402,1802,1802062,0357400,179325,Dział,część wsi,,49.79007980506583,22.12551971880074
2BE36587-75D1-BC4E-E053-CC2BA8C0B402,1802,1802052,0352377,6528,Błędna,część wsi,,49.76033943023888,21.923820064160196
2BE36587-76B7-BC4E-E053-CC2BA8C0B402,1802,1802013,0345590,179172,Rygłówka,część wsi,,49.64015846552909,22.053376936981845
2BE36587-7585-BC4E-E053-CC2BA8C0B402,1802,1802013,0346170,96767,Pańska Góra,część wsi,,49.6705177686714,22.00332250120333
2BE36587-7618-BC4E-E053-CC2BA8C0B402,1802,1802052,0352408,26853,Dudki,część wsi,,49.74730714355036,21.91555906328761
2BE36587-75CF-BC4E-E053-CC2BA8C0B402,1802,1802052,0352325,85035,Pańskie Pole,część wsi,,49.755114395022105,21.960228500753054
2BE36587-7643-BC4E-E053-CC2BA8C0B402,1802,1802032,0350993,179262,Dział,część wsi,,49.720098159445385,22.211111712150103
2BE36587-7608-BC4E-E053-CC2BA8C0B402,1802,1802013,0346098,123657,Skokówka,część wsi,,49.721022715066454,22.00011808152492
2BE36587-75B1-BC4E-E053-CC2BA8C0B402,1802,1802062,0357759,175877,Warzyce,część wsi,,49.76331892073749,22.072932638129554
2BE36587-7653-BC4E-E053-CC2BA8C0B402,1802,1802032,0351188,179291,Poręba,część wsi,,49.66751308274861,22.244794026813068
2BE36587-763B-BC4E-E053-CC2BA8C0B402,1802,1802022,0348393,179218,Jastrzębówka,część wsi,,49.8163226878453,22.029336812227527
2BE36587-767C-BC4E-E053-CC2BA8C0B402,1802,1802052,0352302,60379,Kozia Górka,część wsi,,49.76568441785271,21.9642012142507
2BE36587-7678-BC4E-E053-CC2BA8C0B402,1802,1802062,0357825,179346,Kruhel,część wsi,,49.77629978949405,22.190325136949248
2BE36587-761A-BC4E-E053-CC2BA8C0B402,1802,1802062,0358049,179338,Herb,część wsi,,49.75305517126361,22.196207377657185
2BE36587-75C0-BC4E-E053-CC2BA8C0B402,1802,1802052,0352621,145668,Widlacz,część wsi,,49.740008342945515,21.94121818482283
2BE36587-765C-BC4E-E053-CC2BA8C0B402,1802,1802062,0358173,104993,Podlesie,przysiółek,,49.791281387338216,22.048869472064382
2BE36587-75F4-BC4E-E053-CC2BA8C0B402,1802,1802022,0348482,179255,Wolanówka,część wsi,,49.820235076787334,22.020146919868523
2BE36587-75BF-BC4E-E053-CC2BA8C0B402,1802,1802032,0351018,179287,Popodwał,część wsi,,49.73077479981489,22.21078311903704
2BE36587-75C1-BC4E-E053-CC2BA8C0B402,1802,1802022,0348750,179212,Dziedzicówka,część wsi,,49.77070980464767,22.03656030755837
2BE36587-75C2-BC4E-E053-CC2BA8C0B402,1802,1802042,0351395,172757,Bukowskie Góry,część wsi,,49.66707252210018,21.971312865206865
2BE36587-7635-BC4E-E053-CC2BA8C0B402,1802,1802013,0346164,179167,Korea,część wsi,,49.656914464105235,22.013788456478544
2BE36587-7624-BC4E-E053-CC2BA8C0B402,1802,1802032,0351099,179294,Za Chomem,część wsi,,49.71886464048883,22.199175034347828
2BE36587-7629-BC4E-E053-CC2BA8C0B402,1802,1802022,0348909,117492,Różanka,część wsi,,49.75810631428948,22.057151202849056
2BE36587-7652-BC4E-E053-CC2BA8C0B402,1802,1802022,0348714,179210,Cichówka,część wsi,,49.77348360852302,22.021473617766734
2BE36587-75FA-BC4E-E053-CC2BA8C0B402,1802,1802042,0351290,83038,Morawa,przysiółek,,49.66458532317933,21.864484315767395
2BE36587-75B2-BC4E-E053-CC2BA8C0B402,1802,1802032,0350763,26011,Dół,część wsi,,49.702762185513286,22.126037903602843
2BE36587-7604-BC4E-E053-CC2BA8C0B402,1802,1802032,0351053,179259,Dział,część wsi,,49.71404078294129,22.16511442248108
2BE36587-7654-BC4E-E053-CC2BA8C0B402,1802,1802062,0357920,179409,Turoniówka,część wsi,,49.772911465634536,22.194306588264887
2BE36587-76D4-BC4E-E053-CC2BA8C0B402,1802,1802032,0350800,111872,Przylaski,część wsi,,49.68907864584028,22.115586199397335
2BE36587-7640-BC4E-E053-CC2BA8C0B402,1802,1802022,0348890,116516,Ropa,przysiółek,,49.790966645170684,22.029421076085807
2BE36587-75D6-BC4E-E053-CC2BA8C0B402,1802,1802052,0352354,152713,Wygon,część wsi,,49.74640594627269,21.981521725275044
2BE36587-767F-BC4E-E053-CC2BA8C0B402,1802,1802052,0352710,104983,Podlas,część wsi,,49.764430953669105,21.876865934875493
2BE36587-76BD-BC4E-E053-CC2BA8C0B402,1802,1802062,0357765,117856,Rudawiec,przysiółek,,49.735148752393734,22.10346739635574
2BE36587-75A4-BC4E-E053-CC2BA8C0B402,1802,1802062,0358055,179355,Łucówka,część wsi,,49.75549937069924,22.191091145916573
2BE36587-75D7-BC4E-E053-CC2BA8C0B402,1802,1802022,0348460,168437,Stanclówka,część wsi,,49.81651518375817,22.047797283273187
7a365e70-0a7e-11e7-b27a-14dae91af322,1802,1802042,0351432,117744,Ruda,część wsi,,49.64361118631169,21.979338498304024
2BE36587-76C1-BC4E-E053-CC2BA8C0B402,1802,1802062,0357989,32227,Gdyczyna,przysiółek,,49.742945852598716,22.23842477633235
2BE36587-7636-BC4E-E053-CC2BA8C0B402,1802,1802062,0357529,179350,Łapajówka,część wsi,,49.77698644301721,22.137952048812476
2BE36587-7638-BC4E-E053-CC2BA8C0B402,1802,1802022,0348588,96766,Pańska Góra,część wsi,,49.79261546239237,21.98998346826353
2BE36587-762A-BC4E-E053-CC2BA8C0B402,1802,1802013,0345680,157282,Zalas,część wsi,,49.668222444165174,22.093899889742886
2BE36587-75F8-BC4E-E053-CC2BA8C0ML00,1802,1802022,0348849,175869,Podlas,część wsi,,49.75342412408749,22.069588698245298
2BE36587-763E-BC4E-E053-CC2BA8C0B402,1802,1802013,0345897,179183,Mazurówka,część wsi,,49.72043049046221,22.04557921256017
2BE36587-764F-BC4E-E053-CC2BA8C0B402,1802,1802013,0345526,179158,Dół,część wsi,,49.653519518815294,22.033309615443265
2BE36587-7651-BC4E-E053-CC2BA8C0B402,1802,1802052,0352420,179310,Miasteczko,część wsi,,49.754172348673436,21.943643356361477
2BE36587-76E8-BC4E-E053-CC2BA8C0B402,1802,1802042,0351337,12545,Budy,część wsi,,49.709414192369266,21.896643521741296
2BE36587-7600-BC4E-E053-CC2BA8C0B402,1802,1802013,0345510,179155,Białówka,część wsi,,49.642444420654066,22.040865488168897
2BE36587-769A-BC4E-E053-CC2BA8C0B402,1802,1802022,0348520,22722,Debrza,część wsi,,49.7849205843808,21.992397154769655
2BE36587-761C-BC4E-E053-CC2BA8C0B402,1802,1802022,0348795,175868,Jahońka,przysiółek,,49.808633540347934,22.011505663368062
2BE36587-76E4-BC4E-E053-CC2BA8C0B402,1802,1802022,0348878,179227,Potok,część wsi,,49.77546543647253,22.015786962100414
2BE36587-768D-BC4E-E053-CC2BA8C0B402,1802,1802022,0348810,179220,Kudłówka,część wsi,,49.776966845486356,22.009532088839812
2BE36587-761B-BC4E-E053-CC2BA8C0B402,1802,1802052,0352609,179314,Pańskie Pola,część wsi,,49.72504814704772,21.957982994113397
2BE36587-76E1-BC4E-E053-CC2BA8C0B402,1802,1802062,0357630,179407,Tarnki,część wsi,,49.77460628275176,22.152160786292605
2BE36587-7688-BC4E-E053-CC2BA8C0B402,1802,1802052,0352673,179302,Czerwonki,część wsi,,49.751959103060386,21.900362479596094
2BE36587-75D9-BC4E-E053-CC2BA8C0B402,1802,1802052,0352503,159397,Zastawie,część wsi,,49.75190360241766,21.94759595091923
2BE36587-768B-BC4E-E053-CC2BA8C0B402,1802,1802042,0351461,154321,Góra,część wsi,,49.6992603472767,21.940236289639696
2BE36587-7687-BC4E-E053-CC2BA8C0B402,1802,1802013,0346129,34608,Gołaszówka,osada,,49.71946460045597,21.972849907944518
2BE36587-7626-BC4E-E053-CC2BA8C0B402,1802,1802052,0352236,18864,Czarna Górka,część wsi,,49.74437124113152,21.97487423046961
2BE36587-7694-BC4E-E053-CC2BA8C0B402,1802,1802013,0346276,108742,Poręby,część wsi,,49.67494112450089,21.937458194945307
2BE36587-7662-BC4E-E053-CC2BA8C0B402,1802,1802052,0352555,179305,Góra Druga,część wsi,,49.7272479198482,21.935915211171398
2BE36587-7663-BC4E-E053-CC2BA8C0B402,1802,1802022,0348803,179217,Jasna Góra,część wsi,,49.77813578444143,22.00321328408472
2BE36587-7665-BC4E-E053-CC2BA8C0B402,1802,1802052,0352532,12547,Budy,część wsi,,49.717824575597014,21.946314892003837
2BE36587-7695-BC4E-E053-CC2BA8C0B402,1802,1802062,0357720,3903,Berskie,część wsi,,49.74142650725826,22.147877955695932
2BE36587-7632-BC4E-E053-CC2BA8C0B402,1802,1802052,0352443,179313,Nowa Wieś,część wsi,,49.76082502898649,21.932583706621443
2BE36587-75AF-BC4E-E053-CC2BA8C0B402,1802,1802042,0351478,60967,Koźliniec,część wsi,,49.68332479006696,21.929227183703542
2BE36587-7685-BC4E-E053-CC2BA8C0B402,1802,1802022,0348660,144037,Wanicówka,część wsi,,49.78824322930824,21.96910627151481
2BE36587-75A7-BC4E-E053-CC2BA8C0B402,1802,1802062,0357943,179341,Jaszcz,przysiółek,,49.778932008136294,22.207446730245756
2BE36587-75A8-BC4E-E053-CC2BA8C0B402,1802,1802042,0351484,82627,Mogiły,część wsi,,49.69290236001935,21.947843289486002
2BE36587-7637-BC4E-E053-CC2BA8C0B402,1802,1802032,0350674,52790,Kiczórki,część wsi,,49.697509577100284,22.137463485869382
2BE36587-7609-BC4E-E053-CC2BA8C0B402,1802,1802013,0346201,130311,Statki,część wsi,,49.65681592062684,22.00041056922977
2BE36587-75DA-BC4E-E053-CC2BA8C0ML00,1802,1802022,0348855,105815,Podmagierów,część wsi,,49.779613257808315,22.046186814058277
2BE36587-7611-BC4E-E053-CC2BA8C0B402,1802,1802013,0346260,71806,Łazy,część wsi,,49.676504212995745,21.95109269095198
2BE36587-76D7-BC4E-E053-CC2BA8C0B402,1802,1802022,0348364,179209,Biała Woda,część wsi,,49.814887203282794,22.033712621881794
2BE36587-75EB-BC4E-E053-CC2BA8C0B402,1802,1802013,0345762,79113,Miasteczko,część wsi,,49.66669622918142,22.05454285826853
2BE36587-7671-BC4E-E053-CC2BA8C0B402,1802,1802042,0351372,153925,Wytrząska,część wsi,,49.70549785704644,21.88914781016549
2BE36587-765D-BC4E-E053-CC2BA8C0B402,1802,1802062,0358121,2597,Baranów,część wsi,,49.79742145722452,22.088974885326063
2BE36587-75B8-BC4E-E053-CC2BA8C0B402,1802,1802062,0357883,179393,Psiarnia,część wsi,,49.76995457813141,22.20435115518847
2BE36587-75B9-BC4E-E053-CC2BA8C0B402,1802,1802052,0352220,12542,Budy,część wsi,,49.752370881388316,21.98100419466839
2BE36587-75DB-BC4E-E053-CC2BA8C0B402,1802,1802013,0345667,107120,Polana,część wsi,,49.64222687059623,22.079359683804174
2BE36587-75FD-BC4E-E053-CC2BA8C0B402,1802,1802022,0348683,157004,Zakościół,część wsi,,49.790265949284674,21.940122809086265
2BE36587-76A4-BC4E-E053-CC2BA8C0B402,1802,1802032,0351082,179292,Poręby,część wsi,,49.710095201496,22.174121424266087
2BE36587-76A5-BC4E-E053-CC2BA8C0B402,1802,1802052,0352294,48033,Kaczmarówka,część wsi,,49.741738187079854,21.992067706531742
2BE36587-75CD-BC4E-E053-CC2BA8C0B402,1802,1802062,0358010,179320,Chomieńskie,część wsi,,49.75145758869543,22.210022775810963
2BE36587-76CD-BC4E-E053-CC2BA8C0B402,1802,1802013,0345779,175866,Oleńskie,część wsi,,49.67070113912623,22.028337548587057
2BE36587-76A0-BC4E-E053-CC2BA8C0B402,1802,1802032,0351113,175872,Folwark,część wsi,,49.69316055437144,22.216746384114188
2BE36587-75C5-BC4E-E053-CC2BA8C0B402,1802,1802022,0348565,79110,Miasteczko,część wsi,,49.787746175763665,21.944363804503965
2BE36587-768E-BC4E-E053-CC2BA8C0B402,1802,1802052,0352696,179309,Matejówka,część wsi,,49.75412196683965,21.88229800441448
2BE36587-769D-BC4E-E053-CC2BA8C0B402,1802,1802032,0351165,28117,Dział,część wsi,,49.66022471391715,22.239768718511208
2BE36587-7673-BC4E-E053-CC2BA8C0B402,1802,1802032,0350906,9557,Bośnia,część wsi,,49.678619648908125,22.12542016237942
2BE36587-7674-BC4E-E053-CC2BA8C0B402,1802,1802013,0345911,179185,Obojówka,część wsi,,49.73564602336896,22.077706090087833
2BE36587-7676-BC4E-E053-CC2BA8C0B402,1802,1802032,0350875,179293,Szum,część wsi,,49.70238350941674,22.190317599270625
74dd12d5-085d-4756-ad2e-dcf8d30733a5,1802,1802062,0357475,179339,Jama,część wsi,,49.774081537880605,22.127121052113466
2BE36587-7594-BC4E-E053-CC2BA8C0ML00,1802,1802022,0348430,179226,Początkówka,część wsi,,49.809069219656514,22.04128512777608
7a3cc70f-0a7e-11e7-be74-14dae91af322,1802,1802042,0351403,19888,Czekaj,część wsi,,49.635027798686586,21.971219630911996
2BE36587-764C-BC4E-E053-CC2BA8C0B402,1802,1802052,0352733,179315,Sznajdrówka,część wsi,,49.76155061779141,21.874345046236225
2BE36587-7670-BC4E-E053-CC2BA8C0B402,1802,1802032,0350770,147273,Góra,część wsi,,49.695437529917406,22.109066425809484
2BE36587-75FF-BC4E-E053-CC2BA8C0B402,1802,1802013,0346253,179215,Góry,część wsi,,49.68254409377284,21.94871742778097
2BE36587-7602-BC4E-E053-CC2BA8C0B402,1802,1802022,0348921,179221,Śmiałkówka,część wsi,,49.77070403835446,22.044998473997612
2BE36587-75DF-BC4E-E053-CC2BA8C0B402,1802,1802013,0345733,175864,Jakla Mała,część wsi,,49.6940499078475,22.045067423857713
2BE36587-76AE-BC4E-E053-CC2BA8C0B402,1802,1802052,0352259,26402,Drożdżalówka,część wsi,,49.737742478313535,21.985931441571594
2BE36587-76AF-BC4E-E053-CC2BA8C0B402,1802,1802052,0352495,128333,Stara Poczta,część wsi,,49.7488565282998,21.925788001041944
267810B9-1C66-DC4F-E053-CC2BA8C08585,1803,1803072,0839866,150388,Wola Żyrakowska,wieś,745.0,50.100033676909966,21.415793666393206
2355fdee-a93e-11f0-b3d7-a029191646e8,1802,1802062,0357392,179322,Dół,część wsi,,49.77313788065714,22.168902115698195
235d29e1-a93e-11f0-8cb0-a029191646e8,1802,1802062,0357647,269060,Uryciówka,część wsi,,49.774167387579894,22.167844884210194
267810B9-1C63-DC4F-E053-CC2BA8C08585,1803,1803011,0982279,52316,Kępa,część miasta,,50.03918512909668,21.38040136834251
267810B9-1C64-DC4F-E053-CC2BA8C08585,1803,1803011,0982256,32016,Gawrzyłowa,część miasta,857.0,50.024730390636655,21.43821077239181
267810B9-1C65-DC4F-E053-CC2BA8C08585,1803,1803072,0839607,7186,Bobrowa,wieś,1494.0,50.11447515009491,21.443485968273425
267810B9-1C67-DC4F-E053-CC2BA8C08585,1803,1803011,0982233,22955,Dębica,miasto,42585.0,50.043413478958044,21.420616782539092
267810B9-1C68-DC4F-E053-CC2BA8C08585,1803,1803063,0826208,138363,Świnia Góra,część wsi,132.0,49.95477632390977,21.174544025364618
267810B9-1C69-DC4F-E053-CC2BA8C08585,1803,1803063,0826355,145184,Węgielnica,część wsi,21.0,49.99904396496935,21.158352933351782
267810B9-1AFF-DC4F-E053-CC2BA8C08585,1803,1803063,0826409,175891,Połomia Górna,część wsi,,49.97216361002448,21.39507215666628
267810B9-1AFC-DC4F-E053-CC2BA8C08585,1803,1803063,0825893,167978,Piaski,część wsi,,49.97947741368765,21.342133443003288
267810B9-1AFD-DC4F-E053-CC2BA8C08585,1803,1803042,0817988,168440,Południk,część wsi,,49.97344176751472,21.41535639891503
267810B9-1AFE-DC4F-E053-CC2BA8C08585,1803,1803063,0826390,175890,Połomia Dolna,część wsi,,49.97200241934767,21.383567837891256
267810B9-1B00-DC4F-E053-CC2BA8C08585,1803,1803023,0814607,175881,Góry Północne,część wsi,,49.934886094337784,21.376654096077274
267810B9-1B01-DC4F-E053-CC2BA8C08585,1803,1803063,0826421,175887,Berdychów,część wsi,108.0,49.93692966106538,21.282387952681773
267810B9-1B02-DC4F-E053-CC2BA8C08585,1803,1803063,0826438,175888,Podbudynie,część wsi,30.0,49.939031126009084,21.26958216504611
267810B9-1B03-DC4F-E053-CC2BA8C08585,1803,1803063,0826444,175889,Sołtystwo,część wsi,75.0,49.94046382914852,21.275812069374087
267810B9-1B73-DC4F-E053-CC2BA8C08585,1803,1803032,0816782,162805,Źródła,część wsi,30.0,50.03929756350924,21.227572915363794
267810B9-1B70-DC4F-E053-CC2BA8C08585,1803,1803011,0982240,12835,Budzisz,część miasta,415.0,50.04345115984041,21.445154862134814
267810B9-1B71-DC4F-E053-CC2BA8C08585,1803,1803032,0816322,7099,Błyszczówka,część wsi,,50.04618814861863,21.36661774203651
267810B9-1B72-DC4F-E053-CC2BA8C08585,1803,1803032,0816351,104588,Podgórze,część wsi,,50.041949330518186,21.331565162339647
267810B9-1B74-DC4F-E053-CC2BA8C08585,1803,1803032,0816078,52060,Kąty,część wsi,,50.018896245245905,21.32056417045699
267810B9-1B75-DC4F-E053-CC2BA8C08585,1803,1803032,0816345,56156,Latoszyn,część wsi,,50.037645445383966,21.356650712389303
267810B9-1BE3-DC4F-E053-CC2BA8C08585,1803,1803042,0818255,66810,Latoszyn,wieś,1539.0,50.0195401942539,21.37898855436983
267810B9-1BE0-DC4F-E053-CC2BA8C08585,1803,1803063,0826119,97614,Paryż,część wsi,93.0,49.996012147164194,21.223938196512076
267810B9-1BE1-DC4F-E053-CC2BA8C08585,1803,1803032,0816799,179428,Mazury,przysiółek,,50.03649451618856,21.17657887866049
267810B9-1BE2-DC4F-E053-CC2BA8C08585,1803,1803063,0826326,105418,Podlesie,wieś,115.0,49.99914792723231,21.18436509056108
267810B9-1BE4-DC4F-E053-CC2BA8C08585,1803,1803063,0826160,72869,Łęki Górne,wieś,1481.0,49.97059891601375,21.182597907866363
267810B9-1BE5-DC4F-E053-CC2BA8C08585,1803,1803063,0826220,74993,Machowa,wieś,787.0,50.01809269350868,21.222037252853724
267810B9-1BE6-DC4F-E053-CC2BA8C08585,1803,1803063,0826094,72865,Łęki Dolne,wieś,1656.0,49.97626140221001,21.23390039758713
267810B9-1BE7-DC4F-E053-CC2BA8C08585,1803,1803063,0826007,68682,Lipiny,wieś,1496.0,50.010510962034694,21.275938940130054
267810B9-1BE8-DC4F-E053-CC2BA8C08585,1803,1803052,0821530,47066,Jodłowa,wieś,3830.0,49.87265901441004,21.287464912758992
267810B9-1BE9-DC4F-E053-CC2BA8C08585,1803,1803063,0826527,162479,Zwiernik,wieś,1180.0,49.9408928102204,21.214032840905862
267810B9-1BEA-DC4F-E053-CC2BA8C08585,1803,1803063,0826415,124777,Słotowa,wieś,1063.0,49.94262694904471,21.2813699556231
267810B9-1BEB-DC4F-E053-CC2BA8C08585,1803,1803042,0818427,55307,Kochanówka,wieś,328.0,50.11720994511093,21.5473056665092
267810B9-1BEC-DC4F-E053-CC2BA8C08585,1803,1803042,0818433,98257,Paszczyński Las,przysiółek,90.0,50.097807237780934,21.53681573800182
267810B9-1BEE-DC4F-E053-CC2BA8C08585,1803,1803023,0815021,57585,Kopaliny,część wsi,,49.92580241161919,21.44053229944018
267810B9-1B07-DC4F-E053-CC2BA8C08585,1803,1803023,0814560,179421,Zawodzie,część wsi,,49.83130727885323,21.408874046575818
267810B9-1B04-DC4F-E053-CC2BA8C08585,1803,1803023,0814599,179417,Góry Południowe,część wsi,,49.90786270998972,21.384416460349374
267810B9-1B05-DC4F-E053-CC2BA8C08585,1803,1803023,0814903,179419,Półanki,część wsi,,49.883520670065046,21.3536925236505
267810B9-1B06-DC4F-E053-CC2BA8C08585,1803,1803023,0814553,179420,Rzeki,część wsi,,49.83238895001369,21.41998773805049
267810B9-1B08-DC4F-E053-CC2BA8C08585,1803,1803042,0818108,179445,Górzyzna,część wsi,,49.96346201175482,21.45081534166459
267810B9-1B09-DC4F-E053-CC2BA8C08585,1803,1803042,0817936,179447,Jamy,część wsi,,49.99298247926881,21.44735767654014
267810B9-1B0A-DC4F-E053-CC2BA8C08585,1803,1803042,0817965,179467,Piecowiska,część wsi,,49.98802509379152,21.422050331233688
267810B9-1B79-DC4F-E053-CC2BA8C08585,1803,1803063,0826065,156706,Zajączkowice,część wsi,108.0,50.01157986905161,21.258814441517803
267810B9-1B76-DC4F-E053-CC2BA8C08585,1803,1803032,0816776,164301,Żurawiniec,część wsi,66.0,50.03187590296198,21.19376189741119
267810B9-1B77-DC4F-E053-CC2BA8C08585,1803,1803032,0816090,150400,Wolakówka,część wsi,90.0,50.03165253094765,21.281742957540047
267810B9-1B78-DC4F-E053-CC2BA8C08585,1803,1803063,0826214,153926,Wytrząska,część wsi,6.0,49.98601320002107,21.187977020238314
267810B9-1B7A-DC4F-E053-CC2BA8C08585,1803,1803063,0826250,157783,Załaźnica,część wsi,60.0,50.02209416611561,21.21721758932506
267810B9-1B7B-DC4F-E053-CC2BA8C08585,1803,1803063,0826266,159420,Zastaw,część wsi,36.0,50.02395443044102,21.198262593048206
267810B9-1B7C-DC4F-E053-CC2BA8C08585,1803,1803042,0818083,154949,Zaborowie,część wsi,27.0,50.08231214173075,21.482594618109395
267810B9-1B7D-DC4F-E053-CC2BA8C08585,1803,1803072,0839636,156871,Zakącie,część wsi,80.0,50.109315028243095,21.468340792930007
267810B9-1BF3-DC4F-E053-CC2BA8C08585,1803,1803063,0982345,101193,Pilzno,miasto,4994.0,49.97811282549598,21.279370830764847
267810B9-1BEF-DC4F-E053-CC2BA8C08585,1803,1803023,0814955,57586,Kopaliny,część wsi,,49.900593674497614,21.40913993516601
267810B9-1BF0-DC4F-E053-CC2BA8C08585,1803,1803023,0814620,57601,Kopalnia,część wsi,,49.947523706858036,21.463754690556883
267810B9-1BF1-DC4F-E053-CC2BA8C08585,1803,1803023,0814665,64889,Kujawy,część wsi,,49.95034212274178,21.477890437439335
267810B9-1BF4-DC4F-E053-CC2BA8C08585,1803,1803042,0818485,75251,Maga,część wsi,,49.99745297995012,21.34497213961782
267810B9-1B0B-DC4F-E053-CC2BA8C08585,1803,1803011,0982285,175878,Koło Słonecznej,część miasta,,50.05869330095717,21.400426390155275
267810B9-1B0F-DC4F-E053-CC2BA8C08585,1803,1803032,0816463,102731,Pniaki,część wsi,,50.14513384926138,21.166835033199263
267810B9-1B0C-DC4F-E053-CC2BA8C08585,1803,1803011,0982300,175879,Piaski,część miasta,,50.05054006368098,21.407874968328972
267810B9-1B0D-DC4F-E053-CC2BA8C08585,1803,1803011,0982316,175880,Poddęby,część miasta,,50.05112791137239,21.41764671146293
267810B9-1B0E-DC4F-E053-CC2BA8C08585,1803,1803032,0816196,10161,Brody,część wsi,,50.063944261449194,21.323461737392453
267810B9-1B7E-DC4F-E053-CC2BA8C08585,1803,1803042,0818686,159418,Zastawie,część wsi,75.0,50.136952660334046,21.545442016833736
267810B9-1B7F-DC4F-E053-CC2BA8C08585,1803,1803042,0818380,54711,Kmiecie,część wsi,127.0,50.09295490598704,21.520313339520783
267810B9-1B83-DC4F-E053-CC2BA8C08585,1803,1803063,0825999,179532,Zawodzie,część wsi,,49.93464025057415,21.335859128466204
267810B9-1B80-DC4F-E053-CC2BA8C08585,1803,1803042,0818315,172767,Budzisz,część wsi,25.0,50.04541018677192,21.45035940798093
267810B9-1B81-DC4F-E053-CC2BA8C08585,1803,1803063,0826450,179530,Za Górą,część wsi,12.0,49.94478065930394,21.256147375245096
267810B9-1B82-DC4F-E053-CC2BA8C08585,1803,1803063,0826467,179531,Zagumnie,część wsi,207.0,49.94803014422496,21.302669211416195
267810B9-1B84-DC4F-E053-CC2BA8C08585,1803,1803023,0814984,18598,Czapiec,część wsi,,49.87982858002916,21.37831444881242
267810B9-1B85-DC4F-E053-CC2BA8C08585,1803,1803023,1042294,199782,Okrągła,część wsi,,49.891948740892204,21.425351292833746
267810B9-1B86-DC4F-E053-CC2BA8C08585,1803,1803023,1042288,199783,Dąbrówka,część wsi,,49.888508314351704,21.43349292064764
267810B9-1BF5-DC4F-E053-CC2BA8C08585,1803,1803063,0826020,60406,Kozia Wola,część wsi,315.0,50.00114157067986,21.26754879059787
267810B9-1C6B-DC4F-E053-CC2BA8C08585,1803,1803052,0821518,179487,Budy,część wsi,57.0,49.90730189845325,21.30337292198832
267810B9-1BF8-DC4F-E053-CC2BA8C08585,1803,1803042,0817994,11441,Brzeźnica,wieś,3679.0,50.10152037450136,21.49184722691109
267810B9-1BF9-DC4F-E053-CC2BA8C08585,1803,1803023,0814889,66645,Laskowiec,część wsi,,49.874227059794805,21.361695484146047
267810B9-1C6A-DC4F-E053-CC2BA8C08585,1803,1803063,0826148,147088,Wierzchowina,część wsi,132.0,49.9609084049008,21.22880458449126
267810B9-1C6C-DC4F-E053-CC2BA8C08585,1803,1803052,0821406,179490,Kaputówka,część wsi,,49.907991185606214,21.318877442714445
267810B9-1C70-DC4F-E053-CC2BA8C08585,1803,1803063,0825870,179497,Dół,część wsi,,49.97774854429586,21.340092129566045
267810B9-1C6D-DC4F-E053-CC2BA8C08585,1803,1803063,0825730,179493,Dół,część wsi,,49.945371693608685,21.326923272708488
267810B9-1C6E-DC4F-E053-CC2BA8C08585,1803,1803042,0818143,179483,Zalesie,część wsi,,49.95599101916774,21.455684546108163
267810B9-1C6F-DC4F-E053-CC2BA8C08585,1803,1803063,0825775,179494,Dół,część wsi,,49.9821312121578,21.335144270540386
267810B9-1C71-DC4F-E053-CC2BA8C08585,1803,1803063,0825812,179498,Dół od Głobikowej,część wsi,,49.95184728857035,21.41225382216793
267810B9-1B10-DC4F-E053-CC2BA8C08585,1803,1803032,0816598,129818,Stary Jawornik,wieś,35.0,50.07923784256815,21.217829207488307
267810B9-1B12-DC4F-E053-CC2BA8C08585,1803,1803072,0839820,147325,Wiewiórka,wieś,889.0,50.10770023852483,21.343059335425046
267810B9-1B13-DC4F-E053-CC2BA8C08585,1803,1803072,0839837,150335,Wola Wielka,wieś,709.0,50.080439984912566,21.33602073308352
267810B9-1B14-DC4F-E053-CC2BA8C08585,1803,1803072,0839903,159345,Zasów,wieś,932.0,50.13694999733393,21.330363880811568
267810B9-1B17-DC4F-E053-CC2BA8C08585,1803,1803032,0816109,18816,Czarna,wieś,2721.0,50.06620311774678,21.224340823645655
267810B9-1B1B-DC4F-E053-CC2BA8C08585,1803,1803032,0815995,8871,Borowa,wieś,751.0,50.0832494783873,21.276814436927015
267810B9-1B18-DC4F-E053-CC2BA8C08585,1803,1803072,0839659,35764,Góra Motyczna,wieś,1114.0,50.0952444549471,21.37202037705331
267810B9-1B19-DC4F-E053-CC2BA8C08585,1803,1803032,0816405,45843,Jaźwiny,wieś,584.0,50.09229633237483,21.22477312617365
267810B9-1B1A-DC4F-E053-CC2BA8C08585,1803,1803072,0839725,82773,Mokre,wieś,620.0,50.137716571808944,21.364929064952637
267810B9-1B1C-DC4F-E053-CC2BA8C08585,1803,1803032,0816724,105415,Podlas,część wsi,48.0,50.049133744126706,21.208469756664872
267810B9-1B1D-DC4F-E053-CC2BA8C08585,1803,1803072,0839665,11301,Brzeziny,część wsi,,50.10631257944916,21.389315878890763
267810B9-1B87-DC4F-E053-CC2BA8C08585,1803,1803063,0826480,2053,Bajorki,część wsi,72.0,49.970161833342345,21.306904309537128
267810B9-1B88-DC4F-E053-CC2BA8C08585,1803,1803063,0826088,164302,Żurawiniec,część wsi,21.0,50.02263787527055,21.29696242731199
267810B9-1B89-DC4F-E053-CC2BA8C08585,1803,1803063,0826562,173546,Góra,część wsi,60.0,49.935345893012475,21.208586616319405
267810B9-1B8A-DC4F-E053-CC2BA8C08585,1803,1803032,0816374,175882,Słupie,część wsi,,50.02881874847994,21.336445741717394
267810B9-1B8E-DC4F-E053-CC2BA8C08585,1803,1803032,0816730,179433,Poręby,część wsi,21.0,50.03333266158487,21.23410789482286
267810B9-1B8B-DC4F-E053-CC2BA8C08585,1803,1803032,0816635,179424,Grabica,część wsi,6.0,50.03205538115029,21.220197375639394
267810B9-1B8C-DC4F-E053-CC2BA8C08585,1803,1803032,0816664,179426,Leśnictwo,część wsi,51.0,50.036054919867134,21.198209844149957
267810B9-1B8D-DC4F-E053-CC2BA8C08585,1803,1803032,0816687,179427,Łysa Góra,część wsi,51.0,50.040373864018015,21.21218373363374
267810B9-1B8F-DC4F-E053-CC2BA8C08585,1803,1803032,0816747,179435,Wolaki,część wsi,15.0,50.03658778763302,21.233636491257453
267810B9-1B90-DC4F-E053-CC2BA8C08585,1803,1803042,0818261,179440,Dół,część wsi,,50.017386786083435,21.36093295170624
267810B9-1B91-DC4F-E053-CC2BA8C08585,1803,1803072,0839688,175893,Łapierz,część wsi,57.0,50.151694579819754,21.45500706864435
267810B9-1B93-DC4F-E053-CC2BA8C08585,1803,1803042,0818019,179448,Jamy,część wsi,15.0,50.11522248641982,21.485964966265893
267810B9-1BFA-DC4F-E053-CC2BA8C08585,1803,1803063,0826295,71023,Łabuzie,część wsi,120.0,49.98864612469168,21.31189849841967
267810B9-1BFD-DC4F-E053-CC2BA8C08585,1803,1803063,0826013,33182,Gliny,część wsi,84.0,50.00164541450298,21.283927352822552
267810B9-1BFB-DC4F-E053-CC2BA8C08585,1803,1803042,0818195,57579,Kopaliny,część wsi,,50.001920960855266,21.381636744035827
267810B9-1BFC-DC4F-E053-CC2BA8C08585,1803,1803063,0826289,97362,Parkosz,wieś,1089.0,50.000098675033115,21.31780577023147
267810B9-1C72-DC4F-E053-CC2BA8C08585,1803,1803063,0825829,179499,Dół od Siedlisk,część wsi,,49.94379353540825,21.393414867932695
3D91E696-1E5B-409D-A694-92D594FFE415,1803,1803052,0821429,105469,Pod Buczyną,część wsi,,49.914669991680796,21.32105397358765
49d941fc-a729-4062-a332-c6053d3681b2,1803,1803023,0814582,77399,Marchot,część wsi,667.0,49.92864343351436,21.366225235556037
3ZQ6iEbZ-IwG3-M66x-Mrlp-2uEo1Y5hSSqq,1803,1803042,0818226,52193,Kędzierz,wieś,280.0,50.08780776036123,21.436163106845214
3add266c-3b2e-4d6c-9186-f8cd92db0e99,1803,1803042,0818700,113367,Pustynia,wieś,1547.0,50.07550103691718,21.45696342653569
41e8ebcd-4648-499e-b5f2-3fb4f6917981,1803,1803042,0818456,248332,Dół,część wsi,,50.01386581486985,21.34012437116179
267810B9-1B1E-DC4F-E053-CC2BA8C08585,1803,1803072,0839814,113135,Pustelnik,część wsi,,50.05381915860996,21.36484221812923
267810B9-1B1F-DC4F-E053-CC2BA8C08585,1803,1803072,0839843,122220,Siemiona,część wsi,9.0,50.092821021258885,21.343063080294442
267810B9-1B23-DC4F-E053-CC2BA8C08585,1803,1803063,0982397,112120,Przymiarki,część miasta,249.0,49.96035584513286,21.267817653378255
267810B9-1B20-DC4F-E053-CC2BA8C08585,1803,1803032,0816262,127376,Spina,część wsi,,50.060987869746825,21.325082658196653
267810B9-1B21-DC4F-E053-CC2BA8C08585,1803,1803023,0814501,104828,Podklecie,część miasta,,49.86697961644725,21.41270718712329
267810B9-1B22-DC4F-E053-CC2BA8C08585,1803,1803023,0814850,107340,Pole,część miasta,,49.87241157637425,21.425746911737406
267810B9-1B24-DC4F-E053-CC2BA8C08585,1803,1803023,0814518,117396,Równie,część miasta,,49.87219036055308,21.402616955494935
267810B9-1B25-DC4F-E053-CC2BA8C08585,1803,1803063,0982374,175883,Kwaśnice,część miasta,135.0,49.98879970180464,21.27669055340308
267810B9-1B26-DC4F-E053-CC2BA8C08585,1803,1803063,0982405,175884,Rędziny,część miasta,102.0,49.98810483534565,21.29420222174163
267810B9-1B94-DC4F-E053-CC2BA8C08585,1803,1803042,0818025,179461,Kopaliny,część wsi,27.0,50.12021850896155,21.48683790076033
267810B9-1B95-DC4F-E053-CC2BA8C08585,1803,1803042,0818404,179469,Podlesie,część wsi,147.0,50.09173252998322,21.532505953051526
267810B9-1B96-DC4F-E053-CC2BA8C08585,1803,1803042,0818031,179472,Szarwark,część wsi,45.0,50.10081080186513,21.486019237931686
267810B9-1B9A-DC4F-E053-CC2BA8C08585,1803,1803063,0825769,25431,Dołek,część wsi,,49.9954832326297,21.338904626565583
267810B9-1B97-DC4F-E053-CC2BA8C08585,1803,1803042,0818812,179478,Zagroda,część wsi,72.0,50.05283885819857,21.48379428462303
267810B9-1B98-DC4F-E053-CC2BA8C08585,1803,1803023,0814843,21160,Ćwierć,część miasta,,49.87335617367398,21.432601591610275
267810B9-1B99-DC4F-E053-CC2BA8C08585,1803,1803023,0815050,21682,Dąbie,część wsi,,49.88756115057448,21.47325985563341
267810B9-1BFE-DC4F-E053-CC2BA8C08585,1803,1803063,0826310,179519,Podgórze,część wsi,225.0,50.00124813333497,21.313128298269614
267810B9-1BFF-DC4F-E053-CC2BA8C08585,1803,1803063,0826303,179514,Maga,część wsi,,50.00185928781387,21.33162960941692
267810B9-1C04-DC4F-E053-CC2BA8C08585,1803,1803052,0821464,89586,Nowiny,część wsi,,49.85649391839934,21.327760805500194
267810B9-1C01-DC4F-E053-CC2BA8C08585,1803,1803052,0821582,78388,Maślakowice,część wsi,90.0,49.89289919776207,21.301343134533678
267810B9-1C02-DC4F-E053-CC2BA8C08585,1803,1803052,0821599,85569,Nadole,część wsi,,49.89038590624557,21.330754956450605
267810B9-1C03-DC4F-E053-CC2BA8C08585,1803,1803023,0814990,85656,Odwodzie,część wsi,,49.87492732228106,21.39179074479734
5901FA78-E43C-43B8-A04F-8DCE4164D76F,1803,1803042,1042383,248337,Rola,część wsi,,49.98996033531937,21.447691845469816
4NyYlKWc-9yJ7-AKyU-4MGZ-G24odC8DI2TF,1803,1803072,0839949,159987,Zawierzbie,wieś,1066.0,50.06889972760787,21.392174988631005
4e1328f6-5e6d-462b-a223-c07ba4570e1d,1803,1803042,0818479,50337,Karazjak,część wsi,,50.01566942246692,21.337701481399396
557EA715-3AFE-427A-92E7-AEF5369E04E8,1803,1803042,1042377,248333,Głodomanek,część wsi,,49.99441429459623,21.44565891011205
59C500E2-B258-46A8-B54A-2872E8C368F5,1803,1803032,0816256,217754,Siwa Trawa,część wsi,57.0,50.05175869857718,21.31201106973445
715300EB-460A-469E-A249-77162138502E,1803,1803072,0996123,179533,Borek,część wsi,0.0,50.164042642141176,21.44379180958334
267810B9-1B29-DC4F-E053-CC2BA8C08585,1803,1803032,0816032,146250,Wielki Koniec,część wsi,15.0,50.07283951945487,21.285280791569896
791a8f16-a04d-4b47-9fd5-fd91006a8cb1,1803,1803011,0982322,236422,Skotnia,część miasta,,50.04465767057195,21.421137999134917
267810B9-1B27-DC4F-E053-CC2BA8C08585,1803,1803063,0982351,179491,Bajorki,część miasta,72.0,49.974249027008106,21.304043512489343
267810B9-1B28-DC4F-E053-CC2BA8C08585,1803,1803072,0839850,137853,Świercze,część wsi,,50.07950136553274,21.328201082674283
267810B9-1B2A-DC4F-E053-CC2BA8C08585,1803,1803072,0839777,149872,Wola,część wsi,190.0,50.158682406393844,21.38048073079078
267810B9-1B2B-DC4F-E053-CC2BA8C08585,1803,1803032,0816575,153610,Górny Koniec,część wsi,366.0,50.10130384859154,21.213942542576593
267810B9-1B2C-DC4F-E053-CC2BA8C08585,1803,1803032,0816492,154561,Zarzecze,część wsi,35.0,50.139210153788845,21.255752384818816
267810B9-1B2D-DC4F-E053-CC2BA8C08585,1803,1803032,0816753,156148,Zagórze,część wsi,51.0,50.046498451636346,21.22366987791841
267810B9-1B2E-DC4F-E053-CC2BA8C08585,1803,1803032,0816552,158646,Zapłocie,część wsi,159.0,50.1178882916412,21.27918172039889
267810B9-1B9D-DC4F-E053-CC2BA8C08585,1803,1803042,0818491,179463,Nawsie,część wsi,,50.00231019427518,21.346369913339
267810B9-1B2F-DC4F-E053-CC2BA8C08585,1803,1803032,0816300,159210,Zarzecze,część wsi,102.0,50.05546182239976,21.265751961760497
267810B9-1B9B-DC4F-E053-CC2BA8C08585,1803,1803042,0818278,179443,Góra,część wsi,,50.02898484380653,21.379363777026864
267810B9-1B9C-DC4F-E053-CC2BA8C08585,1803,1803042,0818284,179462,Łozienki,część wsi,,50.02755119581556,21.37480034087513
267810B9-1B9E-DC4F-E053-CC2BA8C08585,1803,1803042,0818500,179465,Nowa Wieś,część wsi,,50.008198974029504,21.346826055418287
267810B9-1B9F-DC4F-E053-CC2BA8C08585,1803,1803042,0818516,179474,Trzedniaki,część wsi,,50.005715382897165,21.34030952861559
267810B9-1BA0-DC4F-E053-CC2BA8C08585,1803,1803042,0818290,179476,Wolica,część wsi,,50.02448170477339,21.395549139022496
267810B9-1BA1-DC4F-E053-CC2BA8C08585,1803,1803063,0826177,179502,Góra,część wsi,69.0,49.97599229676086,21.156326753421094
267810B9-1BA2-DC4F-E053-CC2BA8C08585,1803,1803063,0826332,179503,Górki,część wsi,42.0,49.9998809816345,21.199569729054776
267810B9-1BA3-DC4F-E053-CC2BA8C08585,1803,1803042,0818670,179484,Zamoście,część wsi,42.0,50.12892372715052,21.48542355183693
267810B9-1C07-DC4F-E053-CC2BA8C08585,1803,1803042,0818166,179442,Dział,część wsi,,50.00138909275867,21.4231975558901
267810B9-1BA4-DC4F-E053-CC2BA8C08585,1803,1803072,0996130,179534,Borki,część wsi,12.0,50.153905856874076,21.441221381429184
267810B9-1C05-DC4F-E053-CC2BA8C08585,1803,1803023,0814702,77828,Markosie,część wsi,,49.858820990332475,21.436158093704133
267810B9-1C06-DC4F-E053-CC2BA8C08585,1803,1803042,0817959,91818,Okop,część wsi,,49.990130352041156,21.450288778122125
267810B9-1C08-DC4F-E053-CC2BA8C08585,1803,1803063,0826059,175885,Wygoda,część wsi,111.0,50.004083985120175,21.248221827968116
267810B9-1C09-DC4F-E053-CC2BA8C08585,1803,1803063,0826071,162930,Żabieniec,część wsi,27.0,50.00518230355409,21.291307377773997
267810B9-1C0A-DC4F-E053-CC2BA8C08585,1803,1803063,0826154,152638,Wygoda,część wsi,147.0,49.99415486119213,21.24380939011521
267810B9-1C0B-DC4F-E053-CC2BA8C08585,1803,1803052,0821659,148624,Wiszowa,część wsi,437.0,49.854546931407015,21.263878038148928
BEylQGIb-YXOg-XPjI-llDA-9saFjnvM7cI8,1803,1803032,0816606,163411,Żdżary,wieś,1026.0,50.046826024309574,21.203033057357242
88C392FF-08A8-4934-8D38-A7CAAB460D4B,1803,1803032,0816486,154443,Za Lasem,część wsi,0.0,50.1518046320153,21.25662398422656
8vFFieru-O6mO-60v4-SUzF-P8U3SxFWw4aR,1803,1803032,0816180,33761,Głowaczowa,wieś,912.0,50.05475479641911,21.307177156931377
BD55FCAE-F8F7-4003-A9DC-8ADC3E7E6234,1803,1803032,0816411,179422,Borowskie Pola,część wsi,69.0,50.085072783219495,21.248873770242014
CyVkmIOE-LH84-OBO8-hOVc-ponglJZZHpbC,1803,1803072,0839955,164567,Żyraków,wieś,1735.0,50.08383614353674,21.402895193453997
D6D6B6CD-1CC3-45A5-8451-FD9D26A9241D,1803,1803032,0816664,218903,Nowa Wieś,część wsi,12.0,50.03666177239925,21.20350081624956
FC48ECDD-BE11-4DD0-B30E-FF3A188AC432,1803,1803052,0821671,217763,Gronówka,część wsi,75.0,49.91970472488739,21.304550315487976
I7Z6QODP-MGcV-NOKi-aitL-tMxBMVOhgeON,1803,1803032,0816291,34435,Golemki,wieś,565.0,50.059158221805795,21.271839114478674
Y5lHcJmr-yddS-Jr5x-WmF4-XDvG6lxIdkWR,1803,1803042,0818717,130268,Stasiówka,wieś,1412.0,50.01249893686034,21.469710917368094
b1lTxZtO-Mipb-1dz5-5KLY-XdqRGhJZizc0,1803,1803072,0839783,131698,Straszęcin,wieś,2286.0,50.06423474709743,21.364496578006182
267810B9-1B33-DC4F-E053-CC2BA8C08585,1803,1803023,0814671,104853,Podkonie,część wsi,,49.91916041369278,21.49126528736096
267810B9-1B30-DC4F-E053-CC2BA8C08585,1803,1803063,0982368,26951,Dulczówka,część miasta,612.0,49.98386251309901,21.262892613511895
267810B9-1B31-DC4F-E053-CC2BA8C08585,1803,1803052,0821470,100352,Piekło,część wsi,,49.85399381996013,21.32339886089896
267810B9-1B32-DC4F-E053-CC2BA8C08585,1803,1803063,0825835,104755,Podjaworze,część wsi,,49.948385337296195,21.383243180253512
267810B9-1BA8-DC4F-E053-CC2BA8C08585,1803,1803042,0818574,30889,Gać,część wsi,102.0,50.148997370554106,21.505619093650576
267810B9-1BA5-DC4F-E053-CC2BA8C08585,1803,1803072,0996092,179538,Królówka,część wsi,45.0,50.103201727692934,21.45638135150856
267810B9-1BA6-DC4F-E053-CC2BA8C08585,1803,1803072,0996146,179548,Zagrodzie,część wsi,147.0,50.15845764651123,21.45689507867575
267810B9-1BA7-DC4F-E053-CC2BA8C08585,1803,1803042,0818597,199788,Kochanówka,część wsi,6.0,50.11197584188436,21.491303486889304
267810B9-1BA9-DC4F-E053-CC2BA8C08585,1803,1803042,0818002,35975,Górka,część wsi,47.0,50.09214117822999,21.487832221450844
267810B9-1BAB-DC4F-E053-CC2BA8C08585,1803,1803032,0816049,16399,Chotowa,wieś,831.0,50.029975286701855,21.297872629509598
267810B9-1BAD-DC4F-E053-CC2BA8C08585,1803,1803032,0816500,111388,Przyborów,osada,626.0,50.03772527215075,21.32073423064238
267810B9-1BAE-DC4F-E053-CC2BA8C08585,1803,1803072,0839613,56155,Kolonia,część wsi,24.0,50.10342867191901,21.435679186278225
267810B9-1BAF-DC4F-E053-CC2BA8C08585,1803,1803023,0814694,28452,Działy,część wsi,,49.84322614652808,21.45884901651844
267810B9-1C0F-DC4F-E053-CC2BA8C08585,1803,1803042,0818723,131188,Stobierna,wieś,1004.0,50.026814873719765,21.50101701484171
267810B9-1C0C-DC4F-E053-CC2BA8C08585,1803,1803072,0839642,7191,Bobrowa Wola,wieś,403.0,50.13308866587315,21.464025991436877
267810B9-1C0D-DC4F-E053-CC2BA8C08585,1803,1803042,0818338,98256,Paszczyna,wieś,1477.0,50.088175169329595,21.519572245968185
267810B9-1C0E-DC4F-E053-CC2BA8C08585,1803,1803042,0818746,179444,Górna Stobierna,część wsi,37.0,50.02587817540917,21.482153113208195
267810B9-1C10-DC4F-E053-CC2BA8C08585,1803,1803023,0814719,99614,Piaski,część wsi,,49.861097804520774,21.478043759034158
b23SQnZz-57uw-G6pu-w8LL-6iLYQuuIGavl,1803,1803042,0817899,9791,Braciejowa,wieś,850.0,49.98530529463479,21.441967545247714
mjewuDg6-OhYi-2gLO-NmBl-CHryvahRyrPs,1803,1803042,0818440,104680,Podgrodzie,wieś,1691.0,50.005865598254765,21.35317099497859
cc623ff6-57fd-4217-b12a-837f61e49d68,1803,1803042,0818396,248336,Otoka,część wsi,,50.088023706980444,21.53386835135831
ec40428a-9ade-4b21-b579-17320531c70d,1803,1803042,0818344,179438,Budzyń,część wsi,27.0,50.08791337206553,21.538369414875472
l0l2tkZa-Naxh-K3Gc-LbRi-n6POIMOeA8do,1803,1803042,0818539,113340,Pustków,wieś,3031.0,50.14170501942069,21.503913741011516
q4tBN9IQ-euL6-MK1e-EXPq-Ya4EhDWFRpPB,1803,1803042,0818692,113341,Pustków-Osiedle,wieś,2005.0,50.11646578680661,21.512595192190343
yMOjpcWD-jQld-VoSZ-fDz6-gQGOKkUqj7XE,1803,1803042,0818150,40237,Gumniska,wieś,1194.0,49.99951974446542,21.403251408467714
267810B9-1B34-DC4F-E053-CC2BA8C08585,1803,1803042,0818120,105433,Podlas,część wsi,,49.96299106011623,21.423437079230162
267810B9-1BB0-DC4F-E053-CC2BA8C08585,1803,1803042,0817920,35731,Góra,część wsi,,49.98139167414203,21.445351899854753
267810B9-1B35-DC4F-E053-CC2BA8C08585,1803,1803023,0814895,105470,Podlesie,część wsi,,49.90662943231538,21.341851714358373
267810B9-1B36-DC4F-E053-CC2BA8C08585,1803,1803023,0815038,105471,Podlesie,część wsi,,49.9094655900646,21.454522788483263
267810B9-1B37-DC4F-E053-CC2BA8C08585,1803,1803063,0825858,106065,Podpołudnik,część wsi,,49.96748226428865,21.410423124772684
267810B9-1BB1-DC4F-E053-CC2BA8C08585,1803,1803023,0814576,33615,Głobikówka,wieś,249.0,49.942477218283535,21.4357729772443
267810B9-1BB2-DC4F-E053-CC2BA8C08585,1803,1803063,0825864,34746,Gołęczyna,wieś,502.0,49.979324140588325,21.357496452062467
267810B9-1BB3-DC4F-E053-CC2BA8C08585,1803,1803023,0814582,35111,Gorzejowa,wieś,663.0,49.923081331714805,21.377728387021726
267810B9-1BB4-DC4F-E053-CC2BA8C08585,1803,1803023,0814613,39480,Grudna Dolna,wieś,405.0,49.93555201513072,21.46317402232798
267810B9-1BB5-DC4F-E053-CC2BA8C08585,1803,1803063,0826272,82864,Mokrzec,wieś,217.0,49.977860825550906,21.32414702494739
267810B9-1BB6-DC4F-E053-CC2BA8C08585,1803,1803063,0826349,179507,Koło Skały,część wsi,36.0,49.99934961949105,21.180563877028884
267810B9-1BBA-DC4F-E053-CC2BA8C08585,1803,1803063,0826556,26025,Dół,część wsi,168.0,49.94823262389921,21.212487769976573
267810B9-1BB7-DC4F-E053-CC2BA8C08585,1803,1803063,0826361,179524,Wielkie Podlesie,część wsi,78.0,50.00417868368902,21.188520443471305
267810B9-1BB8-DC4F-E053-CC2BA8C08585,1803,1803032,0816339,19054,Czarne Błoto,część wsi,,50.02963850006133,21.348893453810895
267810B9-1BB9-DC4F-E053-CC2BA8C08585,1803,1803042,0818210,199789,Wytrząska,część wsi,,50.01431377196596,21.417844321083763
267810B9-1C11-DC4F-E053-CC2BA8C08585,1803,1803063,0825746,84830,Góra,część wsi,,49.93452880951808,21.32895432992607
267810B9-1B38-DC4F-E053-CC2BA8C08585,1803,1803042,0818137,107795,Południk,część wsi,,49.96906896451255,21.42652743541725
267810B9-1C12-DC4F-E053-CC2BA8C08585,1803,1803023,0814932,49852,Kamionki,część wsi,,49.9308572118446,21.436733819064056
267810B9-1C13-DC4F-E053-CC2BA8C08585,1803,1803052,0821688,94511,Podosiny,część wsi,15.0,49.92745854923169,21.302168143518838
267810B9-1C14-DC4F-E053-CC2BA8C08585,1803,1803063,0826533,12740,Budyń Drugi,część wsi,126.0,49.94713464043137,21.241313386480577
267810B9-1B3C-DC4F-E053-CC2BA8C08585,1803,1803063,0826504,115578,Rędziny,część wsi,,49.958781582612204,21.324904054966893
267810B9-1B39-DC4F-E053-CC2BA8C08585,1803,1803023,0814790,108795,Poręby,część wsi,,49.85075365812771,21.418522913971845
267810B9-1B3A-DC4F-E053-CC2BA8C08585,1803,1803023,0814808,109059,Postronie,część wsi,,49.85315794904441,21.40746741726448
267810B9-1B3B-DC4F-E053-CC2BA8C08585,1803,1803052,0821487,109392,Potoki,część wsi,,49.867259903377665,21.336443447676597
267810B9-1BBB-DC4F-E053-CC2BA8C08585,1803,1803032,0816055,37134,Grabiec,część wsi,237.0,50.03395355244272,21.30727993257443
267810B9-1BBC-DC4F-E053-CC2BA8C08585,1803,1803042,0818350,36253,Górki,część wsi,147.0,50.07919088711596,21.519115049937596
267810B9-1BC0-DC4F-E053-CC2BA8C08585,1803,1803042,0818611,62239,Krownice,część wsi,135.0,50.14423542163677,21.529847188651946
267810B9-1BBD-DC4F-E053-CC2BA8C08585,1803,1803042,0818367,38598,Grobla,część wsi,117.0,50.08679749934629,21.50810214056544
267810B9-1BBE-DC4F-E053-CC2BA8C08585,1803,1803042,0818580,48868,Kamajówka,część wsi,32.0,50.14171372481475,21.518057834761294
267810B9-1BBF-DC4F-E053-CC2BA8C08585,1803,1803042,0818605,58709,Korzeniówek,część wsi,17.0,50.14721135641872,21.46544658950499
267810B9-1BC1-DC4F-E053-CC2BA8C08585,1803,1803023,0814837,86205,Nawsie Brzosteckie,wieś,824.0,49.88614386402451,21.434476060646585
267810B9-1BC2-DC4F-E053-CC2BA8C08585,1803,1803023,0814866,93170,Opacionka,wieś,396.0,49.86818225673503,21.459361116047898
267810B9-1B3F-DC4F-E053-CC2BA8C08585,1803,1803072,0996175,175892,Bródki,część wsi,,50.07431080309628,21.354584111463186
267810B9-1C15-DC4F-E053-CC2BA8C08585,1803,1803063,0826540,12739,Budyń Pierwszy,część wsi,135.0,49.9349717272506,21.23707156425138
267810B9-1C16-DC4F-E053-CC2BA8C08585,1803,1803042,0818775,74165,Łupiny,przysiółek,125.0,50.01285335122841,21.508114934316307
267810B9-1C17-DC4F-E053-CC2BA8C08585,1803,1803042,0818769,12664,Budy Łopuchowskie,przysiółek,112.0,50.026558061114734,21.508516941053095
267810B9-1B3D-DC4F-E053-CC2BA8C08585,1803,1803032,0816397,159211,Zarzecze,część wsi,,50.05382797306444,21.33419392842639
267810B9-1B3E-DC4F-E053-CC2BA8C08585,1803,1803072,0839961,164565,Kolonia Żyrakowska,część wsi,,50.07856436522625,21.414126747810627
267810B9-1B40-DC4F-E053-CC2BA8C08585,1803,1803072,0839910,175894,Międzylesie,część wsi,33.0,50.126997638347916,21.320436133008258
267810B9-1B41-DC4F-E053-CC2BA8C08585,1803,1803052,0821553,12223,Buczyna,część wsi,,49.90463446093578,21.336942705045026
267810B9-1BC6-DC4F-E053-CC2BA8C08585,1803,1803042,0817907,3770,Berdech,część wsi,,49.97857958636599,21.453610353852063
267810B9-1BC3-DC4F-E053-CC2BA8C08585,1803,1803063,0825947,36819,Góry,część wsi,,49.94133490246855,21.36970424350682
267810B9-1BC4-DC4F-E053-CC2BA8C08585,1803,1803023,0815073,36839,Góry,część wsi,,49.91103538465982,21.383696863756914
267810B9-1BC5-DC4F-E053-CC2BA8C08585,1803,1803023,0814547,36843,Góry,część wsi,,49.844606309258985,21.42642975703703
267810B9-1BC7-DC4F-E053-CC2BA8C08585,1803,1803023,0814659,37958,Granice,część wsi,,49.94892622577509,21.488310080011072
267810B9-1C18-DC4F-E053-CC2BA8C08585,1803,1803023,0814777,179418,Granice,część wsi,42.0,49.912012554848395,21.505248504021313
267810B9-1C1C-DC4F-E053-CC2BA8C08585,1803,1803063,0826378,107736,Połomia,wieś,63.0,49.97477206611489,21.38976700946837
267810B9-1C19-DC4F-E053-CC2BA8C08585,1803,1803023,0814642,179416,Gąsiorówki,część wsi,25.0,49.92253339781383,21.502095019348793
267810B9-1C1A-DC4F-E053-CC2BA8C08585,1803,1803023,0814493,11576,Brzostek,miasto,2715.0,49.879834385048746,21.408408345180177
267810B9-1C1B-DC4F-E053-CC2BA8C08585,1803,1803042,0818522,37701,Grabówka,przysiółek,,49.99323484253245,21.365990724645698
267810B9-1B42-DC4F-E053-CC2BA8C08585,1803,1803023,0814760,12575,Budy,część wsi,,49.899959990074244,21.467575616734937
267810B9-1B46-DC4F-E053-CC2BA8C08585,1803,1803032,0816204,179423,Budy,część wsi,135.0,50.06150992958435,21.314577076635384
267810B9-1B43-DC4F-E053-CC2BA8C08585,1803,1803023,0815009,119730,Rzeki,część wsi,,49.882578942835664,21.37445124829005
267810B9-1B44-DC4F-E053-CC2BA8C08585,1803,1803072,0839748,17674,Cieszęciny,część wsi,120.0,50.11922837750457,21.403364100395496
267810B9-1B45-DC4F-E053-CC2BA8C08585,1803,1803032,0816010,217735,Pod Górami,część wsi,69.0,50.081889869607885,21.251589949997143
267810B9-1BCD-DC4F-E053-CC2BA8C08585,1803,1803042,0818752,66604,Laskowa,część wsi,60.0,50.03308046988568,21.5098820628891
267810B9-1BC8-DC4F-E053-CC2BA8C08585,1803,1803063,0826183,37872,Granica,część wsi,189.0,49.95982001584711,21.20107209060574
267810B9-1BCB-DC4F-E053-CC2BA8C08585,1803,1803032,0816641,57030,Koniec,część wsi,24.0,50.03867287818199,21.234791028665455
267810B9-1BCC-DC4F-E053-CC2BA8C08585,1803,1803063,0826243,57032,Koniec,część wsi,111.0,50.01582837397779,21.23072924937655
267810B9-1BCE-DC4F-E053-CC2BA8C08585,1803,1803042,0818545,6822,Błonie,część wsi,30.0,50.15416389266301,21.520037460448208
267810B9-1BCF-DC4F-E053-CC2BA8C08585,1803,1803072,0839694,71873,Łazy,część wsi,107.0,50.1468808379901,21.44894865651607
267810B9-1BD0-DC4F-E053-CC2BA8C08585,1803,1803042,0818628,72643,Łęg,część wsi,130.0,50.1518402921783,21.495448800149056
267810B9-1C20-DC4F-E053-CC2BA8C08585,1803,1803042,0818309,85695,Nagawczyna,wieś,2715.0,50.04909696112691,21.46404118689402
267810B9-1C1D-DC4F-E053-CC2BA8C08585,1803,1803063,0826131,106859,Pogwizdów,część wsi,70.0,49.96380686085815,21.251029004499202
267810B9-1C1E-DC4F-E053-CC2BA8C08585,1803,1803042,0818798,7173,Bobrek,część wsi,67.0,50.04145783994225,21.491515323773125
267810B9-1C1F-DC4F-E053-CC2BA8C08585,1803,1803042,0818730,179439,Dolna Stobierna,część wsi,62.0,50.03811298913635,21.49678497550839
267810B9-1B4A-DC4F-E053-CC2BA8C08585,1803,1803032,0816026,179434,Środek,część wsi,210.0,50.088411162821224,21.286234822501953
267810B9-1B47-DC4F-E053-CC2BA8C08585,1803,1803032,0816240,179429,Nawsie,część wsi,27.0,50.06663418639451,21.31033632779925
267810B9-1B48-DC4F-E053-CC2BA8C08585,1803,1803032,0816428,179430,Od Jastrząbki,część wsi,36.0,50.099406223345575,21.23047778203064
267810B9-1B49-DC4F-E053-CC2BA8C08585,1803,1803032,0816581,179431,Olszyny,część wsi,30.0,50.13309812680179,21.235565838204305
267810B9-1B4B-DC4F-E053-CC2BA8C08585,1803,1803023,0814978,12576,Budy,część wsi,,49.86461123600875,21.384318378132605
267810B9-1B4C-DC4F-E053-CC2BA8C08585,1803,1803052,0821441,12578,Budy,część wsi,,49.83967626907765,21.329105824917615
267810B9-1B4D-DC4F-E053-CC2BA8C08585,1803,1803023,0814530,12579,Budy,część wsi,,49.8398824483023,21.437590517737995
267810B9-1C22-DC4F-E053-CC2BA8C08585,1803,1803042,0818806,135152,Szemberek,część wsi,87.0,50.04825269217726,21.49583619995114
267810B9-1BD1-DC4F-E053-CC2BA8C08585,1803,1803042,0818634,78995,Męciszów,część wsi,327.0,50.15926450050172,21.48674287438073
267810B9-1BD2-DC4F-E053-CC2BA8C08585,1803,1803023,0814926,42054,Huta,część wsi,,49.94011192620495,21.40565319315218
267810B9-1C21-DC4F-E053-CC2BA8C08585,1803,1803042,0818781,159700,Zawada,wieś,1394.0,50.059397210847436,21.48512663947472
267810B9-1C23-DC4F-E053-CC2BA8C08585,1803,1803023,0814910,121930,Siedliska-Bogusz,wieś,977.0,49.92040936873504,21.4078854086898
267810B9-1C24-DC4F-E053-CC2BA8C08585,1803,1803023,0814961,123941,Skurowa,wieś,398.0,49.87328252010955,21.3816208364988
267810B9-1C28-DC4F-E053-CC2BA8C08585,1803,1803063,0826473,132305,Strzegocice,wieś,1074.0,49.959337652497425,21.316849237503135
267810B9-1C25-DC4F-E053-CC2BA8C08585,1803,1803023,0815015,125108,Smarżowa,wieś,652.0,49.91693813871846,21.442328841048095
267810B9-1C26-DC4F-E053-CC2BA8C08585,1803,1803023,0814524,13152,Bukowa,wieś,440.0,49.83964105687424,21.419400492792
267810B9-1C27-DC4F-E053-CC2BA8C08585,1803,1803023,0814872,110669,Przeczyca,wieś,661.0,49.892002033599994,21.355688683797183
267810B9-1C29-DC4F-E053-CC2BA8C08585,1803,1803023,0815044,149935,Wola Brzostecka,wieś,506.0,49.88555018665963,21.460088666036857
267810B9-1C2A-DC4F-E053-CC2BA8C08585,1803,1803052,0821665,156170,Zagórze,wieś,242.0,49.924433065419095,21.29872927105529
267810B9-1C2B-DC4F-E053-CC2BA8C08585,1803,1803023,0815067,159755,Zawadka Brzostecka,wieś,395.0,49.89833738456583,21.38130707668933
267810B9-1C2C-DC4F-E053-CC2BA8C08585,1803,1803052,0821398,23517,Dęborzyn,wieś,413.0,49.91506918936687,21.321405280957578
267810B9-1C2D-DC4F-E053-CC2BA8C08585,1803,1803052,0821435,23525,Dębowa,wieś,493.0,49.850053763152054,21.33027695014381
267810B9-1C2E-DC4F-E053-CC2BA8C08585,1803,1803063,0825752,24707,Dobrków,wieś,600.0,49.98519874139505,21.335747307794534
267810B9-1C2F-DC4F-E053-CC2BA8C08585,1803,1803052,0821501,29312,Dzwonowa,wieś,302.0,49.90652260095987,21.297348869746802
267810B9-1C30-DC4F-E053-CC2BA8C08585,1803,1803063,0825806,32302,Gębiczyna,wieś,344.0,49.95452307592408,21.4022346515452
267810B9-1C31-DC4F-E053-CC2BA8C08585,1803,1803042,0818090,33614,Głobikowa,wieś,590.0,49.95950613973039,21.443697008092116
267810B9-1C32-DC4F-E053-CC2BA8C08585,1803,1803063,0982380,101194,Pilźnionek,część miasta,489.0,49.9934550181966,21.28875606662586
267810B9-1B4E-DC4F-E053-CC2BA8C08585,1803,1803023,0814814,130573,Stawiska,część wsi,,49.85033255404211,21.426476032975035
267810B9-1B4F-DC4F-E053-CC2BA8C08585,1803,1803072,0839872,179535,Brzeziny,część wsi,,50.10913170713577,21.399035251576354
267810B9-1B50-DC4F-E053-CC2BA8C08585,1803,1803072,0839889,179536,Budzisz,część wsi,,50.096077840874976,21.40926222027597
267810B9-1B51-DC4F-E053-CC2BA8C08585,1803,1803072,0996181,179537,Kędzierz,część wsi,,50.09573692729267,21.430868001093025
267810B9-1B55-DC4F-E053-CC2BA8C08585,1803,1803072,0996169,179541,Na Dworskiem,część wsi,90.0,50.10648178986404,21.339026580350758
267810B9-1B52-DC4F-E053-CC2BA8C08585,1803,1803072,0839760,179539,Krzaki,część wsi,33.0,50.14425275093502,21.400075347118435
267810B9-1B53-DC4F-E053-CC2BA8C08585,1803,1803032,0816279,179437,Zarzecze,część wsi,96.0,50.046923053518036,21.311073592268944
267810B9-1B54-DC4F-E053-CC2BA8C08585,1803,1803072,0839808,179540,Mariasz,część wsi,,50.060759239571134,21.358785808284715
267810B9-1B56-DC4F-E053-CC2BA8C08585,1803,1803023,0814748,149888,Wola,część wsi,,49.914405779303515,21.36141535496184
267810B9-1BD4-DC4F-E053-CC2BA8C08585,1803,1803052,0821458,49096,Kamieniec,część wsi,,49.84810854651233,21.317285966718828
267810B9-1BD3-DC4F-E053-CC2BA8C08585,1803,1803042,0818114,49083,Kamieniec,część wsi,,49.95948751161934,21.46987477096018
267810B9-1BD5-DC4F-E053-CC2BA8C08585,1803,1803052,0821412,51462,Kawęczyn,część wsi,,49.91068015833717,21.317159623753867
267810B9-1C33-DC4F-E053-CC2BA8C08585,1803,1803042,0818551,10498,Bródki,część wsi,102.0,50.144146655301356,21.500722747935814
267810B9-1C34-DC4F-E053-CC2BA8C08585,1803,1803042,0818640,105401,Podlesie,część wsi,160.0,50.14484373893934,21.511038989209823
267810B9-1C35-DC4F-E053-CC2BA8C08585,1803,1803042,0818657,118003,Rudki,część wsi,172.0,50.1316234564844,21.516718343719035
267810B9-1C3C-DC4F-E053-CC2BA8C08585,1803,1803072,0839731,85719,Nagoszyn,wieś,1606.0,50.14180324214629,21.40278971564932
267810B9-1C36-DC4F-E053-CC2BA8C08585,1803,1803042,0817913,179441,Dział,część wsi,,50.00093383824901,21.44059343793578
267810B9-1C37-DC4F-E053-CC2BA8C08585,1803,1803042,0817942,179464,Niziny,część wsi,,49.998120377877456,21.442759362097167
267810B9-1C3B-DC4F-E053-CC2BA8C08585,1803,1803042,0818189,179456,Jaszczurowa,część wsi,,50.0075397466713,21.435042471128504
267810B9-1C3D-DC4F-E053-CC2BA8C08585,1803,1803072,0839671,58708,Korzeniów,wieś,800.0,50.15382998138626,21.442305063819653
267810B9-1C3F-DC4F-E053-CC2BA8C08585,1803,1803063,0825901,45624,Jaworze Dolne,wieś,323.0,49.95844070109053,21.36473570625069
267810B9-1C40-DC4F-E053-CC2BA8C08585,1803,1803063,0825930,45626,Jaworze Górne,wieś,692.0,49.93473196232488,21.348780387009352
267810B9-1C41-DC4F-E053-CC2BA8C08585,1803,1803023,0814731,48961,Kamienica Dolna,wieś,550.0,49.913402250504234,21.354623689468237
267810B9-1C42-DC4F-E053-CC2BA8C08585,1803,1803023,0814783,53613,Klecie,wieś,647.0,49.857158480455965,21.410159812045226
267810B9-1C43-DC4F-E053-CC2BA8C08585,1803,1803063,0825723,5669,Bielowy,wieś,475.0,49.94278124297037,21.327985225148964
