LOKALNYID,TERYT,IDTERC,IDSIMC,IDPRNG,NAZWA,RODZAJ,LICZ_MIESZ,lat,lon
2EDAFD1C-FFB8-5BEA-E053-CA2BA8C0F802,2601,2601022,0238463,109644,Pożogi,wieś,76.0,50.62167145548427,20.828990796596667
2EDAFD1D-018E-5BEA-E053-CA2BA8C0F802,2601,2601013,0232153,66374,Las Winiarski,wieś,178.0,50.48466786929407,20.648975569670068
2EDAFD1D-005C-5BEA-E053-CA2BA8C0F802,2601,2601033,0256219,98625,Pawłów,wieś,190.0,50.30524977791145,20.87291022844008
2EDAFD1C-FF64-5BEA-E053-CA2BA8C0F802,2601,2601013,0233193,160334,Zbludowice,wieś,1155.0,50.444026705183425,20.72477213053273
2EDAFD1D-017A-5BEA-E053-CA2BA8C0F802,2601,2601022,0238210,37301,Grabki Małe,wieś,128.0,50.5702274048979,20.937118095516837
2EDAFD1D-0198-5BEA-E053-CA2BA8C0F802,2601,2601063,0273206,163755,Żerniki Dolne,wieś,216.0,50.50171784923292,20.94494388856205
2EDAFD1C-FFCE-5BEA-E053-CA2BA8C0F802,2601,2601022,0238664,151177,Wólka Bosowska,wieś,105.0,50.546892094626884,20.898833441898688
2EDAFD1C-FFCF-5BEA-E053-CA2BA8C0F802,2601,2601022,0238530,117751,Ruda,wieś,85.0,50.55297407903561,20.916164908759196
2EDAFD1D-01A9-5BEA-E053-CA2BA8C0F802,2601,2601022,0238144,35088,Gorzakiew,wieś,167.0,50.62343530813204,20.879927563648
2EDAFD1D-0104-5BEA-E053-CA2BA8C0F802,2601,2601033,0255958,11582,Brzostków,wieś,464.0,50.31650164280518,20.903230733379125
2EDAFD1D-00C6-5BEA-E053-CA2BA8C0F802,2601,2601033,0256350,148319,Winiary Dolne,wieś,115.0,50.287912521581234,20.77033923551355
2EDAFD1D-0080-5BEA-E053-CA2BA8C0F802,2601,2601083,0277374,123876,Skotniki Dolne,wieś,235.0,50.405790764214956,20.640733434416372
2EDAFD1C-FFC6-5BEA-E053-CA2BA8C0F802,2601,2601013,0232839,124345,Słabkowice,wieś,220.0,50.530447564570416,20.76627155583866
2EDAFD1D-001B-5BEA-E053-CA2BA8C0F802,2601,2601043,0258715,96110,Pacanów,miasto,1011.0,50.40434686629637,21.040088013103517
2EDAFD1D-007B-5BEA-E053-CA2BA8C0F802,2601,2601083,0277032,35085,Gorysławice,wieś,355.0,50.36025857827225,20.691219461225536
2EDAFD1D-007C-5BEA-E053-CA2BA8C0F802,2601,2601083,0277428,134787,Szczerbaków,wieś,294.0,50.34305552180301,20.708555726699696
2EDAFD1D-00E5-5BEA-E053-CA2BA8C0F802,2601,2601083,0277167,55190,Kobylniki,wieś,364.0,50.38665628636796,20.66809627314881
2EDAFD1C-FFA7-5BEA-E053-CA2BA8C0F802,2601,2601022,0238285,180155,Pytlówka,część wsi,53.0,50.57149699702268,20.862683196320663
2EDAFD1D-0149-5BEA-E053-CA2BA8C0F802,2601,2601013,0946817,180948,Wola,część miasta,18.0,50.473075790943284,20.703169448699008
2EDAFD1D-014A-5BEA-E053-CA2BA8C0F802,2601,2601013,0946674,180935,Choinki,część miasta,110.0,50.47869845806922,20.735893582046526
2EDAFD1C-FFA6-5BEA-E053-CA2BA8C0F802,2601,2601022,0238026,111385,Przyborów,część wsi,28.0,50.54600387282478,20.8531321474049
2EDAFD1C-FFAB-5BEA-E053-CA2BA8C0F802,2601,2601022,0238517,88364,Nowa Wieś,część wsi,60.0,50.5830391586927,20.88744022737365
2EDAFD1C-FFAC-5BEA-E053-CA2BA8C0F802,2601,2601022,0238500,180138,Czworak,część wsi,50.0,50.57793626066062,20.874022906575462
2EDAFD1C-FF57-5BEA-E053-CA2BA8C0F802,2601,2601052,0271207,54278,Klucz,osada,15.0,50.342364780739665,20.90961698460631
2EDAFD1D-01B0-5BEA-E053-CA2BA8C0F802,2601,2601013,0232644,180954,Ewelinów,kolonia,4.0,50.44955286580796,20.68932607267062
2EDAFD1D-00A4-5BEA-E053-CA2BA8C0F802,2601,2601083,0277500,161441,Zielonki,część miasta,144.0,50.3499984969901,20.665425181830443
2EDAFD1C-FF87-5BEA-E053-CA2BA8C0F802,2601,2601022,0238090,99525,Piaski,przysiółek,45.0,50.5968075639878,20.826474570315067
2EDAFD1C-FF15-5BEA-E053-CA2BA8C0F802,2601,2601063,0273117,20946,Czworak,część wsi,30.0,50.4236168064232,20.87584796982485
2EDAFD1D-00E8-5BEA-E053-CA2BA8C0F802,2601,2601043,0258230,109735,Pólko,część wsi,20.0,50.376570602335434,21.009167847858333
2EDAFD1C-FF11-5BEA-E053-CA2BA8C0F802,2601,2601013,0232087,59080,Kostki Małe-Gościniec,część wsi,20.0,50.47243698574847,20.63264014521186
2EDAFD1C-FF78-5BEA-E053-CA2BA8C0F802,2601,2601013,0233276,16638,Chrusty,część wsi,5.0,50.47778216930985,20.81523446191974
2EDAFD1C-FF79-5BEA-E053-CA2BA8C0F802,2601,2601013,0231886,128131,Stara Grabda,część wsi,13.0,50.477532947790976,20.820961845490693
2EDAFD1D-0082-5BEA-E053-CA2BA8C0F802,2601,2601072,0275240,40058,Grzymała,wieś,187.0,50.54060122422498,20.967953956745525
2EDAFD1D-0001-5BEA-E053-CA2BA8C0F802,2601,2601013,0232383,95967,Owczary,wieś,803.0,50.45080079007265,20.749126748562592
2EDAFD1C-FFB1-5BEA-E053-CA2BA8C0F802,2601,2601022,0238701,159689,Zawada,wieś,135.0,50.561427594347954,20.817940680275946
2EDAFD1D-0081-5BEA-E053-CA2BA8C0F802,2601,2601083,0277405,123878,Skotniki Górne,wieś,274.0,50.42550441592565,20.648883093730365
2EDAFD1D-019E-5BEA-E053-CA2BA8C0F802,2601,2601033,0256314,131866,Strożyska,wieś,342.0,50.33308073850831,20.765314704091708
2EDAFD1D-00F8-5BEA-E053-CA2BA8C0F802,2601,2601033,0256202,106421,Podwale,kolonia,33.0,50.31805036342554,20.946645807887474
2EDAFD1C-FF2D-5BEA-E053-CA2BA8C0F802,2601,2601052,0271199,22498,Dąbrówka,przysiółek,8.0,50.33795351135324,20.916210243944615
2EDAFD1D-00D3-5BEA-E053-CA2BA8C0F802,2601,2601063,0272483,53859,Klępie Górne,wieś,256.0,50.42958114175436,21.01244499358389
2EDAFD1D-0186-5BEA-E053-CA2BA8C0F802,2601,2601022,0238380,59071,Kostera,wieś,149.0,50.543002455484526,20.788171131343738
2EDAFD1D-016A-5BEA-E053-CA2BA8C0F802,2601,2601043,0258885,200157,Rataje,część wsi,2.0,50.33731245917482,21.068826881609244
2EDAFD1D-00D2-5BEA-E053-CA2BA8C0F802,2601,2601063,0272490,18559,Czajków,kolonia,25.0,50.43668504116386,21.029197639432283
2EDAFD1D-019C-5BEA-E053-CA2BA8C0F802,2601,2601063,0272780,104825,Podklasztor,część wsi,15.0,50.444872531382956,20.929146140238856
2EDAFD1C-FF34-5BEA-E053-CA2BA8C0F802,2601,2601063,0272655,178720,Gajówka,część wsi,3.0,50.48679079554958,20.90698595875496
2EDAFD1D-004B-5BEA-E053-CA2BA8C0F802,2601,2601063,0272827,129749,Falęcin Stary,wieś,151.0,50.47044044804764,20.94055459282298
2EDAFD1D-0047-5BEA-E053-CA2BA8C0F802,2601,2601063,0272394,104323,Podgaj,część wsi,35.0,50.47747626313284,20.963777278275135
2EDAFD1D-00DA-5BEA-E053-CA2BA8C0F802,2601,2601083,0277061,36333,Stara Wieś,część wsi,53.0,50.34826519217579,20.751258405736323
2EDAFD1C-FF36-5BEA-E053-CA2BA8C0F802,2601,2601063,0273169,103462,Pod Lasem,część wsi,15.0,50.429162508470455,20.91522984821801
2EDAFD1C-FF35-5BEA-E053-CA2BA8C0F802,2601,2601063,0272690,152656,Wygoda Skrobacka,część wsi,23.0,50.4539497628468,20.9101866513482
2EDAFD1C-FFC5-5BEA-E053-CA2BA8C0F802,2601,2601013,0231797,121801,Siedlawy,część wsi,10.0,50.5281595936544,20.669174520717696
2EDAFD1D-002B-5BEA-E053-CA2BA8C0F802,2601,2601043,0258454,52950,Kiełmin,część wsi,58.0,50.353769221651895,21.10097917572605
2EDAFD1C-FF82-5BEA-E053-CA2BA8C0F802,2601,2601013,0946668,10278,Bronina,część miasta,15.0,50.4655143850055,20.73966337795758
2EDAFD1C-FFC4-5BEA-E053-CA2BA8C0F802,2601,2601013,0231774,45392,Jata,część wsi,20.0,50.513336729896736,20.621515304431796
2EDAFD1D-0085-5BEA-E053-CA2BA8C0F802,2601,2601013,0231432,181611,Dwór,część wsi,25.0,50.389755299129924,20.741247301201
2EDAFD1D-0013-5BEA-E053-CA2BA8C0F802,2601,2601043,0258767,106414,Podwale,wieś,103.0,50.34936573855851,21.000636974787888
2EDAFD1C-FFBB-5BEA-E053-CA2BA8C0F802,2601,2601022,0238279,44101,Janowice Raczyckie,wieś,158.0,50.56618768225647,20.86192319945609
2EDAFD1C-FFD9-5BEA-E053-CA2BA8C0F802,2601,2601022,0238670,156403,Zagrody,wieś,104.0,50.5726117257436,20.84906182536748
2EDAFD1C-FF86-5BEA-E053-CA2BA8C0F802,2601,2601022,0238724,180159,Zagórze,część wsi,5.0,50.55376882985556,20.820048672897432
2EDAFD1D-00F7-5BEA-E053-CA2BA8C0F802,2601,2601033,0255941,52361,Kępa Bolesławska,przysiółek,53.0,50.30470586439215,20.924451349635195
2EDAFD1D-019A-5BEA-E053-CA2BA8C0F802,2601,2601013,0232874,181627,Służów Drugi,część wsi,43.0,50.529355066132545,20.810546997953843
2EDAFD1C-FF85-5BEA-E053-CA2BA8C0F802,2601,2601013,0232124,76616,Małe Budy,część kolonii,20.0,50.51900949969307,20.830713656861757
2EDAFD1D-0010-5BEA-E053-CA2BA8C0F802,2601,2601043,0258773,14988,Chałupki,część wsi,28.0,50.34567951400019,21.009498720480217
2EDAFD1D-003E-5BEA-E053-CA2BA8C0F802,2601,2601022,0238546,119866,Rzeszutki,wieś,71.0,50.58652389380501,20.824269185438016
2EDAFD1D-006D-5BEA-E053-CA2BA8C0F802,2601,2601013,0232650,180958,Kwiatkowa,część wsi,5.0,50.461560894555774,20.685822958417823
2EDAFD1D-0023-5BEA-E053-CA2BA8C0F802,2601,2601043,0258320,51044,Karsy Dolne,wieś,27.0,50.373801873160296,21.07059799450239
2EDAFD1C-FF88-5BEA-E053-CA2BA8C0F802,2601,2601072,0275429,43110,Jadwisin,kolonia,3.0,50.558175959881574,20.995128688282364
2EDAFD1D-006C-5BEA-E053-CA2BA8C0F802,2601,2601083,0277411,180993,Bezgłowie,część wsi,73.0,50.419978240452316,20.644848778086775
2EDAFD1D-00FC-5BEA-E053-CA2BA8C0F802,2601,2601013,0233218,160419,Zbrodzice,wieś,161.0,50.49527164424215,20.76211193506323
2EDAFD1D-00CE-5BEA-E053-CA2BA8C0F802,2601,2601022,0238291,44428,Januszowice,wieś,55.0,50.582467042835496,20.862975508678982
2EDAFD1D-00CF-5BEA-E053-CA2BA8C0F802,2601,2601022,0238486,113783,Raczyce,wieś,315.0,50.575257554323294,20.88738188453254
2EDAFD1D-00FB-5BEA-E053-CA2BA8C0F802,2601,2601013,0232236,80500,Mikułowice,wieś,1045.0,50.49681010798175,20.713797438259565
2EDAFD1C-FF12-5BEA-E053-CA2BA8C0F802,2601,2601013,0232176,108942,Posada,część wsi,30.0,50.48691440240008,20.65238365489926
2EDAFD1C-FFFF-5BEA-E053-CA2BA8C0F802,2601,2601022,0238300,44716,Jarząbki,wieś,337.0,50.583164640135244,20.91945733959248
2EDAFD1D-0000-5BEA-E053-CA2BA8C0F802,2601,2601013,0232199,71144,Łagiewniki,wieś,653.0,50.48574056617488,20.747991249666242
2EDAFD1C-FF62-5BEA-E053-CA2BA8C0F802,2601,2601013,0233030,144902,Wełecz,wieś,611.0,50.4705038844309,20.671070787815257
2EDAFD1C-FF61-5BEA-E053-CA2BA8C0F802,2601,2601013,0946651,13784,Busko-Zdrój,miasto,13591.0,50.470970533424534,20.71913011418269
2EDAFD1D-00E4-5BEA-E053-CA2BA8C0F802,2601,2601083,0277316,122122,Sielec,wieś,135.0,50.36720518153375,20.663483508569215
2EDAFD1D-0164-5BEA-E053-CA2BA8C0F802,2601,2601043,0258419,181493,Górka,część wsi,20.0,50.322876849389594,21.048903679507077
2EDAFD1C-FFCA-5BEA-E053-CA2BA8C0F802,2601,2601022,0238470,178699,Zrecze Pożogowskie,część wsi,13.0,50.614963819600476,20.822243604671108
2EDAFD1D-0192-5BEA-E053-CA2BA8C0F802,2601,2601063,0272862,49895,Kamodzienice,część wsi,20.0,50.42979517063947,20.95921708018043
fa1f6581-c8dd-11e9-81e2-b8ca3a7f05dc,2601,2601013,0232035,181087,Wesoła,część wsi,2.0,50.4903992928878,20.885688965221075
fa1f8c8f-c8dd-11e9-9f94-b8ca3a7f05dc,2601,2601013,0232041,181088,Wołyń,część wsi,2.0,50.49610418491717,20.87313179223441
2EDAFD1C-FFCB-5BEA-E053-CA2BA8C0F802,2601,2601013,0232845,152657,Młyn,część wsi,3.0,50.53835389886001,20.761707054697663
2EDAFD1D-0084-5BEA-E053-CA2BA8C0F802,2601,2601013,0231455,180990,Zagórze,część wsi,10.0,50.39098478839593,20.7350409375348
2EDAFD1C-FFAD-5BEA-E053-CA2BA8C0F802,2601,2601013,0231739,31405,Galów,wieś,470.0,50.51786109715361,20.64314182036447
2EDAFD1C-FF49-5BEA-E053-CA2BA8C0F802,2601,2601052,0270780,15380,Chinków,wieś,71.0,50.3569928279823,20.850682218402916
2EDAFD1D-0190-5BEA-E053-CA2BA8C0F802,2601,2601013,0231426,6012,Bilczów,wieś,333.0,50.39425419372677,20.739375643260118
2EDAFD1C-FF1D-5BEA-E053-CA2BA8C0F802,2601,2601013,0232070,59079,Kostki Małe,wieś,175.0,50.463709704117825,20.623104685944796
2EDAFD1C-FFB2-5BEA-E053-CA2BA8C0F802,2601,2601022,0238233,44100,Janowice Poduszowskie,wieś,223.0,50.57467009621791,20.83011122314917
2EDAFD1D-0078-5BEA-E053-CA2BA8C0F802,2601,2601043,0258891,114817,Rataje Słupskie,wieś,544.0,50.34037633525318,21.037930940501024
2EDAFD1C-FF0E-5BEA-E053-CA2BA8C0F802,2601,2601013,0232354,92374,Oleszki,wieś,225.0,50.463487127395524,20.65092659018129
2EDAFD1D-002E-5BEA-E053-CA2BA8C0F802,2601,2601033,0256142,90116,Nowy Korczyn,miasto,886.0,50.304587232382126,20.79677970349635
2EDAFD1D-00B6-5BEA-E053-CA2BA8C0F802,2601,2601083,0276989,159980,Zawierzbie,część wsi,80.0,50.382774975627825,20.6966268827591
2EDAFD1D-014F-5BEA-E053-CA2BA8C0F802,2601,2601013,0946792,180936,Ściegna,część miasta,8.0,50.46835644985742,20.74029200742419
2EDAFD1D-01AE-5BEA-E053-CA2BA8C0F802,2601,2601033,0256165,97291,Parchocin,wieś,262.0,50.32433193410508,20.955690212362473
2EDAFD1D-00CB-5BEA-E053-CA2BA8C0F802,2601,2601013,0233365,157258,Zakupniki,część wsi,33.0,50.456931929981295,20.77436296137879
2EDAFD1D-00B7-5BEA-E053-CA2BA8C0F802,2601,2601083,0276937,15749,Chochoł,część wsi,3.0,50.388081713348726,20.693503327126905
2EDAFD1D-019D-5BEA-E053-CA2BA8C0F802,2601,2601022,0238049,29708,Falki,wieś,126.0,50.58195659545146,20.804564348891198
2EDAFD1D-00F2-5BEA-E053-CA2BA8C0F802,2601,2601033,0256159,95067,Ostrowce,wieś,133.0,50.33229677342933,20.86699038277035
2EDAFD1D-0024-5BEA-E053-CA2BA8C0F802,2601,2601043,0258342,51046,Karsy Małe,wieś,156.0,50.385766468117744,21.075517618701095
2EDAFD1D-019B-5BEA-E053-CA2BA8C0F802,2601,2601033,0256053,39275,Grotniki Duże,wieś,134.0,50.3046790562734,20.829317566021647
2EDAFD1C-FFE0-5BEA-E053-CA2BA8C0F802,2601,2601013,0232957,180053,Pod Plebanią,część wsi,238.0,50.51625107963847,20.683504648594592
2EDAFD1C-FFDF-5BEA-E053-CA2BA8C0F802,2601,2601022,0238316,14337,Captorie,część wsi,168.0,50.58425105556282,20.91487206332447
2EDAFD1D-002A-5BEA-E053-CA2BA8C0F802,2601,2601043,0258313,178705,Komorówek,kolonia,40.0,50.36597758878373,21.082648367035446
2EDAFD1D-0095-5BEA-E053-CA2BA8C0F802,2601,2601083,0277351,394,Aleksandrów,przysiółek,28.0,50.40160452214378,20.672325074554983
2EDAFD1C-FFE1-5BEA-E053-CA2BA8C0F802,2601,2601013,0232940,65652,Kurzejów,część wsi,40.0,50.514605398367856,20.697095640736723
2EDAFD1C-FFE2-5BEA-E053-CA2BA8C0F802,2601,2601013,0232331,121159,Wschodnia,część wsi,5.0,50.55025382861986,20.704926501207176
2EDAFD1D-005D-5BEA-E053-CA2BA8C0F802,2601,2601033,0256225,114411,Raj,przysiółek,28.0,50.29841102407114,20.8648440656734
2EDAFD1D-0059-5BEA-E053-CA2BA8C0F802,2601,2601063,0272891,80064,Mietel Stopnicki,część wsi,133.0,50.425877334913125,20.969766100923994
2EDAFD1C-FF0C-5BEA-E053-CA2BA8C0F802,2601,2601013,0232006,104562,Podgórze,część wsi,35.0,50.48324713000723,20.85977814111635
2EDAFD1C-FFF3-5BEA-E053-CA2BA8C0F802,2601,2601072,0275487,103125,Dąbrówka,kolonia,20.0,50.52083981638687,21.052005833018814
2EDAFD1D-005A-5BEA-E053-CA2BA8C0F802,2601,2601063,0272388,97737,Pasieka,część wsi,23.0,50.46910048640387,20.978716530776396
2EDAFD1C-FF3C-5BEA-E053-CA2BA8C0F802,2601,2601013,0231580,24814,Dobrowoda,wieś,452.0,50.40103351438219,20.77513274753064
2EDAFD1D-0150-5BEA-E053-CA2BA8C0F802,2601,2601013,0232220,180988,Stara Wieś,część wsi,15.0,50.48502008887963,20.74990930973902
2EDAFD1D-00E6-5BEA-E053-CA2BA8C0F802,2601,2601072,0275286,44575,Jarosławice,wieś,347.0,50.49640862646183,21.038328764506414
2EDAFD1C-FF5B-5BEA-E053-CA2BA8C0F802,2601,2601052,0271130,138426,Świniary,wieś,312.0,50.35315031964241,20.944402696294695
2EDAFD1C-FF18-5BEA-E053-CA2BA8C0F802,2601,2601063,0272715,125186,Smogorzów,wieś,504.0,50.438896703390874,20.856087487785814
2EDAFD1C-FF4B-5BEA-E053-CA2BA8C0F802,2601,2601052,0271041,131731,Strażnik,wieś,112.0,50.37232016746919,20.85758715142275
2EDAFD1C-FF68-5BEA-E053-CA2BA8C0F802,2601,2601013,0232800,48947,Kamienica,kolonia,40.0,50.438983820398825,20.796963650270335
2EDAFD1D-00D8-5BEA-E053-CA2BA8C0F802,2601,2601083,0277109,47716,Jurków,wieś,436.0,50.35707640111092,20.635782676240254
2EDAFD1D-0005-5BEA-E053-CA2BA8C0F802,2601,2601033,0255912,1665,Badrzychowice,wieś,272.0,50.34674991205982,20.790886456012714
2EDAFD1C-FF92-5BEA-E053-CA2BA8C0F802,2601,2601072,0275139,11811,Brzozówka,wieś,58.0,50.52866840309328,20.917917516926142
2EDAFD1C-FFB9-5BEA-E053-CA2BA8C0F802,2601,2601022,0238084,34113,Gnojno,wieś,738.0,50.60670909657509,20.842248508986334
2EDAFD1D-01A6-5BEA-E053-CA2BA8C0F802,2601,2601052,0271064,133552,Sułkowice,wieś,224.0,50.4205225315655,20.833995466640335
2EDAFD1D-00CA-5BEA-E053-CA2BA8C0F802,2601,2601083,0277210,57057,Koniecmosty,wieś,188.0,50.33749151181307,20.644181787989073
2EDAFD1C-FF9B-5BEA-E053-CA2BA8C0F802,2601,2601072,0999771,173123,Chałupki,wieś,185.0,50.52552171216549,20.944429960572492
2EDAFD1D-0017-5BEA-E053-CA2BA8C0F802,2601,2601043,0258939,124943,Słupia,wieś,506.0,50.37734408090902,21.042401109207514
2EDAFD1C-FFF2-5BEA-E053-CA2BA8C0F802,2601,2601072,0275234,99533,Piaski,kolonia,20.0,50.5230018097703,21.023885612825207
2EDAFD1C-FFA5-5BEA-E053-CA2BA8C0F802,2601,2601022,0238687,76117,Malinie,przysiółek,8.0,50.57332836351289,20.84275546852547
2EDAFD1D-017B-5BEA-E053-CA2BA8C0F802,2601,2601043,0259034,181486,Trzebica Szlachecka,część wsi,2.0,50.332346287251845,20.98047268093025
2EDAFD1D-013F-5BEA-E053-CA2BA8C0F802,2601,2601013,0232472,200153,Nowa-Pęczelice,część wsi,25.0,50.44970582833916,20.787824665069635
2EDAFD1D-0140-5BEA-E053-CA2BA8C0F802,2601,2601013,0233313,181056,Koło Szosy,część wsi,5.0,50.45770674616951,20.788120950650587
2EDAFD1D-0108-5BEA-E053-CA2BA8C0F802,2601,2601043,0258299,181458,Stara Wieś,część wsi,85.0,50.4018420835215,21.00348024624593
2EDAFD1D-014D-5BEA-E053-CA2BA8C0F802,2601,2601013,0232207,180949,Błonie,część wsi,85.0,50.476271530124095,20.745614847440045
2EDAFD1D-010E-5BEA-E053-CA2BA8C0F802,2601,2601043,0258537,219001,Poduchowne,część wsi,50.0,50.39561817141203,21.076393139563063
2EDAFD1D-010F-5BEA-E053-CA2BA8C0F802,2601,2601072,0275547,180786,Bugaj,kolonia,8.0,50.5175107996553,20.975146580176677
2EDAFD1D-0110-5BEA-E053-CA2BA8C0F802,2601,2601072,0275553,180788,Dębniak,kolonia,3.0,50.52509055609933,20.97832108918514
2EDAFD1D-0111-5BEA-E053-CA2BA8C0F802,2601,2601072,0275530,180775,Bielicha,kolonia,8.0,50.523839370268355,20.97183788979239
2EDAFD1D-005B-5BEA-E053-CA2BA8C0F802,2601,2601043,0259146,101995,Na Parceli,część wsi,43.0,50.39890213808514,20.983362784903157
2EDAFD1D-01A2-5BEA-E053-CA2BA8C0F802,2601,2601013,0233081,14986,Chałupki,część wsi,30.0,50.492834333681216,20.807429537670377
2EDAFD1C-FFF4-5BEA-E053-CA2BA8C0F802,2601,2601072,0275524,121777,Sieczków,wieś,143.0,50.51832715921469,20.96923597870453
2EDAFD1C-FF9A-5BEA-E053-CA2BA8C0F802,2601,2601022,0238635,150378,Wola Zofiowska,wieś,118.0,50.59739417535458,20.899974181541182
2EDAFD1C-FF84-5BEA-E053-CA2BA8C0F802,2601,2601022,0238569,119868,Rzeszutki Górne,część wsi,43.0,50.59075885866235,20.82408865830744
2EDAFD1D-015A-5BEA-E053-CA2BA8C0F802,2601,2601013,0231975,181067,Na Glinie,część wsi,3.0,50.4958311010654,20.887061146848225
2EDAFD1D-00CC-5BEA-E053-CA2BA8C0F802,2601,2601013,0233282,20653,Czesławice,część wsi,13.0,50.45844588394555,20.771750020257105
2058eca1-1591-11e8-9522-5404a6a68038,2601,2601043,0259028,140925,Trzebica Mała,część wsi,15.0,50.31911089043827,20.978081280855278
2EDAFD1D-0179-5BEA-E053-CA2BA8C0F802,2601,2601033,0256099,40849,Harmoniny,wieś,44.0,50.32243859573333,20.823443308335772
2EDAFD1D-000B-5BEA-E053-CA2BA8C0F802,2601,2601043,0259005,140924,Trzebica,wieś,197.0,50.33449766552761,20.974242035577696
2EDAFD1D-000C-5BEA-E053-CA2BA8C0F802,2601,2601043,0258276,16734,Chrzanów,wieś,213.0,50.40018817274543,20.999739635638857
2EDAFD1C-FFAF-5BEA-E053-CA2BA8C0F802,2601,2601013,0232288,81854,Młyny,wieś,520.0,50.54986106549047,20.72478780503447
fa1a8380-c8dd-11e9-9611-b8ca3a7f05dc,2601,2601043,0259229,181452,Zborówek Nowy,wieś,173.0,50.40564907234154,21.091689522485005
2EDAFD1C-FF43-5BEA-E053-CA2BA8C0F802,2601,2601052,0270892,99266,Piasek Mały,wieś,232.0,50.39144667668013,20.836792723428072
2EDAFD1D-008E-5BEA-E053-CA2BA8C0F802,2601,2601063,0272514,178723,Nowe Klępie,część wsi,53.0,50.42959285179349,21.02524935486636
2EDAFD1C-FF83-5BEA-E053-CA2BA8C0F802,2601,2601013,0231544,16390,Chotelek,wieś,324.0,50.43734513827842,20.686044049442234
c3474bfd-4ca2-4906-9f34-621349aaa97f,2601,2601022,0238262,200155,Poterała,osada,3.0,50.58347833630253,20.843683961269793
2EDAFD1D-00E1-5BEA-E053-CA2BA8C0F802,2601,2601043,0257325,85704,Naglówka,część wsi,3.0,50.415956319147945,21.084023926065793
2EDAFD1D-00B1-5BEA-E053-CA2BA8C0F802,2601,2601083,0277144,181022,Ośniki,część wsi,83.0,50.368138954452206,20.63704734140111
2EDAFD1D-000A-5BEA-E053-CA2BA8C0F802,2601,2601052,0270857,70711,Ludwinów,wieś,73.0,50.33613221690967,20.936047640260433
2EDAFD1C-FF65-5BEA-E053-CA2BA8C0F802,2601,2601013,0232822,171191,Skotniki-Młyn,część wsi,60.0,50.43256495843732,20.77604234369436
2EDAFD1D-00B0-5BEA-E053-CA2BA8C0F802,2601,2601083,0277233,181483,Scholasteria,część wsi,18.0,50.33044198391726,20.665803844249684
2EDAFD1C-FFBD-5BEA-E053-CA2BA8C0F802,2601,2601022,0238428,126371,Sokół,część wsi,20.0,50.565558957167475,20.877959231762187
2EDAFD1C-FFBF-5BEA-E053-CA2BA8C0F802,2601,2601072,0275607,69865,Lizawy,przysiółek,33.0,50.51238347170226,21.001477393022665
2EDAFD1C-FF90-5BEA-E053-CA2BA8C0F802,2601,2601022,0238138,63677,Krzywda,kolonia,18.0,50.594032657043726,20.836237771822663
2EDAFD1D-00BE-5BEA-E053-CA2BA8C0F802,2601,2601013,0233000,90338,Nowy Szczaworyż,część wsi,60.0,50.45048525438939,20.82386349425225
2EDAFD1C-FFD7-5BEA-E053-CA2BA8C0F802,2601,2601022,0238612,180150,Piaski,kolonia,58.0,50.61388970008699,20.895656296701706
2EDAFD1C-FFEC-5BEA-E053-CA2BA8C0F802,2601,2601013,0232325,136749,Ściegna,część wsi,103.0,50.54246752954384,20.73279261883277
2EDAFD1D-0197-5BEA-E053-CA2BA8C0F802,2601,2601063,0273258,128683,Stara Wieś,część wsi,33.0,50.50380102813917,20.955271120936683
2EDAFD1C-FFC8-5BEA-E053-CA2BA8C0F802,2601,2601022,0238552,180156,Rzeszutki Dolne,część wsi,23.0,50.584638308661994,20.824349563737883
2EDAFD1D-0153-5BEA-E053-CA2BA8C0F802,2601,2601013,0233164,181085,Walny Stok,część wsi,23.0,50.4870214128711,20.79211671591411
2EDAFD1C-FF5E-5BEA-E053-CA2BA8C0F802,2601,2601013,0232578,181052,Karczmarka,część wsi,23.0,50.42858426890248,20.764349825736254
2EDAFD1C-FFC1-5BEA-E053-CA2BA8C0F802,2601,2601022,0238440,108588,Poręba,wieś,80.0,50.62380428785282,20.857419965121494
2EDAFD1D-00E3-5BEA-E053-CA2BA8C0F802,2601,2601043,0259198,160366,Zborówek,wieś,115.0,50.39043505172102,21.104783536592088
2EDAFD1D-00EE-5BEA-E053-CA2BA8C0F802,2601,2601033,0256248,106087,Podraje,wieś,71.0,50.292274291371186,20.834477296257536
2EDAFD1C-FFD4-5BEA-E053-CA2BA8C0F802,2601,2601022,0237989,2133,Balice,wieś,359.0,50.547913880200085,20.83743381775124
2EDAFD1C-FF75-5BEA-E053-CA2BA8C0F802,2601,2601013,0233394,38556,Żerniki-Grabie,część wsi,18.0,50.47342768280926,20.79959433168521
2EDAFD1C-FFB6-5BEA-E053-CA2BA8C0F802,2601,2601072,0275671,118008,Rudki Wierzbickie,kolonia,13.0,50.530498261029145,21.003005198853373
2EDAFD1D-01B3-5BEA-E053-CA2BA8C0F802,2601,2601072,0275576,237218,Bazarówka,część wsi,13.0,50.5178301183365,20.993089126369878
2EDAFD1D-0086-5BEA-E053-CA2BA8C0F802,2601,2601083,0277003,33226,Gluzy Poduchowne,część wsi,35.0,50.40043058514835,20.714472117240057
2EDAFD1D-01AF-5BEA-E053-CA2BA8C0F802,2601,2601043,0258218,218997,Pod Olszyną,część wsi,4.0,50.377317114944354,21.01306025193215
2EDAFD1D-013D-5BEA-E053-CA2BA8C0F802,2601,2601013,0232495,181090,Zakupniki,część wsi,38.0,50.446763987031645,20.78328029030965
2EDAFD1C-FFE3-5BEA-E053-CA2BA8C0F802,2601,2601013,0232963,153044,Wymysłów,część wsi,18.0,50.512367458706926,20.70410331807174
2EDAFD1D-01AC-5BEA-E053-CA2BA8C0F802,2601,2601013,0233336,105327,Podlesie,część wsi,10.0,50.46819971489834,20.81736564507357
2EDAFD1D-016F-5BEA-E053-CA2BA8C0F802,2601,2601043,0259270,181447,Lisia Górka,część wsi,3.0,50.34913214092872,21.06305601489116
2EDAFD1D-00F3-5BEA-E053-CA2BA8C0F802,2601,2601043,0259123,151004,Wójcza,wieś,276.0,50.39236379849301,20.982095985320857
2EDAFD1C-FFBE-5BEA-E053-CA2BA8C0F802,2601,2601022,0238397,75056,Maciejowice,wieś,63.0,50.559764570133744,20.87788834565665
2EDAFD1D-0049-5BEA-E053-CA2BA8C0F802,2601,2601043,0258394,52392,Kępa Lubawska,wieś,151.0,50.323487081344744,21.04562547764924
2EDAFD1D-0194-5BEA-E053-CA2BA8C0F802,2601,2601063,0272589,77573,Mariampol,wieś,62.0,50.41362935079237,20.949794367990062
2EDAFD1C-FF19-5BEA-E053-CA2BA8C0F802,2601,2601013,0232621,117650,Ruczynów,wieś,184.0,50.474552945464886,20.83456748880153
2EDAFD1D-00BA-5BEA-E053-CA2BA8C0F802,2601,2601033,0256337,112088,Przymiarki,przysiółek,40.0,50.32648106852772,20.77768168694063
2EDAFD1C-FF44-5BEA-E053-CA2BA8C0F802,2601,2601052,0271331,155799,Zagajów,wieś,113.0,50.36356965756785,20.832724852135787
2EDAFD1D-0021-5BEA-E053-CA2BA8C0F802,2601,2601043,0258856,69375,Lisia Górka,część wsi,23.0,50.35014868726892,21.053932844175222
2EDAFD1D-00B9-5BEA-E053-CA2BA8C0F802,2601,2601083,0276972,156104,Zagórze,część wsi,45.0,50.372758725271076,20.731301936697925
2EDAFD1D-0168-5BEA-E053-CA2BA8C0F802,2601,2601043,0258833,218994,Kępa Szczucińska,część wsi,8.0,50.33257801445834,21.07111371411655
2EDAFD1D-0127-5BEA-E053-CA2BA8C0F802,2601,2601052,1016339,181179,Wikliny,przysiółek,25.0,50.375948641747,20.892735484634585
2EDAFD1D-009A-5BEA-E053-CA2BA8C0F802,2601,2601013,0232012,181082,Przedewsie,część wsi,10.0,50.4878541324487,20.85491008651308
2EDAFD1D-009B-5BEA-E053-CA2BA8C0F802,2601,2601013,0946763,180945,Pod Lasem,część miasta,48.0,50.484251120771454,20.711498235491174
2EDAFD1C-FF23-5BEA-E053-CA2BA8C0F802,2601,2601063,0273086,181231,Żarnowiec,część wsi,20.0,50.48456987534911,20.88157729370529
2EDAFD1D-0144-5BEA-E053-CA2BA8C0F802,2601,2601013,0232408,180956,Ku Cegielni,część wsi,15.0,50.45010659058238,20.74496082829187
2EDAFD1D-00DE-5BEA-E053-CA2BA8C0F802,2601,2601063,0272626,89991,Falęcin Nowy,wieś,114.0,50.45961831961014,20.956855206152404
2EDAFD1C-FF31-5BEA-E053-CA2BA8C0F802,2601,2601063,0272684,105328,Podlas,kolonia,10.0,50.48078137368013,20.916061836460187
2EDAFD1D-0199-5BEA-E053-CA2BA8C0F802,2601,2601043,0258678,125773,Smykały,część wsi,103.0,50.336746534350134,21.00813028522558
2EDAFD1D-0057-5BEA-E053-CA2BA8C0F802,2601,2601043,0259011,219002,Trzebica Kapitulna,część wsi,15.0,50.33427801009651,20.969639901267758
2EDAFD1C-FFD2-5BEA-E053-CA2BA8C0F802,2601,2601063,0273181,43368,Jakubiec,przysiółek,3.0,50.5121540318875,20.8851401138118
11a3f063-c9ac-4f85-b959-acaa77b0e2fc,2601,2601022,0238530,117751,Ruda,wieś,85.0,50.5489595949891,20.912556460121795
2EDAFD1D-00C2-5BEA-E053-CA2BA8C0F802,2601,2601063,0272371,16640,Chrusty,część wsi,13.0,50.464515964141945,20.97365214106845
2EDAFD1D-00B8-5BEA-E053-CA2BA8C0F802,2601,2601083,0276943,31124,Gaj,część wsi,83.0,50.38564669308296,20.71987779116234
fa0e4e80-c8dd-11e9-a575-b8ca3a7f05dc,2601,2601052,0270981,237187,Marek,przysiółek,20.0,50.3896974895005,20.942875368078795
2EDAFD1D-0067-5BEA-E053-CA2BA8C0F802,2601,2601013,0233260,163756,Żerniki Górne,wieś,347.0,50.46592376212345,20.796705214037093
2EDAFD1D-0002-5BEA-E053-CA2BA8C0F802,2601,2601013,0232360,92431,Olganów,wieś,293.0,50.410972851739864,20.753720398871685
2EDAFD1D-00FA-5BEA-E053-CA2BA8C0F802,2601,2601013,0231691,30339,Nowy Folwark,wieś,374.0,50.49525583671266,20.67736757946711
2EDAFD1C-FFC3-5BEA-E053-CA2BA8C0F802,2601,2601013,0231805,155898,Zagosiek,część wsi,33.0,50.52110390618389,20.626737092551874
2EDAFD1C-FF81-5BEA-E053-CA2BA8C0F802,2601,2601013,0233201,88694,Nowy Busk,część wsi,43.0,50.454933053661364,20.73567471141732
2EDAFD1C-FF6D-5BEA-E053-CA2BA8C0F802,2601,2601013,0231716,149176,Włodarka,kolonia,15.0,50.48877599191958,20.68269799071751
2EDAFD1D-007A-5BEA-E053-CA2BA8C0F802,2601,2601083,0277470,148640,Wiślica,miasto,437.0,50.34447625199213,20.676854898866505
2EDAFD1D-0145-5BEA-E053-CA2BA8C0F802,2601,2601013,0946757,180944,Okrąglica,część miasta,3.0,50.46147956499656,20.728853163703818
2EDAFD1D-0121-5BEA-E053-CA2BA8C0F802,2601,2601063,0272477,181211,Piekło,część wsi,5.0,50.44681245002634,20.979655784652877
2EDAFD1D-0146-5BEA-E053-CA2BA8C0F802,2601,2601013,0946680,180937,Długa Góra,część miasta,113.0,50.45706349986365,20.709867001508755
2EDAFD1D-0170-5BEA-E053-CA2BA8C0F802,2601,2601043,0259318,181463,Zajezioro,część wsi,8.0,50.3540956658336,21.075931930443712
2EDAFD1D-00D5-5BEA-E053-CA2BA8C0F802,2601,2601063,0272448,24249,Długosze,część wsi,50.0,50.43923757874344,21.014433194689065
2EDAFD1D-0096-5BEA-E053-CA2BA8C0F802,2601,2601013,0232259,155225,Kolonia Zachodnia,część wsi,288.0,50.49385313206324,20.70219407286693
2EDAFD1D-01B4-5BEA-E053-CA2BA8C0F802,2601,2601063,0272260,237208,Za Szosą,część wsi,4.0,50.44796617788957,20.97515031410366
2EDAFD1D-01B9-5BEA-E053-CA2BA8C0F802,2601,2601013,0946728,180941,Łagiewniki,część miasta,4.0,50.47996888585776,20.740894234396915
2EDAFD1C-FF16-5BEA-E053-CA2BA8C0F802,2601,2601052,0270946,168032,Sudołówka,przysiółek,33.0,50.39112173187488,20.84971443335395
2EDAFD1C-FF22-5BEA-E053-CA2BA8C0F802,2601,2601063,0273146,150490,Wolica,wieś,448.0,50.43855567300041,20.913039020223707
2EDAFD1C-FF2C-5BEA-E053-CA2BA8C0F802,2601,2601063,0272678,103635,Pod Prusami,część wsi,8.0,50.45065565069923,20.9007223883444
2EDAFD1D-00F0-5BEA-E053-CA2BA8C0F802,2601,2601072,0275613,151136,Wólka,kolonia,35.0,50.506958443690344,20.96142854079071
2EDAFD1D-017C-5BEA-E053-CA2BA8C0F802,2601,2601043,0258649,95829,Otoka,część wsi,45.0,50.32150831081976,21.00072681613806
2EDAFD1D-0191-5BEA-E053-CA2BA8C0F802,2601,2601043,0258810,114816,Rataje Karskie,wieś,183.0,50.341846772553716,21.058760275350046
2EDAFD1C-FF51-5BEA-E053-CA2BA8C0F802,2601,2601052,0271035,126425,Solec-Zdrój,wieś,806.0,50.36439115528674,20.88984130182774
2EDAFD1C-FF95-5BEA-E053-CA2BA8C0F802,2601,2601072,0275470,119908,Rzędów,wieś,125.0,50.53208734453757,21.059273827181908
2EDAFD1D-0188-5BEA-E053-CA2BA8C0F802,2601,2601063,0272276,9547,Bosowice,wieś,140.0,50.52873450654011,20.884978334957413
2EDAFD1D-0091-5BEA-E053-CA2BA8C0F802,2601,2601083,0276914,10946,Brzezie,wieś,129.0,50.39585843634836,20.701824046470648
2EDAFD1D-0060-5BEA-E053-CA2BA8C0F802,2601,2601052,0271325,155744,Zagaje Kikowskie,wieś,80.0,50.41264577442499,20.877873246958007
2EDAFD1D-001E-5BEA-E053-CA2BA8C0F802,2601,2601043,0258514,64201,Książnice,wieś,243.0,50.39370816924542,21.084603603515614
2EDAFD1D-018F-5BEA-E053-CA2BA8C0F802,2601,2601043,0258448,56798,Komorów,wieś,268.0,50.357945211730474,21.11523727028206
2EDAFD1C-FFFD-5BEA-E053-CA2BA8C0F802,2601,2601022,0238227,109564,Pozdżeń,przysiółek,8.0,50.567045629050305,20.938785025782735
2EDAFD1D-0171-5BEA-E053-CA2BA8C0F802,2601,2601043,0258460,181457,Rzym,część wsi,23.0,50.356201346863216,21.122539403920438
2EDAFD1D-015B-5BEA-E053-CA2BA8C0F802,2601,2601063,0272320,181187,Błonie,część wsi,13.0,50.484790095974155,20.992955704574946
2EDAFD1D-015C-5BEA-E053-CA2BA8C0F802,2601,2601013,0231892,181083,Stara Wieś,część wsi,68.0,50.498745800852085,20.84126518478785
2EDAFD1D-015D-5BEA-E053-CA2BA8C0F802,2601,2601063,0272359,181230,Zaogrodzie,część wsi,18.0,50.48455588921099,21.00001045975472
2EDAFD1D-015E-5BEA-E053-CA2BA8C0F802,2601,2601063,0272342,181214,Po Zagoniu,część wsi,43.0,50.47791708455972,20.993464509844248
2EDAFD1D-012B-5BEA-E053-CA2BA8C0F802,2601,2601052,0270834,181182,Zagrody,część wsi,63.0,50.40719641984728,20.864545089592955
2EDAFD1C-FF3A-5BEA-E053-CA2BA8C0F802,2601,2601063,0272773,88753,Nowe Folwarki,część wsi,15.0,50.45871281210647,20.929129223730627
2EDAFD1C-FFFB-5BEA-E053-CA2BA8C0F802,2601,2601022,0238003,43109,Jadwisin,część wsi,18.0,50.54246747783286,20.816511484366817
2EDAFD1C-FF9D-5BEA-E053-CA2BA8C0F802,2601,2601022,0238115,85252,Zagrądy,część wsi,93.0,50.59247587943563,20.847781657382267
2EDAFD1D-0129-5BEA-E053-CA2BA8C0F802,2601,2601052,0271437,181176,Studnisko,część wsi,228.0,50.38379115543935,20.89897082471215
2EDAFD1D-012A-5BEA-E053-CA2BA8C0F802,2601,2601052,0271420,181159,Piaski,część wsi,30.0,50.387394186655534,20.898146597940944
2EDAFD1C-FF08-5BEA-E053-CA2BA8C0F802,2601,2601013,0233342,106031,Podpaganka,część wsi,10.0,50.462946111204644,20.775361195457496
2EDAFD1C-FF4E-5BEA-E053-CA2BA8C0F802,2601,2601043,0258187,5120,Biechów Dolny,przysiółek,20.0,50.35878595402832,20.98123118584961
2EDAFD1D-006B-5BEA-E053-CA2BA8C0F802,2601,2601013,0231573,180991,Zakrzyże,część wsi,20.0,50.437772514238645,20.689451471032726
2EDAFD1C-FF91-5BEA-E053-CA2BA8C0F802,2601,2601022,0238747,180153,Pod Lasem,część wsi,3.0,50.5989483737049,20.910739320709556
2EDAFD1D-0087-5BEA-E053-CA2BA8C0F802,2601,2601083,0277285,181034,Zagumnie Augustowskie,część wsi,88.0,50.41362630782493,20.704470923392588
2EDAFD1D-00D7-5BEA-E053-CA2BA8C0F802,2601,2601083,0277138,47720,Osiedle za Cmentarzem,część wsi,80.0,50.35556122074678,20.62603376946843
2EDAFD1C-FF42-5BEA-E053-CA2BA8C0F802,2601,2601052,0271360,155802,Kolonia Zagajów,wieś,71.0,50.374913680414615,20.820369136758202
2EDAFD1C-FF48-5BEA-E053-CA2BA8C0F802,2601,2601013,0233247,162556,Zwierzyniec,wieś,129.0,50.51631704050013,20.716147598942687
2EDAFD1D-018C-5BEA-E053-CA2BA8C0F802,2601,2601072,0275346,86424,Nieciesławice,wieś,208.0,50.502076260099074,21.016655985441798
2EDAFD1D-0163-5BEA-E053-CA2BA8C0F802,2601,2601043,0258431,181644,Podwale,część wsi,3.0,50.31991939682947,21.04225379695056
2EDAFD1D-0088-5BEA-E053-CA2BA8C0F802,2601,2601083,0277291,181040,Załąki,część wsi,60.0,50.41722545987712,20.705585562816026
2EDAFD1D-0089-5BEA-E053-CA2BA8C0F802,2601,2601083,0277090,181028,Przedewsie,część wsi,10.0,50.41709693059406,20.713173536079243
2EDAFD1C-FF6B-5BEA-E053-CA2BA8C0F802,2601,2601013,0233046,7659,Bogoria,kolonia,38.0,50.45530530158596,20.66781589581733
2EDAFD1D-00EB-5BEA-E053-CA2BA8C0F802,2601,2601063,0272247,4771,Białoborze,wieś,304.0,50.44811465845557,20.970620190176973
2EDAFD1D-008F-5BEA-E053-CA2BA8C0F802,2601,2601072,0275300,173246,Piaski,część wsi,14.0,50.491468562056596,21.044752337837444
2EDAFD1C-FF60-5BEA-E053-CA2BA8C0F802,2601,2601013,0232160,57620,Kopałówka,część wsi,18.0,50.476407501544095,20.63837941401484
2EDAFD1D-004A-5BEA-E053-CA2BA8C0F802,2601,2601043,0258684,141592,Tur,część wsi,4.0,50.32548744740783,20.981112211211588
2EDAFD1D-006E-5BEA-E053-CA2BA8C0F802,2601,2601083,0277397,181031,Stara Wieś,część wsi,40.0,50.412384357804115,20.635093461463853
2EDAFD1C-FFA0-5BEA-E053-CA2BA8C0F802,2601,2601072,0275151,15011,Chałupki Grzymalskie,część wsi,78.0,50.52965861101566,20.942803370381863
2EDAFD1C-FF9C-5BEA-E053-CA2BA8C0F802,2601,2601072,0275168,163206,Żalówka,kolonia,18.0,50.524279766012455,20.95757022034127
2EDAFD1C-FFB4-5BEA-E053-CA2BA8C0F802,2601,2601072,0275174,15017,Chałupki Sieczkowskie,część wsi,53.0,50.520375505238114,20.944480687433053
2EDAFD1D-003C-5BEA-E053-CA2BA8C0F802,2601,2601013,0232130,91385,Ogonów,część wsi,103.0,50.50375163264235,20.811951437655836
2EDAFD1C-FF1E-5BEA-E053-CA2BA8C0F802,2601,2601063,0273057,135060,Szczytniki,wieś,145.0,50.47967271459831,20.887145182140838
2EDAFD1C-FF38-5BEA-E053-CA2BA8C0F802,2601,2601013,0231656,29447,Elżbiecin,wieś,101.0,50.5117663697352,20.739485278435694
2EDAFD1C-FF39-5BEA-E053-CA2BA8C0F802,2601,2601013,0232510,104351,Podgaje,wieś,284.0,50.512578604530276,20.769265837402603
2EDAFD1C-FFAE-5BEA-E053-CA2BA8C0F802,2601,2601013,0232905,134372,Szaniec,wieś,587.0,50.52105672035617,20.690156466469197
2EDAFD1C-FF1F-5BEA-E053-CA2BA8C0F802,2601,2601063,0272804,129303,Prusy,wieś,101.0,50.45055476757001,20.885340385765748
2EDAFD1C-FF07-5BEA-E053-CA2BA8C0F802,2601,2601063,0272796,129056,Kąty Stare,wieś,88.0,50.44690002081964,20.93102162335972
2EDAFD1C-FFD0-5BEA-E053-CA2BA8C0F802,2601,2601072,0275270,44419,Januszkowice,wieś,178.0,50.513738772369024,21.042074896245346
2EDAFD1C-FF1C-5BEA-E053-CA2BA8C0F802,2601,2601063,0272566,64665,Kuchary,wieś,207.0,50.46140422534484,20.874357555664883
2EDAFD1D-001D-5BEA-E053-CA2BA8C0F802,2601,2601043,0258336,51045,Karsy Duże,wieś,46.0,50.383488760015474,21.06065781791194
2EDAFD1D-017D-5BEA-E053-CA2BA8C0F802,2601,2601043,0258632,218996,Osada Oblekońska,część wsi,13.0,50.32466566200807,20.995454499234175
2EDAFD1C-FF24-5BEA-E053-CA2BA8C0F802,2601,2601063,0272810,89097,Nowe Prusy,część wsi,48.0,50.45033771283628,20.891950446106407
2EDAFD1C-FF74-5BEA-E053-CA2BA8C0F802,2601,2601013,0232667,123322,Skały,część wsi,35.0,50.452823847928585,20.69132073282941
fa1ea230-c8dd-11e9-b234-b8ca3a7f05dc,2601,2601063,0273212,180767,Borki,część wsi,6.0,50.51263683077934,20.935006192977994
2EDAFD1D-017E-5BEA-E053-CA2BA8C0F802,2601,2601043,0258690,219007,Wola Oblekońska,część wsi,73.0,50.328924045537086,20.988686316901802
2EDAFD1C-FF32-5BEA-E053-CA2BA8C0F802,2601,2601052,0271472,135781,Sznury,część wsi,8.0,50.34362351294552,20.93276919613933
2EDAFD1C-FF58-5BEA-E053-CA2BA8C0F802,2601,2601052,0271236,139672,Toczyska,część wsi,15.0,50.35440756451407,20.908368551599136
2EDAFD1C-FFBA-5BEA-E053-CA2BA8C0F802,2601,2601063,0272282,22497,Dąbrówka,część wsi,10.0,50.52203552133812,20.87263900424822
2EDAFD1D-000E-5BEA-E053-CA2BA8C0F802,2601,2601033,0256188,35469,Gościniec,przysiółek,90.0,50.325234235139135,20.967578408233486
2EDAFD1D-00C0-5BEA-E053-CA2BA8C0F802,2601,2601043,0258247,142683,Ukop,przysiółek,10.0,50.376831782105505,20.977120237060582
2EDAFD1D-00C1-5BEA-E053-CA2BA8C0F802,2601,2601063,0273198,153045,Wymysłów,przysiółek,15.0,50.50233550438537,20.910145888725474
2EDAFD1D-00E0-5BEA-E053-CA2BA8C0F802,2601,2601043,0257302,127617,Sroczków,wieś,378.0,50.4210909254044,21.064207001660694
2EDAFD1C-FF70-5BEA-E053-CA2BA8C0F802,2601,2601052,0270930,104862,Podkopce,kolonia,13.0,50.407157033138986,20.835048995200133
2EDAFD1D-00D0-5BEA-E053-CA2BA8C0F802,2601,2601022,0238204,180157,Za Stawem,część wsi,5.0,50.633069259354514,20.871074710519316
2276d601-1350-40d0-bc6d-ca787bd6224a,2601,2601013,0233193,160334,Zbludowice,wieś,1155.0,50.451533359616995,20.71346490319024
2EDAFD1D-0151-5BEA-E053-CA2BA8C0F802,2601,2601013,0233224,181050,Gumno,część wsi,38.0,50.489508054891274,20.76543818693089
2EDAFD1C-FFFA-5BEA-E053-CA2BA8C0F802,2601,2601022,0238055,180143,Gajówka,część wsi,3.0,50.57864091211929,20.807194566139046
2EDAFD1D-004C-5BEA-E053-CA2BA8C0F802,2601,2601063,0273092,135521,Szklanów,wieś,103.0,50.421638259445494,20.904756782872255
2EDAFD1C-FFA8-5BEA-E053-CA2BA8C0F802,2601,2601022,0238411,180147,Olszynki,część wsi,13.0,50.57110027899905,20.876736584769944
2EDAFD1C-FF9F-5BEA-E053-CA2BA8C0F802,2601,2601022,0238730,162272,Zofiówka,wieś,59.0,50.60314235298897,20.921918601023282
2EDAFD1D-003A-5BEA-E053-CA2BA8C0F802,2601,2601063,0272610,88836,Kąty Nowe,wieś,177.0,50.450449824505526,20.945747382566662
2EDAFD1D-0015-5BEA-E053-CA2BA8C0F802,2601,2601043,0258170,5118,Biechów,wieś,289.0,50.365895233993804,20.98340313879019
2EDAFD1D-016D-5BEA-E053-CA2BA8C0F802,2601,2601043,0258900,181420,Błonie,część wsi,15.0,50.34949228873943,21.04715509248339
2EDAFD1D-016E-5BEA-E053-CA2BA8C0F802,2601,2601043,0258879,219000,Podszkole,część wsi,3.0,50.35066287501395,21.04208160208482
2EDAFD1D-0069-5BEA-E053-CA2BA8C0F802,2601,2601013,0231484,180992,Zastawie,część wsi,13.0,50.44691002121765,20.66158228467492
2EDAFD1D-00AF-5BEA-E053-CA2BA8C0F802,2601,2601083,0277240,181033,Wiślickie,część wsi,33.0,50.33344958857536,20.663193287490788
2EDAFD1C-FF2E-5BEA-E053-CA2BA8C0F802,2601,2601052,0271265,50682,Karna Góra,część wsi,25.0,50.378399125426,20.916385499057235
2EDAFD1D-0128-5BEA-E053-CA2BA8C0F802,2601,2601052,0271443,181186,Zawodzie,część wsi,70.0,50.38100575540677,20.894625726210812
2EDAFD1D-006A-5BEA-E053-CA2BA8C0F802,2601,2601013,0231567,180953,Chotelek Poduchowny,część wsi,40.0,50.442065275279354,20.676575606698737
2EDAFD1D-013A-5BEA-E053-CA2BA8C0F802,2601,2601063,0273063,181218,Podgaje,część wsi,15.0,50.4816243626927,20.886129626014228
2EDAFD1D-013B-5BEA-E053-CA2BA8C0F802,2601,2601013,0232727,199381,Karczmarówka,część wsi,10.0,50.43516785733082,20.78340483093383
2EDAFD1D-0020-5BEA-E053-CA2BA8C0F802,2601,2601043,0259293,178706,Wójcikówka,część wsi,50.0,50.36080373534017,21.05255557661442
2EDAFD1D-0068-5BEA-E053-CA2BA8C0F802,2601,2601013,0231490,10277,Bronina,wieś,438.0,50.4665758971026,20.75866821729921
2EDAFD1D-00D4-5BEA-E053-CA2BA8C0F802,2601,2601063,0272454,27482,Klępie Brzozowskie,część wsi,8.0,50.4444884234534,21.01470431362949
2EDAFD1D-0006-5BEA-E053-CA2BA8C0F802,2601,2601072,0275317,50583,Kargów,wieś,221.0,50.511039580827806,20.919163940541395
2EDAFD1D-00EF-5BEA-E053-CA2BA8C0F802,2601,2601043,0259264,162900,Żabiec,wieś,380.0,50.355217331226584,21.069336500627717
2EDAFD1D-0056-5BEA-E053-CA2BA8C0F802,2601,2601043,0259040,181146,Wątrobówka,część wsi,3.0,50.34038452565631,20.96565721223223
2EDAFD1D-0147-5BEA-E053-CA2BA8C0F802,2601,2601013,0232673,180989,Wał,część wsi,80.0,50.45523667843315,20.68620483274899
2EDAFD1D-0097-5BEA-E053-CA2BA8C0F802,2601,2601013,0232242,151970,Kolonia Wschodnia,część wsi,160.0,50.49963223994943,20.730855961390432
2EDAFD1D-0178-5BEA-E053-CA2BA8C0F802,2601,2601083,0277010,33227,Gluzy Szlacheckie,część wsi,63.0,50.408299616834825,20.714502473551974
2EDAFD1D-0045-5BEA-E053-CA2BA8C0F802,2601,2601063,0272425,39553,Grunta,część wsi,3.0,50.49205822444514,20.966818184517383
2EDAFD1C-FF76-5BEA-E053-CA2BA8C0F802,2601,2601013,0233106,59072,Kostera,część wsi,65.0,50.490734186290425,20.792934684818874
2EDAFD1D-00DF-5BEA-E053-CA2BA8C0F802,2601,2601043,0257354,2377,Sroczków Bankowy,część wsi,123.0,50.41269264251684,21.068138343644144
2EDAFD1D-014B-5BEA-E053-CA2BA8C0F802,2601,2601013,0946697,180938,Doły,część miasta,35.0,50.473325571847376,20.743349937040527
2EDAFD1D-008A-5BEA-E053-CA2BA8C0F802,2601,2601083,0277084,181020,Na Wyspie,część wsi,68.0,50.41793090225588,20.718962039258006
2EDAFD1D-0158-5BEA-E053-CA2BA8C0F802,2601,2601063,0272980,181208,Ośrodek,część wsi,28.0,50.47196315340138,20.847227263350742
2EDAFD1D-008B-5BEA-E053-CA2BA8C0F802,2601,2601013,0232377,181091,Zastruże,część wsi,45.0,50.41159486602566,20.753497199179375
2EDAFD1D-0124-5BEA-E053-CA2BA8C0F802,2601,2601043,0259175,181144,Nowa Wieś,część wsi,43.0,50.401348803281934,20.962200525713193
2EDAFD1D-00C9-5BEA-E053-CA2BA8C0F802,2601,2601083,0277227,64666,Kuchary,wieś,186.0,50.32840222830448,20.657266018154054
2EDAFD1D-0125-5BEA-E053-CA2BA8C0F802,2601,2601043,0259181,181145,Stara Wieś,część wsi,45.0,50.399952408100866,20.966292354723144
2EDAFD1C-FFF6-5BEA-E053-CA2BA8C0F802,2601,2601013,0232555,123425,Skarysławice,część wsi,50.0,50.50852524428083,20.785701691792283
2EDAFD1D-00C8-5BEA-E053-CA2BA8C0F802,2601,2601083,0277463,144547,Wawrowice,wieś,109.0,50.31556699071355,20.66187695740026
2EDAFD1D-016C-5BEA-E053-CA2BA8C0F802,2601,2601043,0258508,200161,Żabiec,część wsi,2.0,50.34437985469667,21.080339927954597
2EDAFD1D-007D-5BEA-E053-CA2BA8C0F802,2601,2601083,0277078,41414,Hołudza,wieś,181.0,50.4186025760409,20.72090492099433
2EDAFD1D-007E-5BEA-E053-CA2BA8C0F802,2601,2601083,0277256,71493,Łatanice,wieś,356.0,50.41277278160901,20.694845271470015
2EDAFD1C-FF1A-5BEA-E053-CA2BA8C0F802,2601,2601013,1038022,88369,Nowa Wieś,wieś,87.0,50.457314558864844,20.837563809313032
fa0f5ff0-c8dd-11e9-b9d4-b8ca3a7f05dc,2601,2601013,0232762,199380,Zakupniki,część wsi,17.0,50.43280642196746,20.77996039776982
2EDAFD1D-01A0-5BEA-E053-CA2BA8C0F802,2601,2601033,0256343,142467,Ucisków,wieś,103.0,50.32494980903567,20.799566154426593
2EDAFD1D-0102-5BEA-E053-CA2BA8C0F802,2601,2601033,0256107,51457,Kawęczyn,wieś,105.0,50.33038532351108,20.888226297892317
2EDAFD1D-0103-5BEA-E053-CA2BA8C0F802,2601,2601052,0271176,144922,Wełnin,wieś,462.0,50.34527888167542,20.896568934469055
2EDAFD1C-FF50-5BEA-E053-CA2BA8C0F802,2601,2601052,0271489,164134,Żuków,wieś,163.0,50.38620727932297,20.869051880166438
2EDAFD1C-FF3D-5BEA-E053-CA2BA8C0F802,2601,2601013,0232710,123877,Skotniki Duże,wieś,321.0,50.430452778468734,20.778887193544655
2EDAFD1D-0077-5BEA-E053-CA2BA8C0F802,2601,2601033,0256060,39276,Grotniki Małe,wieś,156.0,50.30985972120953,20.845229976779024
2EDAFD1C-FFAA-5BEA-E053-CA2BA8C0F802,2601,2601022,0238575,123041,Skadla,wieś,156.0,50.59074573271898,20.886406717525873
2EDAFD1C-FF21-5BEA-E053-CA2BA8C0F802,2601,2601063,0272649,124011,Skrobaczów,wieś,275.0,50.472751868408146,20.911837642408926
2EDAFD1D-0136-5BEA-E053-CA2BA8C0F802,2601,2601063,0272721,181217,Pod Topolą,część wsi,15.0,50.43511407888094,20.866213825832563
2EDAFD1D-0137-5BEA-E053-CA2BA8C0F802,2601,2601063,0273130,181227,Zagórze,część wsi,15.0,50.432837393845034,20.888410228763153
2EDAFD1D-0138-5BEA-E053-CA2BA8C0F802,2601,2601063,0272744,181219,Sachalin,część wsi,25.0,50.44079240854679,20.871735892597723
2EDAFD1D-0022-5BEA-E053-CA2BA8C0F802,2601,2601043,0259287,84155,Muchówka,część wsi,8.0,50.36227552478304,21.075025448828633
2EDAFD1D-003B-5BEA-E053-CA2BA8C0F802,2601,2601063,0272750,128980,Folwarki,wieś,101.0,50.45279171247806,20.920153294984893
fa1e7b21-c8dd-11e9-b20b-b8ca3a7f05dc,2601,2601033,0256372,164097,Żukowice,wieś,85.0,50.2876304009964,20.72111391874772
2EDAFD1D-018B-5BEA-E053-CA2BA8C0F802,2601,2601072,0275560,141470,Tuczępy,wieś,618.0,50.50956394862785,20.985637561314398
2EDAFD1D-0014-5BEA-E053-CA2BA8C0F802,2601,2601052,0271242,149250,Włosnowice,wieś,205.0,50.37450990837065,20.925167882607436
2EDAFD1D-0185-5BEA-E053-CA2BA8C0F802,2601,2601083,0277300,95358,Ostrów,wieś,150.0,50.32191452030635,20.679922125480598
2EDAFD1D-018A-5BEA-E053-CA2BA8C0F802,2601,2601063,0272313,21088,Czyżów,wieś,363.0,50.481333467001114,20.993844547314932
2EDAFD1C-FFA9-5BEA-E053-CA2BA8C0F802,2601,2601022,0238078,32992,Glinka,wieś,175.0,50.594184419180685,20.861120827439027
2EDAFD1D-0189-5BEA-E053-CA2BA8C0F802,2601,2601063,0272856,129930,Mietel,wieś,407.0,50.42135124090673,20.969541829787293
2EDAFD1D-018D-5BEA-E053-CA2BA8C0F802,2601,2601013,0232638,122525,Siesławice,wieś,880.0,50.45345729102218,20.694401599309952
2EDAFD1C-FF6C-5BEA-E053-CA2BA8C0F802,2601,2601013,0233069,130108,Stara Wieś,przysiółek,78.0,50.462194965225244,20.671291587944605
2EDAFD1D-013E-5BEA-E053-CA2BA8C0F802,2601,2601013,0232503,181092,Żalówka,część wsi,13.0,50.448078785943025,20.786603392614868
2EDAFD1D-011E-5BEA-E053-CA2BA8C0F802,2601,2601043,0259241,181460,Stary Zborówek,część wsi,2.0,50.3938330113492,21.09765535710166
2EDAFD1D-00B4-5BEA-E053-CA2BA8C0F802,2601,2601072,0275381,81875,Młyńczyska,osada,8.0,50.483135505365034,21.057507903705726
2EDAFD1C-FF8D-5BEA-E053-CA2BA8C0F802,2601,2601022,0237995,2135,Balice-Kolonia,część wsi,38.0,50.553646636250505,20.829509342771686
2EDAFD1D-0012-5BEA-E053-CA2BA8C0F802,2601,2601043,0258655,104117,Podchruście,część wsi,53.0,50.32354162575786,21.029973750780098
2EDAFD1D-00A7-5BEA-E053-CA2BA8C0F802,2601,2601013,0231969,6767,Błonie,część wsi,93.0,50.503530329175234,20.854705533275187
2EDAFD1D-00F4-5BEA-E053-CA2BA8C0F802,2601,2601033,0255987,105339,Podlesie,przysiółek,25.0,50.319758998296074,20.879482860512685
2EDAFD1D-0148-5BEA-E053-CA2BA8C0F802,2601,2601013,0946800,180947,Wał,część miasta,45.0,50.469464954704904,20.700284762018445
2EDAFD1C-FF40-5BEA-E053-CA2BA8C0F802,2601,2601013,0231722,30907,Gadawa,wieś,94.0,50.394137477307,20.80359015355723
2EDAFD1D-00F1-5BEA-E053-CA2BA8C0F802,2601,2601072,0275292,173245,Jarosławice-Nowa Wieś,część wsi,128.0,50.49932016387164,21.051627086829996
2EDAFD1D-017F-5BEA-E053-CA2BA8C0F802,2601,2601013,0232584,52014,Kąty,część wsi,5.0,50.4388383690592,20.757689244849256
2EDAFD1C-FF3F-5BEA-E053-CA2BA8C0F802,2601,2601013,0232443,99010,Pęczelice,wieś,126.0,50.44866084279263,20.780997416436332
2EDAFD1D-00A0-5BEA-E053-CA2BA8C0F802,2601,2601043,0258388,156927,Zakobyle,część wsi,23.0,50.380093099367215,21.08576839137364
2EDAFD1D-00A1-5BEA-E053-CA2BA8C0F802,2601,2601043,0259235,100333,Piekło,część wsi,38.0,50.401945693500046,21.077860400374643
2EDAFD1D-00DC-5BEA-E053-CA2BA8C0F802,2601,2601022,0238196,153037,Wymysłów,część wsi,8.0,50.60931663872275,20.87195872765449
2EDAFD1C-FFD1-5BEA-E053-CA2BA8C0F802,2601,2601022,0238180,180152,Pod Lasem,część wsi,15.0,50.62400666702102,20.88244742082568
2EDAFD1D-0107-5BEA-E053-CA2BA8C0F802,2601,2601043,0258572,181455,Przy Błoniu,część wsi,20.0,50.39922202768988,21.026463989245467
2EDAFD1D-01A3-5BEA-E053-CA2BA8C0F802,2601,2601072,0275620,151969,Wschodnia Tuczępska,kolonia,5.0,50.49738818928926,20.977359657991165
2EDAFD1D-00B3-5BEA-E053-CA2BA8C0F802,2601,2601083,0277434,181000,Budzyń,część wsi,20.0,50.34046406357293,20.71545584673771
2EDAFD1D-0106-5BEA-E053-CA2BA8C0F802,2601,2601043,0258566,181454,Popelina,część wsi,5.0,50.39320492329425,21.031282911734227
2EDAFD1C-FFA4-5BEA-E053-CA2BA8C0F802,2601,2601022,0238693,109468,Potyrała,osada,15.0,50.580027241045734,20.8471601150161
2EDAFD1D-0041-5BEA-E053-CA2BA8C0F802,2601,2601052,0270923,181160,Pod Lasem,część wsi,5.0,50.38235467031798,20.831093767783564
2EDAFD1D-012D-5BEA-E053-CA2BA8C0F802,2601,2601052,0271526,181175,Stawisko,część wsi,13.0,50.38772674592302,20.874597440029696
2EDAFD1D-012E-5BEA-E053-CA2BA8C0F802,2601,2601052,0271093,178717,Kamienna Góra,część wsi,5.0,50.4180614471856,20.858520065941306
205b3691-1591-11e8-a8e2-5404a6a68038,2601,2601043,0258626,218991,Ispówka,część wsi,4.0,50.31863607402786,20.98907420182293
2EDAFD1C-FF8B-5BEA-E053-CA2BA8C0F802,2601,2601022,0238658,180144,Gajówka,część wsi,3.0,50.60476117271246,20.902540816819844
fa21af70-c8dd-11e9-b347-b8ca3a7f05dc,2601,2601052,0271006,237190,Piestrzec Kapitulny,część wsi,40.0,50.3862699234441,20.9606599008095
fa21d680-c8dd-11e9-8c8e-b8ca3a7f05dc,2601,2601052,0271012,237191,Piestrzec Poduchowny,część wsi,10.0,50.386838639050524,20.92946219004267
2EDAFD1C-FF8A-5BEA-E053-CA2BA8C0F802,2601,2601072,0275493,84826,Na Górze,kolonia,18.0,50.5208229428286,21.06268901378901
2EDAFD1C-FF09-5BEA-E053-CA2BA8C0F802,2601,2601013,0233135,88367,Nowa Wieś,część wsi,3.0,50.47958663744318,20.78671071573147
2EDAFD1D-00D6-5BEA-E053-CA2BA8C0F802,2601,2601043,0257377,151137,Wólka,część wsi,28.0,50.428507294192926,21.071876643325293
2EDAFD1C-FF96-5BEA-E053-CA2BA8C0F802,2601,2601072,0275180,24824,Dobrów,wieś,10.0,50.54606686297005,21.039668807086723
2EDAFD1D-00DB-5BEA-E053-CA2BA8C0F802,2601,2601033,0256030,36534,Górnowola Majoratna,część wsi,118.0,50.32509185501683,20.84510241400298
2EDAFD1C-FF77-5BEA-E053-CA2BA8C0F802,2601,2601013,0233098,54039,Klin,część wsi,93.0,50.49242497603168,20.79966087989896
2EDAFD1C-FFA3-5BEA-E053-CA2BA8C0F802,2601,2601013,0232437,180132,Osada Młyńska,część wsi,3.0,50.525383176058305,20.846245660102046
2EDAFD1D-0119-5BEA-E053-CA2BA8C0F802,2601,2601063,0272307,180772,Za Ogrodem,część wsi,3.0,50.523023809065315,20.893588770991204
2EDAFD1D-00E9-5BEA-E053-CA2BA8C0F802,2601,2601043,0259086,103315,Pod Jeziorem,część wsi,50.0,50.36552979199215,21.01180272792815
2EDAFD1D-00EA-5BEA-E053-CA2BA8C0F802,2601,2601043,0258951,39388,Gródza,część wsi,18.0,50.3729317701789,21.05554122121898
2EDAFD1C-FF2B-5BEA-E053-CA2BA8C0F802,2601,2601063,0273152,85107,Na Przedmieściu,część wsi,230.0,50.44305232967823,20.913565550204034
2EDAFD1D-00F6-5BEA-E053-CA2BA8C0F802,2601,2601033,0255993,154865,Zabłocie,przysiółek,55.0,50.31718291800128,20.915710188088983
2EDAFD1C-FFFC-5BEA-E053-CA2BA8C0F802,2601,2601022,0238374,147502,Wiktorów,przysiółek,45.0,50.599788195266896,20.93588540141828
2EDAFD1C-FFFE-5BEA-E053-CA2BA8C0F802,2601,2601063,0273229,30472,Fortunka,część wsi,28.0,50.51010795989737,20.940648274370165
2EDAFD1D-0075-5BEA-E053-CA2BA8C0F802,2601,2601063,0272508,80959,Miradowy,część wsi,10.0,50.425040076840396,20.99675806324039
2EDAFD1D-012F-5BEA-E053-CA2BA8C0F802,2601,2601052,0271503,181158,Piachy,część wsi,43.0,50.3886257462266,20.87720891447568
2EDAFD1D-012C-5BEA-E053-CA2BA8C0F802,2601,2601052,0270828,181174,Stawisko,część wsi,38.0,50.40686937603733,20.868073630469176
2EDAFD1C-FF71-5BEA-E053-CA2BA8C0F802,2601,2601052,0271058,57336,Konstantynów-Kolonia,kolonia,8.0,50.37740767421625,20.848538775118218
2EDAFD1D-0070-5BEA-E053-CA2BA8C0F802,2601,2601083,0277196,181018,Kobylniki-Wójtostwo,część wsi,43.0,50.3946436108853,20.651269377585173
2EDAFD1D-0071-5BEA-E053-CA2BA8C0F802,2601,2601083,0277180,181017,Kobylniki Rządowe,część wsi,43.0,50.383363988899085,20.65628858221283
2EDAFD1D-0159-5BEA-E053-CA2BA8C0F802,2601,2601013,0232029,181084,Stara Wieś,część wsi,53.0,50.492491999783645,20.85352955555125
2EDAFD1C-FFC7-5BEA-E053-CA2BA8C0F802,2601,2601022,0238061,146077,Wielka Łąka,część wsi,15.0,50.584609448485125,20.796497365921137
2EDAFD1D-0058-5BEA-E053-CA2BA8C0F802,2601,2601043,0258595,181490,Błonie,część wsi,4.0,50.33074581176552,21.005505017547087
2EDAFD1D-0182-5BEA-E053-CA2BA8C0F802,2601,2601083,0276950,56664,Komornicze-Książyzna,część wsi,60.0,50.3823129997484,20.707677251287862
2EDAFD1D-009E-5BEA-E053-CA2BA8C0F802,2601,2601013,0233052,180955,Komorna,część wsi,75.0,50.468427156006484,20.665054668105064
2EDAFD1D-00C5-5BEA-E053-CA2BA8C0F802,2601,2601033,0256366,148321,Winiary Wiślickie,kolonia,65.0,50.28511685077374,20.767583922085954
fa20ec21-c8dd-11e9-a3a2-b8ca3a7f05dc,2601,2601013,0232549,218987,Pustka Dworu,część wsi,4.0,50.5130784524099,20.758269824908822
2EDAFD1D-009D-5BEA-E053-CA2BA8C0F802,2601,2601013,0231751,14640,Cekury,część wsi,60.0,50.50960907664339,20.650544736030625
2EDAFD1D-008C-5BEA-E053-CA2BA8C0F802,2601,2601013,0231633,181069,Orłowa Góra,część wsi,105.0,50.403329860147565,20.766758487152778
2EDAFD1C-FFEF-5BEA-E053-CA2BA8C0F802,2601,2601013,0231662,180049,Gać,część wsi,25.0,50.51644640866581,20.73534830059649
2EDAFD1C-FFF0-5BEA-E053-CA2BA8C0F802,2601,2601013,0232696,180048,Błonie,część wsi,33.0,50.5274774186752,20.733655263813326
2EDAFD1D-0098-5BEA-E053-CA2BA8C0F802,2601,2601013,0231857,91384,Ogonów,część wsi,38.0,50.50261869153296,20.828588491567942
2EDAFD1D-011A-5BEA-E053-CA2BA8C0F802,2601,2601043,0258260,181449,Mogrołki,część wsi,3.0,50.396141139394125,21.118629983335484
2EDAFD1D-0116-5BEA-E053-CA2BA8C0F802,2601,2601072,0275323,180801,Łysa Góra,część wsi,45.0,50.519410148980604,20.92190916742434
2EDAFD1D-011B-5BEA-E053-CA2BA8C0F802,2601,2601043,0258721,181414,Barbara,część miasta,18.0,50.39564454619021,21.03746591995679
2EDAFD1D-011D-5BEA-E053-CA2BA8C0F802,2601,2601043,0257319,181443,Kliny,część wsi,15.0,50.4181099563246,21.064148427268954
2EDAFD1D-0122-5BEA-E053-CA2BA8C0F802,2601,2601063,0272253,181188,Hektary,część wsi,68.0,50.44081719065826,20.96523355006781
2EDAFD1D-0123-5BEA-E053-CA2BA8C0F802,2601,2601063,0272900,181203,Mietel Turski,część wsi,15.0,50.42041331626823,20.97726032149967
2EDAFD1D-0130-5BEA-E053-CA2BA8C0F802,2601,2601052,1016322,181151,Las Strażnicki,część wsi,10.0,50.365969241122464,20.864424739598217
2EDAFD1D-0131-5BEA-E053-CA2BA8C0F802,2601,2601052,0271101,181163,Podedwór,część wsi,13.0,50.418859769285056,20.840930870383065
2EDAFD1D-0132-5BEA-E053-CA2BA8C0F802,2601,2601052,0271124,181169,Stara Wieś,część wsi,25.0,50.42491975510933,20.841665282724023
2EDAFD1C-FFEA-5BEA-E053-CA2BA8C0F802,2601,2601072,0275228,170821,Lizawy,kolonia,18.0,50.509795491717156,21.010259861384267
2EDAFD1D-0030-5BEA-E053-CA2BA8C0F802,2601,2601083,0276966,104180,Poddębie,część wsi,30.0,50.37962469461532,20.742444503335935
2EDAFD1D-00AB-5BEA-E053-CA2BA8C0F802,2601,2601083,0277150,181023,Ośniki-Osiedle,część wsi,3.0,50.35629625499752,20.64063341267906
2EDAFD1C-FFE5-5BEA-E053-CA2BA8C0F802,2601,2601013,0232302,180052,Piasek,część wsi,40.0,50.55045322653409,20.72228141823698
2EDAFD1C-FFEB-5BEA-E053-CA2BA8C0F802,2601,2601022,0238629,161415,Zielonka,kolonia,8.0,50.61191827872249,20.90672596313592
2EDAFD1C-FF2F-5BEA-E053-CA2BA8C0F802,2601,2601052,0271259,6772,Błonie,część wsi,10.0,50.36472121226081,20.917662345743754
2EDAFD1C-FFD6-5BEA-E053-CA2BA8C0F802,2601,2601022,0238173,99522,Piaski,część wsi,23.0,50.61902230310211,20.8906231011821
2EDAFD1D-019F-5BEA-E053-CA2BA8C0F802,2601,2601043,0257101,66018,Kwasów,wieś,170.0,50.42000202388689,21.026460356115066
2EDAFD1D-0072-5BEA-E053-CA2BA8C0F802,2601,2601063,0272885,80063,Mietel Pacanowski,część wsi,78.0,50.42098919286768,20.98371624613425
2EDAFD1D-0092-5BEA-E053-CA2BA8C0F802,2601,2601033,0256308,129862,Stary Korczyn,wieś,238.0,50.29334975781543,20.74972462359894
2EDAFD1D-0093-5BEA-E053-CA2BA8C0F802,2601,2601033,0256290,121596,Sępichów,wieś,368.0,50.314816339643755,20.7551997037159
2EDAFD1D-01BA-5BEA-E053-CA2BA8C0F802,2601,2601063,0273040,134655,Szczeglin,wieś,122.0,50.41073804835852,21.009593744318174
2EDAFD1C-FF8C-5BEA-E053-CA2BA8C0F802,2601,2601022,0238240,889,Antoniów,przysiółek,20.0,50.56868453255687,20.82567587368562
2EDAFD1D-0048-5BEA-E053-CA2BA8C0F802,2601,2601043,0258922,178707,Podolszynie,część wsi,20.0,50.32368809447315,21.06437171637079
2EDAFD1D-00B5-5BEA-E053-CA2BA8C0F802,2601,2601063,0272336,40956,Hektary,przysiółek,73.0,50.471219014965996,20.99645561609051
2EDAFD1D-00ED-5BEA-E053-CA2BA8C0F802,2601,2601033,0256047,36535,Górnowola Szpitalna,część wsi,93.0,50.31905984659075,20.860395175342536
2EDAFD1D-001F-5BEA-E053-CA2BA8C0F802,2601,2601043,0258997,142545,Ugory,część wsi,25.0,50.36570068453752,21.040716986019813
2EDAFD1D-011C-5BEA-E053-CA2BA8C0F802,2601,2601043,0258750,181456,Radziwiłówka,część miasta,40.0,50.39971553215207,21.045994806755218
2EDAFD1D-0139-5BEA-E053-CA2BA8C0F802,2601,2601063,0273070,181226,Za Ulicą,część wsi,10.0,50.47625667454866,20.891681967460624
f640a5c0-ca7f-11e9-9538-b8ca3a7f05dc,2601,2601072,0275263,178725,Żalówka,kolonia,8.0,50.52300851767525,20.96316241479086
2EDAFD1D-0033-5BEA-E053-CA2BA8C0F802,2601,2601052,0270975,14989,Chałupki,część wsi,65.0,50.3877118420922,20.943233702969277
2EDAFD1D-0034-5BEA-E053-CA2BA8C0F802,2601,2601052,0270998,181155,Maternów,przysiółek,20.0,50.38012643062947,20.9507378914632
2EDAFD1D-01A1-5BEA-E053-CA2BA8C0F802,2601,2601013,0233129,181063,Na Chrustach,kolonia,60.0,50.48885601404411,20.803228775555663
2EDAFD1C-FF4A-5BEA-E053-CA2BA8C0F802,2601,2601043,0259347,142544,Ugory,kolonia,40.0,50.36878765477134,20.94975391859752
2EDAFD1D-00F5-5BEA-E053-CA2BA8C0F802,2601,2601033,0256001,158333,Zamoście,przysiółek,108.0,50.30853415546746,20.915321191734165
2EDAFD1C-FF7E-5BEA-E053-CA2BA8C0F802,2601,2601063,0272738,103812,Pod Wiśnią,część wsi,5.0,50.43075125057793,20.839392273620668
fa1e7b22-c8dd-11e9-aaf0-b8ca3a7f05dc,2601,2601013,0232526,180128,Błonie,część wsi,2.0,50.503293663983044,20.75352196130278
2EDAFD1C-FF0B-5BEA-E053-CA2BA8C0F802,2601,2601063,0273011,145045,Wesoła,część wsi,3.0,50.48069359362154,20.85067769219725
2EDAFD1C-FF0D-5BEA-E053-CA2BA8C0F802,2601,2601063,0272572,50547,Karczunek,część wsi,15.0,50.457195296844226,20.86619971991764
2EDAFD1D-0018-5BEA-E053-CA2BA8C0F802,2601,2601043,0258603,36223,Górki,część wsi,83.0,50.338779504562076,20.994734982982912
2EDAFD1C-FF6A-5BEA-E053-CA2BA8C0F802,2601,2601013,0231478,180964,Podcmentarze,część wsi,35.0,50.45028823552231,20.660112517554413
2EDAFD1C-FF80-5BEA-E053-CA2BA8C0F802,2601,2601013,0232609,105331,Podlesie,kolonia,214.0,50.43658620577405,20.73708167857839
2EDAFD1D-016B-5BEA-E053-CA2BA8C0F802,2601,2601043,0258490,219006,Wermanówka,część wsi,5.0,50.341519469517316,21.078097144222603
fa216150-c8dd-11e9-af5c-b8ca3a7f05dc,2601,2601052,0271390,237180,Górka,część wsi,2.0,50.35137245332584,20.858821619396096
2EDAFD1D-0035-5BEA-E053-CA2BA8C0F802,2601,2601063,0273235,104563,Podgórze,część wsi,15.0,50.49534464628766,20.95620184724966
fa211330-c8dd-11e9-bfb4-b8ca3a7f05dc,2601,2601043,0259070,218992,Kaczyniec,część wsi,16.0,50.37249996552545,21.02305721702541
fa211331-c8dd-11e9-b49f-b8ca3a7f05dc,2601,2601043,0257348,218999,Podlasie,część wsi,16.0,50.40961220438993,21.078049042163304
2EDAFD1D-00AD-5BEA-E053-CA2BA8C0F802,2601,2601083,0277492,181024,Pod Bóżnicą,część miasta,55.0,50.35066018588149,20.673089748015375
fa213a40-c8dd-11e9-be7d-b8ca3a7f05dc,2601,2601043,0259057,219004,Weksler,część wsi,5.0,50.345940266875665,20.984469916104512
fa21614f-c8dd-11e9-b7f9-b8ca3a7f05dc,2601,2601033,0256277,237176,Nowa Wieś,część wsi,15.0,50.349295904919465,20.834905016272135
2EDAFD1D-00AC-5BEA-E053-CA2BA8C0F802,2601,2601083,0277115,181006,Chałupki,część wsi,10.0,50.35355544394961,20.646484934092868
2EDAFD1D-00AE-5BEA-E053-CA2BA8C0F802,2601,2601083,0277486,180995,Browary,część miasta,4.0,50.34859372685262,20.678043827529898
2EDAFD1D-0044-5BEA-E053-CA2BA8C0F802,2601,2601072,0275518,181297,Zakupniki,kolonia,8.0,50.53110738299773,21.067820272675043
2EDAFD1C-FF3E-5BEA-E053-CA2BA8C0F802,2601,2601063,0272709,154260,Za Dworem,część wsi,10.0,50.45862140607127,20.91928886838263
2EDAFD1D-0040-5BEA-E053-CA2BA8C0F802,2601,2601043,0259152,181147,Zarzecze,część wsi,20.0,50.3942393666688,20.98022904246919
fa1e540f-c8dd-11e9-aa90-b8ca3a7f05dc,2601,2601022,0238368,128674,Stara Wieś,część wsi,100.0,50.586877978983786,20.924109367031015
2EDAFD1D-00BC-5BEA-E053-CA2BA8C0F802,2601,2601063,0273123,102535,Ponik,część wsi,20.0,50.420529125095136,20.88591150026775
2EDAFD1D-002F-5BEA-E053-CA2BA8C0F802,2601,2601052,0271319,111974,Przymiarek,część wsi,55.0,50.3795571695421,20.93309284730896
2EDAFD1D-00EC-5BEA-E053-CA2BA8C0F802,2601,2601033,0256082,151032,Wójtowe Łąki,część wsi,25.0,50.31069847836208,20.85914216625531
2EDAFD1C-FF59-5BEA-E053-CA2BA8C0F802,2601,2601052,0270886,75300,Magierów,wieś,83.0,50.400287796345765,20.917545004637564
2EDAFD1C-FFC2-5BEA-E053-CA2BA8C0F802,2601,2601013,0231745,11712,Brzozowiec,część wsi,15.0,50.51002280264606,20.63499034089337
2EDAFD1D-01B1-5BEA-E053-CA2BA8C0F802,2601,2601013,0231700,199379,Dębów,część wsi,4.0,50.49039026216358,20.69287396846157
2EDAFD1D-0090-5BEA-E053-CA2BA8C0F802,2601,2601043,0257360,136150,Szumarka,kolonia,58.0,50.4176352532632,21.050023250166277
2EDAFD1D-00D1-5BEA-E053-CA2BA8C0F802,2601,2601022,0238150,180140,Dobra-Wymysłów Glinecki,część wsi,8.0,50.61813077294704,20.869764292738346
2EDAFD1D-01B2-5BEA-E053-CA2BA8C0F802,2601,2601063,0272922,181204,Nowy Mietel,część wsi,32.0,50.42399411728571,20.95992425760181
2EDAFD1C-FF7C-5BEA-E053-CA2BA8C0F802,2601,2601063,0272997,112564,Psi Dół,część wsi,38.0,50.46269499583681,20.848327751407314
2EDAFD1C-FF67-5BEA-E053-CA2BA8C0F802,2601,2601013,0232489,104803,Podkapturów,część wsi,20.0,50.44905586218979,20.793670133531258
2EDAFD1C-FFF1-5BEA-E053-CA2BA8C0F802,2601,2601013,0232532,60618,Kozina,część wsi,63.0,50.51569742941404,20.756655287193734
2EDAFD1D-00A2-5BEA-E053-CA2BA8C0F802,2601,2601043,0259212,63678,Krzywda,część wsi,15.0,50.387184543938844,21.116081030858616
2EDAFD1D-0135-5BEA-E053-CA2BA8C0F802,2601,2601063,0272543,219008,Konarska Dębina,część wsi,13.0,50.43704991106989,20.830239127022843
2EDAFD1C-FFF8-5BEA-E053-CA2BA8C0F802,2601,2601013,0232101,14987,Chałupki,część wsi,48.0,50.50936377014665,20.796558497640135
2EDAFD1C-FF97-5BEA-E053-CA2BA8C0F802,2601,2601022,0238718,17266,Ciechlów,kolonia,15.0,50.562092292466936,20.831999758577854
2EDAFD1C-FF98-5BEA-E053-CA2BA8C0F802,2601,2601013,0231828,12968,Bugaj,część wsi,127.0,50.51101119908549,20.83218828774257
2EDAFD1C-FFCD-5BEA-E053-CA2BA8C0F802,2601,2601013,0232294,81867,Młyny-Pomyków,kolonia,18.0,50.55150819441966,20.694725357411638
2EDAFD1C-FF9E-5BEA-E053-CA2BA8C0F802,2601,2601013,0231863,104194,Poddębinie,kolonia,53.0,50.51477557492599,20.85124172225163
2EDAFD1D-0134-5BEA-E053-CA2BA8C0F802,2601,2601063,0272550,181212,Plebanki,część wsi,5.0,50.43200036865118,20.820811853826914
2EDAFD1D-0180-5BEA-E053-CA2BA8C0F802,2601,2601013,0232615,200154,Tomaszówek,kolonia,18.0,50.4372398671559,20.750707080487874
2EDAFD1D-0126-5BEA-E053-CA2BA8C0F802,2601,2601043,0259130,218993,Kąty,część wsi,53.0,50.39281528749425,20.98403589552074
fa1b6de1-c8dd-11e9-aa58-b8ca3a7f05dc,2601,2601052,0270952,181185,Zakupnicy,przysiółek,22.0,50.390236993284816,20.844057086017465
2EDAFD1C-FF99-5BEA-E053-CA2BA8C0F802,2601,2601013,0232118,27242,Duże Budy,kolonia,13.0,50.52044368239888,20.834231773403225
2EDAFD1C-FF45-5BEA-E053-CA2BA8C0F802,2601,2601043,0258780,67635,Leśne Drugie,część wsi,30.0,50.344201948453744,20.979184114058732
2EDAFD1D-0142-5BEA-E053-CA2BA8C0F802,2601,2601013,0946740,180943,Niwka,część miasta,23.0,50.45673003843055,20.733202573522536
2EDAFD1D-0183-5BEA-E053-CA2BA8C0F802,2601,2601072,0275642,146868,Wierzbica,wieś,185.0,50.540433486935434,21.011300655239793
2EDAFD1D-0187-5BEA-E053-CA2BA8C0F802,2601,2601013,0232851,125040,Służów,wieś,122.0,50.5303871797497,20.806342697065134
2EDAFD1C-FF6E-5BEA-E053-CA2BA8C0F802,2601,2601033,0255929,145044,Wesoła,przysiółek,10.0,50.33848261059916,20.79709857307824
2EDAFD1C-FFDB-5BEA-E053-CA2BA8C0F802,2601,2601013,0232934,54038,Klin,część wsi,20.0,50.505176023620535,20.68426972918444
2EDAFD1C-FFDC-5BEA-E053-CA2BA8C0F802,2601,2601022,0238167,97735,Pasieka,część wsi,8.0,50.62166352358414,20.898915005735407
2EDAFD1C-FFF9-5BEA-E053-CA2BA8C0F802,2601,2601013,0232147,100332,Piekło,część wsi,68.0,50.50883811144961,20.80239983103005
2EDAFD1D-0154-5BEA-E053-CA2BA8C0F802,2601,2601013,0233112,181062,Międzygorzyce-Niwa,część wsi,15.0,50.48511866694903,20.78431469391924
2EDAFD1D-0156-5BEA-E053-CA2BA8C0F802,2601,2601013,0233299,199651,Grabie Dolne,część wsi,25.0,50.46873402428383,20.800482239959972
2EDAFD1D-0155-5BEA-E053-CA2BA8C0F802,2601,2601013,0233230,181051,Gwoździówka,część wsi,10.0,50.493319966706096,20.756872806644473
2EDAFD1D-0169-5BEA-E053-CA2BA8C0F802,2601,2601043,0258840,181445,Komora,część wsi,15.0,50.335581496188475,21.068296946459533
2EDAFD1D-0165-5BEA-E053-CA2BA8C0F802,2601,2601043,0258402,181503,Błonie,część wsi,20.0,50.32219737174815,21.05269887066535
2EDAFD1D-00A6-5BEA-E053-CA2BA8C0F802,2601,2601083,0277204,148755,Wiśniówki,przysiółek,85.0,50.38807023911531,20.685662764211752
2EDAFD1C-FF7D-5BEA-E053-CA2BA8C0F802,2601,2601013,0231981,91088,Ociesławka,część wsi,48.0,50.48834494415346,20.844864180419517
2EDAFD1C-FF53-5BEA-E053-CA2BA8C0F802,2601,2601052,0270811,109752,Półanki,część wsi,73.0,50.401149306003504,20.884120112974237
2EDAFD1C-FF28-5BEA-E053-CA2BA8C0F802,2601,2601052,0271510,168031,Sieradzka,część wsi,20.0,50.386955391953144,20.868937151152796
fa2224a1-c8dd-11e9-9ded-b8ca3a7f05dc,2601,2601052,1016345,237199,Włosnowice Trzecie,przysiółek,53.0,50.37704608153527,20.92360808190266
2EDAFD1D-009C-5BEA-E053-CA2BA8C0F802,2601,2601013,0946786,180946,Przy Cmentarzu,część miasta,40.0,50.47770288807051,20.703604199224774
2EDAFD1C-FFF5-5BEA-E053-CA2BA8C0F802,2601,2601013,0232704,180135,Zakupniki,część wsi,28.0,50.52444062359094,20.75394738237673
2EDAFD1C-FF41-5BEA-E053-CA2BA8C0F802,2601,2601052,0256194,38382,Grądy Świniarskie,kolonia,30.0,50.34080365309079,20.95186184546892
2EDAFD1C-FFC9-5BEA-E053-CA2BA8C0F802,2601,2601022,0238109,101227,Piła Gnoińska,przysiółek,10.0,50.59436132527137,20.816690231968437
2EDAFD1D-0052-5BEA-E053-CA2BA8C0F802,2601,2601013,0231627,181068,Nowa Dobrowoda,część wsi,33.0,50.403203325949,20.78188507694447
2EDAFD1D-00FF-5BEA-E053-CA2BA8C0F802,2601,2601013,0231811,43867,Janina,wieś,168.0,50.49445987889536,20.83140589948346
2EDAFD1D-01B6-5BEA-E053-CA2BA8C0F802,2601,2601072,0275441,178726,Kolonia Wierzbicka,część kolonii,10.0,50.53910979306976,20.994084460319268
2EDAFD1D-007F-5BEA-E053-CA2BA8C0F802,2601,2601083,0277345,123725,Skorocice,wieś,343.0,50.41338989761112,20.672115595593578
2EDAFD1D-01A7-5BEA-E053-CA2BA8C0F802,2601,2601072,0275412,178727,Grzymałka,kolonia,10.0,50.536912510218706,20.992760912661005
2EDAFD1D-01B5-5BEA-E053-CA2BA8C0F802,2601,2601072,0275406,105324,Podlesie,wieś,216.0,50.54276031036339,20.993431247750227
2EDAFD1D-0105-5BEA-E053-CA2BA8C0F802,2601,2601063,0272603,88374,Nowa Wieś,wieś,147.0,50.434792703154166,20.986625986706855
2EDAFD1D-01A5-5BEA-E053-CA2BA8C0F802,2601,2601043,0258589,90683,Oblekoń,wieś,515.0,50.32789473212988,21.003435806362006
2EDAFD1D-00E2-5BEA-E053-CA2BA8C0F802,2601,2601043,0259206,6776,Błonie,część wsi,15.0,50.384221861577,21.104033959837956
2EDAFD1D-0166-5BEA-E053-CA2BA8C0F802,2601,2601043,0258425,181495,Kapłanówka,część wsi,15.0,50.32804341904095,21.04498012788547
fa2224a2-c8dd-11e9-8d6f-b8ca3a7f05dc,2601,2601052,0271408,237201,Zaklicze,część wsi,2.0,50.341620689029604,20.864260791519868
2EDAFD1D-0167-5BEA-E053-CA2BA8C0F802,2601,2601043,0258916,181441,Gajówka,część wsi,5.0,50.334641122947254,21.028803779707133
2EDAFD1D-0109-5BEA-E053-CA2BA8C0F802,2601,2601043,0258282,181143,Nowa Wieś,część wsi,55.0,50.405271527823885,20.992739044080302
2EDAFD1C-FFB7-5BEA-E053-CA2BA8C0F802,2601,2601072,0275599,36380,Górna Droga,kolonia,68.0,50.52507317759572,21.0004896109184
2EDAFD1D-00BB-5BEA-E053-CA2BA8C0F802,2601,2601063,0272840,128013,Stany,część wsi,15.0,50.46251070249938,20.937892674900997
2EDAFD1D-010A-5BEA-E053-CA2BA8C0F802,2601,2601043,0258193,218988,Biechów Duży,część wsi,18.0,50.379378676698366,20.995713691718862
2EDAFD1C-FF2A-5BEA-E053-CA2BA8C0F802,2601,2601063,0272661,35718,Góra,część wsi,28.0,50.46260564043007,20.89602606717941
fa1ef051-c8dd-11e9-ba51-b8ca3a7f05dc,2601,2601013,0231946,181049,Biała,część wsi,8.0,50.49482844911261,20.862255016128238
fa21fd91-c8dd-11e9-b681-b8ca3a7f05dc,2601,2601052,0271160,237196,Świniary Zielenieckie,część wsi,2.0,50.35098660069313,20.93109084880376
fa1f1762-c8dd-11e9-a18d-b8ca3a7f05dc,2601,2601013,0233017,181070,Pęczelice Dzierżawne,część wsi,2.0,50.455557257651215,20.78822612518599
fa218861-c8dd-11e9-9005-b8ca3a7f05dc,2601,2601052,0270917,237183,Kaczmarówka,przysiółek,27.0,50.39473694874251,20.8328448435336
fa21d681-c8dd-11e9-b76f-b8ca3a7f05dc,2601,2601052,0271153,237193,Świniary Kościelne,część wsi,2.0,50.358878996631,20.945313202876754
2EDAFD1C-FF17-5BEA-E053-CA2BA8C0F802,2601,2601052,0270805,58890,Kosinów,część wsi,23.0,50.401786365742886,20.850382523264983
2EDAFD1C-FF8E-5BEA-E053-CA2BA8C0F802,2601,2601013,0232868,108940,Posada,kolonia,30.0,50.5257998999858,20.827456164972013
2EDAFD1C-FF63-5BEA-E053-CA2BA8C0F802,2601,2601013,0233170,150489,Wolica,wieś,233.0,50.432026748843114,20.71370918052557
2EDAFD1C-FFCC-5BEA-E053-CA2BA8C0F802,2601,2601022,0238457,152626,Wygoda,kolonia,8.0,50.63194008555681,20.86185767832657
2EDAFD1D-0042-5BEA-E053-CA2BA8C0F802,2601,2601052,0270900,99267,Czarny Gaj,kolonia,20.0,50.38231474916881,20.84140256388623
2EDAFD1C-FFE7-5BEA-E053-CA2BA8C0F802,2601,2601022,0238339,48332,Kaleby,część wsi,63.0,50.594415962493734,20.91819608666489
2EDAFD1D-0083-5BEA-E053-CA2BA8C0F802,2601,2601013,0232561,114222,Radzanów,wieś,330.0,50.426797110809915,20.752742656401324
2EDAFD1D-0101-5BEA-E053-CA2BA8C0F802,2601,2601013,0231930,56286,Kołaczkowice,wieś,444.0,50.498235618754805,20.86901920323316
2EDAFD1C-FF10-5BEA-E053-CA2BA8C0F802,2601,2601013,0231461,6084,Biniątki,wieś,172.0,50.446098444571284,20.6632345870966
2EDAFD1D-0037-5BEA-E053-CA2BA8C0F802,2601,2601043,0258483,61049,Kółko Żabieckie,wieś,206.0,50.34392874842909,21.095897950961383
2EDAFD1D-0038-5BEA-E053-CA2BA8C0F802,2601,2601043,0259169,151005,Wójeczka,wieś,169.0,50.401172519490714,20.957246903355493
2EDAFD1D-0039-5BEA-E053-CA2BA8C0F802,2601,2601063,0273034,133185,Suchowola,wieś,263.0,50.414530818849215,20.928649280791635
2EDAFD1D-0007-5BEA-E053-CA2BA8C0F802,2601,2601033,0256260,119683,Rzegocin,wieś,89.0,50.34416009667455,20.82827528192467
2EDAFD1D-0008-5BEA-E053-CA2BA8C0F802,2601,2601033,0256024,36533,Górnowola,wieś,238.0,50.32285287406367,20.850778832028848
2EDAFD1D-010B-5BEA-E053-CA2BA8C0F802,2601,2601043,0258224,218998,Podkulczyce,część wsi,10.0,50.380457595477786,20.99522723664678
2EDAFD1D-010C-5BEA-E053-CA2BA8C0F802,2601,2601043,0258520,181416,Błonie,część wsi,5.0,50.38544328385208,21.089832711903068
2EDAFD1D-010D-5BEA-E053-CA2BA8C0F802,2601,2601043,0258371,181450,Na Górze,część wsi,5.0,50.39118153651664,21.069319228255463
2EDAFD1D-0076-5BEA-E053-CA2BA8C0F802,2601,2601043,0258201,56524,Kołowrocie,część wsi,10.0,50.38930100069578,20.99648758086484
2EDAFD1C-FF29-5BEA-E053-CA2BA8C0F802,2601,2601052,0271182,178713,Babiniec,część wsi,10.0,50.35231836494922,20.879053895530685
2EDAFD1D-0074-5BEA-E053-CA2BA8C0F802,2601,2601063,0272879,72087,Łączki,część wsi,20.0,50.41242667514891,20.98304950217808
2EDAFD1D-0027-5BEA-E053-CA2BA8C0F802,2601,2601033,0256283,101529,Piotrówka,przysiółek,58.0,50.331314854734764,20.83056414802754
2EDAFD1C-FF13-5BEA-E053-CA2BA8C0F802,2601,2601063,0273028,159273,Zasadzie,kolonia,105.0,50.47260543445811,20.86401949763179
2EDAFD1C-FF4C-5BEA-E053-CA2BA8C0F802,2601,2601043,0259330,35606,Gołożyny,kolonia,10.0,50.34944404798292,20.962925309018512
2EDAFD1D-01B7-5BEA-E053-CA2BA8C0F802,2601,2601072,0275435,180800,Jama,kolonia,10.0,50.540089301364304,20.99791868703382
2EDAFD1D-005E-5BEA-E053-CA2BA8C0F802,2601,2601033,0256076,131337,Stojki,część wsi,40.0,50.302851101257104,20.85528582914556
2EDAFD1C-FFE8-5BEA-E053-CA2BA8C0F802,2601,2601022,0238322,84791,Góry,część wsi,8.0,50.58343148205091,20.928557240833886
2EDAFD1D-0025-5BEA-E053-CA2BA8C0F802,2601,2601013,0231538,117419,Równiny,kolonia,20.0,50.36918538311498,20.74620232760151
2EDAFD1C-FF54-5BEA-E053-CA2BA8C0F802,2601,2601052,0271450,162558,Zwierzyniec,część wsi,122.0,50.38718513974122,20.885652667798784
2EDAFD1C-FF55-5BEA-E053-CA2BA8C0F802,2601,2601052,1016300,178715,Cegielnia,część wsi,60.0,50.37009164323556,20.89671118534877
2EDAFD1C-FF56-5BEA-E053-CA2BA8C0F802,2601,2601052,1016316,44274,Janów,część wsi,48.0,50.36360658065671,20.89991313323609
2EDAFD1D-0026-5BEA-E053-CA2BA8C0F802,2601,2601033,0256120,113906,Radła,kolonia,25.0,50.33034821012223,20.90211690705193
2EDAFD1D-0160-5BEA-E053-CA2BA8C0F802,2601,2601072,0275369,219009,Czworaki,część wsi,15.0,50.50395129777462,21.072230299158377
2EDAFD1C-FFD3-5BEA-E053-CA2BA8C0F802,2601,2601013,0232420,96528,Palonki,wieś,193.0,50.53533124423237,20.854283857893577
2EDAFD1D-0062-5BEA-E053-CA2BA8C0F802,2601,2601013,0232779,123881,Skotniki Małe,wieś,193.0,50.435739359185604,20.800247078012315
2EDAFD1D-0065-5BEA-E053-CA2BA8C0F802,2601,2601013,0232970,134597,Szczaworyż,wieś,241.0,50.451926122601954,20.80862939109513
fa1fdaae-c8dd-11e9-a211-b8ca3a7f05dc,2601,2601052,0271294,181157,Nowe Włosnowice,część wsi,12.0,50.37619414345347,20.91459694080639
2EDAFD1D-0063-5BEA-E053-CA2BA8C0F802,2601,2601063,0272537,56890,Konary,wieś,116.0,50.437832018412784,20.829526975891902
2EDAFD1D-003D-5BEA-E053-CA2BA8C0F802,2601,2601013,0231521,12895,Budzyń,wieś,130.0,50.38106149721283,20.761348985351635
2EDAFD1C-FF7B-5BEA-E053-CA2BA8C0F802,2601,2601013,0233187,150519,Wolica Siesławska,kolonia,53.0,50.4297044407082,20.70221669619094
2EDAFD1D-00B2-5BEA-E053-CA2BA8C0F802,2601,2601083,0277440,181043,Zielonki,część wsi,40.0,50.33766798957956,20.714313269056536
fa1fb39f-c8dd-11e9-bd5f-b8ca3a7f05dc,2601,2601052,0271271,181150,Lasek,część wsi,7.0,50.37719323827657,20.933273257262705
fa2001c1-c8dd-11e9-83bd-b8ca3a7f05dc,2601,2601052,0271118,181168,Przedewsie,część wsi,15.0,50.42431161335719,20.83544059851574
2EDAFD1C-FFE6-5BEA-E053-CA2BA8C0F802,2601,2601022,0238606,49743,Kamionka,kolonia,5.0,50.62481343429751,20.912803657222092
2EDAFD1C-FF89-5BEA-E053-CA2BA8C0F802,2601,2601072,0275665,108639,Poręba Wierzbicka,kolonia,20.0,50.55368550065362,21.00983224075481
2EDAFD1C-FFE4-5BEA-E053-CA2BA8C0F802,2601,2601013,0232265,103207,Pod Górami,część wsi,8.0,50.50874258517395,20.72163016065869
2EDAFD1C-FFE9-5BEA-E053-CA2BA8C0F802,2601,2601022,0238345,87323,Niwa,część wsi,18.0,50.59043502566514,20.93163277686341
2EDAFD1D-0161-5BEA-E053-CA2BA8C0F802,2601,2601072,0275398,181292,Nowa Wieś,kolonia,30.0,50.509197007543754,21.086791470211132
2EDAFD1D-0162-5BEA-E053-CA2BA8C0F802,2601,2601043,0258709,178708,Zadworze,część wsi,3.0,50.32575403377899,21.0139761109839
2EDAFD1D-0043-5BEA-E053-CA2BA8C0F802,2601,2601083,0277368,181021,Nowa Wieś,przysiółek,43.0,50.430444498752856,20.67031439516523
2EDAFD1D-00DD-5BEA-E053-CA2BA8C0F802,2601,2601022,0238598,149925,Wola Bokrzycka,wieś,133.0,50.615073063303605,20.899325264697016
2EDAFD1D-0032-5BEA-E053-CA2BA8C0F802,2601,2601063,0272595,8429,Borek,przysiółek,27.0,50.409476355768646,20.95643209913369
2EDAFD1C-FF30-5BEA-E053-CA2BA8C0F802,2601,2601052,0271302,110312,Próchnica,część wsi,3.0,50.36590050499313,20.92696426665397
2EDAFD1D-0036-5BEA-E053-CA2BA8C0F802,2601,2601033,0256136,72810,Łęka,wieś,136.0,50.28428152010198,20.837051611153957
2EDAFD1D-0184-5BEA-E053-CA2BA8C0F802,2601,2601033,0256254,106587,Podzamcze,wieś,74.0,50.293907624496065,20.81830545253232
2EDAFD1D-01AB-5BEA-E053-CA2BA8C0F802,2601,2601063,0272402,45223,Jastrzębiec,wieś,153.0,50.48747843695404,20.94849228962198
2EDAFD1D-00FD-5BEA-E053-CA2BA8C0F802,2601,2601013,0233075,145763,Widuchowa,wieś,616.0,50.485203911755306,20.791476391209432
2EDAFD1D-00FE-5BEA-E053-CA2BA8C0F802,2601,2601013,0232093,59661,Kotki,wieś,380.0,50.5095345341113,20.80682680300259
2EDAFD1D-00A5-5BEA-E053-CA2BA8C0F802,2601,2601083,0277173,55192,Kobylniki-Lasek,część wsi,13.0,50.3757713997631,20.678474951614657
2EDAFD1D-0094-5BEA-E053-CA2BA8C0F802,2601,2601083,0277121,40054,Grzybsko,część wsi,3.0,50.34512391083375,20.648851358161778
2EDAFD1D-0113-5BEA-E053-CA2BA8C0F802,2601,2601072,0275257,180805,Pastwisko,kolonia,13.0,50.53591423030838,20.963892484856967
2EDAFD1D-004D-5BEA-E053-CA2BA8C0F802,2601,2601033,0256320,181093,Kiełbaski,część wsi,73.0,50.335232468426995,20.780850419691888
2EDAFD1D-01A8-5BEA-E053-CA2BA8C0F802,2601,2601072,0275464,120099,Sachalin,kolonia,58.0,50.549530366140424,20.993859171609557
2EDAFD1C-FFD8-5BEA-E053-CA2BA8C0F802,2601,2601022,0238581,37107,Grabie,przysiółek,13.0,50.57853206432686,20.90004573282602
fa2076f0-c8dd-11e9-af1d-b8ca3a7f05dc,2601,2601043,0258968,181448,Miany,część wsi,2.0,50.36880654242271,21.05805239327272
2EDAFD1D-0143-5BEA-E053-CA2BA8C0F802,2601,2601013,0232390,181059,Krzewiny,część wsi,20.0,50.45570979810247,20.755250205030528
fa2028cf-c8dd-11e9-8819-b8ca3a7f05dc,2601,2601063,0273005,181221,Skalaki,część wsi,10.0,50.459136061068186,20.84514766987602
2EDAFD1C-FF14-5BEA-E053-CA2BA8C0F802,2601,2601013,0231998,96492,Palestyna,część wsi,48.0,50.48824087854032,20.87448629049974
2EDAFD1C-FF47-5BEA-E053-CA2BA8C0F802,2601,2601043,0258796,178709,Leśne Pierwsze,część wsi,30.0,50.34855608106738,20.990208265472663
2EDAFD1D-0073-5BEA-E053-CA2BA8C0F802,2601,2601063,0272916,80065,Mietel Wojczański,przysiółek,15.0,50.41231855372735,20.977596506941108
2EDAFD1D-004F-5BEA-E053-CA2BA8C0F802,2601,2601033,0256113,181095,Pagóry,część wsi,5.0,50.33608160487589,20.88156276390201
2EDAFD1C-FF5F-5BEA-E053-CA2BA8C0F802,2601,2601013,0231923,51417,Kawczyce,wieś,163.0,50.4295234781401,20.731777510430014
2EDAFD1D-00F9-5BEA-E053-CA2BA8C0F802,2601,2601013,0231900,48875,Kameduły,wieś,178.0,50.502833729934146,20.65347951184233
2EDAFD1D-0100-5BEA-E053-CA2BA8C0F802,2601,2601063,0273175,155023,Zaborze,wieś,69.0,50.504512037562854,20.894868485895774
2EDAFD1D-0019-5BEA-E053-CA2BA8C0F802,2601,2601013,0232213,65653,Kurzejów,część wsi,110.0,50.47880389763514,20.757141737567096
2EDAFD1D-001A-5BEA-E053-CA2BA8C0F802,2601,2601013,0231403,16907,Chwalikówka,kolonia,30.0,50.418562805112984,20.805692465921855
2EDAFD1D-0050-5BEA-E053-CA2BA8C0F802,2601,2601052,0271220,181173,Stawek,część wsi,118.0,50.34435370511633,20.899842320787545
2EDAFD1D-0051-5BEA-E053-CA2BA8C0F802,2601,2601052,0270863,181149,Golgota,część wsi,10.0,50.3378302969051,20.938351296491007
2EDAFD1D-0011-5BEA-E053-CA2BA8C0F802,2601,2601043,0258862,105333,Podlesie,część wsi,65.0,50.34053323419514,21.026923149943002
2EDAFD1D-0181-5BEA-E053-CA2BA8C0F802,2601,2601022,1016291,180145,Kalenta,część wsi,8.0,50.623199711730486,20.825673540177245
2EDAFD1D-0003-5BEA-E053-CA2BA8C0F802,2601,2601083,0276920,16387,Chotel Czerwony,wieś,404.0,50.37755615968771,20.71658343494681
2EDAFD1D-0029-5BEA-E053-CA2BA8C0F802,2601,2601063,0272419,27661,Dwór,część wsi,5.0,50.48647019110265,20.956729137081627
2EDAFD1D-0031-5BEA-E053-CA2BA8C0F802,2601,2601052,0271029,150916,Woźnica Górna,część wsi,10.0,50.37450503658639,20.95526168761861
2EDAFD1C-FF66-5BEA-E053-CA2BA8C0F802,2601,2601013,0232466,77888,Markówka,część wsi,13.0,50.453124398352884,20.788757405686745
2EDAFD1C-FF37-5BEA-E053-CA2BA8C0F802,2601,2601013,0232680,123775,Skorzów,wieś,211.0,50.52685388487221,20.735592317560272
2EDAFD1D-00C4-5BEA-E053-CA2BA8C0F802,2601,2601063,0272431,53858,Klępie Dolne,wieś,265.0,50.44499317093959,21.001573056483956
2EDAFD1C-FF3B-5BEA-E053-CA2BA8C0F802,2601,2601033,0256231,99270,Piasek Wielki,wieś,419.0,50.37063751959301,20.789162255719223
2EDAFD1D-0004-5BEA-E053-CA2BA8C0F802,2601,2601083,0277049,36221,Górki,wieś,168.0,50.351867204732734,20.73686425776134
2EDAFD1C-FF46-5BEA-E053-CA2BA8C0F802,2601,2601043,0258804,178710,Leśne Trzecie,część wsi,25.0,50.34162448136528,20.985666365494858
2EDAFD1D-002D-5BEA-E053-CA2BA8C0F802,2601,2601063,0232816,84900,Kargowy,osada,5.0,50.43739954230558,20.814305137630242
2EDAFD1D-0061-5BEA-E053-CA2BA8C0F802,2601,2601013,0231389,2599,Baranów,wieś,124.0,50.40835043124068,20.810117159501054
2EDAFD1D-002C-5BEA-E053-CA2BA8C0F802,2601,2601043,0258307,37455,Grabowica,wieś,156.0,50.371314462130066,21.09767499167297
2EDAFD1D-0079-5BEA-E053-CA2BA8C0F802,2601,2601043,0258477,144342,Warszawa,przysiółek,25.0,50.35940703397023,21.137559920327533
2EDAFD1D-0120-5BEA-E053-CA2BA8C0F802,2601,2601063,0272460,181468,Klępie Włościańskie,część wsi,40.0,50.44129346653922,21.000938540881705
2EDAFD1D-011F-5BEA-E053-CA2BA8C0F802,2601,2601043,0257331,181451,Nowe Szczypie,część wsi,15.0,50.41997007026615,21.068360128156776
2EDAFD1D-0117-5BEA-E053-CA2BA8C0F802,2601,2601072,0275330,180804,Niwa,część wsi,40.0,50.517579294290286,20.92113395564477
2EDAFD1D-015F-5BEA-E053-CA2BA8C0F802,2601,2601072,0275375,181471,Gajówka,kolonia,5.0,50.49576739040189,21.06039190868388
2EDAFD1C-FFBC-5BEA-E053-CA2BA8C0F802,2601,2601022,0238523,180151,Piaski,część wsi,120.0,50.57059506648178,20.889708258882752
2EDAFD1D-0172-5BEA-E053-CA2BA8C0F802,2601,2601043,0258543,181466,Zakobyle,część wsi,3.0,50.37875261204283,21.09333676780243
2EDAFD1D-0173-5BEA-E053-CA2BA8C0F802,2601,2601043,0258365,181446,Korsaków,część wsi,10.0,50.380699590363484,21.07696916335882
2EDAFD1D-01B8-5BEA-E053-CA2BA8C0F802,2601,2601063,0272945,181224,Warszawa,część wsi,4.0,50.41915748694592,20.988991316960668
2EDAFD1C-FF72-5BEA-E053-CA2BA8C0F802,2601,2601013,0231550,172859,Chorokowa,część wsi,78.0,50.44474369435554,20.693054166793534
2EDAFD1D-008D-5BEA-E053-CA2BA8C0F802,2601,2601063,0272520,178722,Okrąglica,część wsi,13.0,50.42268886827993,21.009062765245282
2EDAFD1C-FF7A-5BEA-E053-CA2BA8C0F802,2601,2601013,0946705,180939,Kaczowa Dolna,część miasta,345.0,50.46463038397684,20.70501541443193
2EDAFD1D-0174-5BEA-E053-CA2BA8C0F802,2601,2601043,0258359,218989,Dębniak,część wsi,8.0,50.38708005656758,21.084294893327346
2EDAFD1D-001C-5BEA-E053-CA2BA8C0F802,2601,2601043,0258550,86720,Niegosławice,wieś,100.0,50.39659869943951,21.022366863568667
2EDAFD1D-0046-5BEA-E053-CA2BA8C0F802,2601,2601063,0272939,104564,Podgórze,część wsi,13.0,50.412834755209865,20.96569713122314
2EDAFD1D-0064-5BEA-E053-CA2BA8C0F802,2601,2601013,0232348,6864,Błoniec,wieś,70.0,50.45724444514753,20.81912863442726
5A9EA19D-72E1-4FCB-AF62-8A9F040B7E3D,2601,2601033,0256018,18756,Czarkowy,wieś,307.0,50.29940130213877,20.712238383545785
2EDAFD1D-0009-5BEA-E053-CA2BA8C0F802,2601,2601033,0255935,7055,Błotnowola,wieś,256.0,50.31537087823436,20.929947075593315
2EDAFD1D-0114-5BEA-E053-CA2BA8C0F802,2601,2601072,0275582,180781,Bugaj,część wsi,13.0,50.51643390610397,20.99259061667183
2EDAFD1D-0175-5BEA-E053-CA2BA8C0F802,2601,2601043,0258974,181453,Podgórze,część wsi,35.0,50.38207613091553,21.04140071675545
2EDAFD1D-0176-5BEA-E053-CA2BA8C0F802,2601,2601043,0258945,181442,Góra,część wsi,4.0,50.38443141965645,21.040913042645812
2EDAFD1D-0177-5BEA-E053-CA2BA8C0F802,2601,2601043,0258980,200160,Słupia Wielka,część wsi,3.0,50.38294041336208,21.037521285083336
2EDAFD1D-0195-5BEA-E053-CA2BA8C0F802,2601,2601052,0271147,88370,Nowe Świniary,część wsi,48.0,50.35506772213918,20.94592726679583
2EDAFD1D-00A9-5BEA-E053-CA2BA8C0F802,2601,2601063,0273241,111436,Przybynów,część wsi,50.0,50.497672840286135,20.931352813001087
2EDAFD1C-FF33-5BEA-E053-CA2BA8C0F802,2601,2601052,0271288,42421,Lisianki,część wsi,15.0,50.37102374580044,20.934368323140642
2EDAFD1D-00A8-5BEA-E053-CA2BA8C0F802,2601,2601013,0231952,4361,Biała Góra,część wsi,43.0,50.49894383226638,20.86298619013563
205b3692-1591-11e8-9885-5404a6a68038,2601,2601043,0258661,105332,Podlesie,część wsi,4.0,50.329539278735474,20.995909897741868
2EDAFD1D-004E-5BEA-E053-CA2BA8C0F802,2601,2601033,0255964,181488,Błonie,przysiółek,8.0,50.321357221533724,20.902844678627716
2EDAFD1C-FF26-5BEA-E053-CA2BA8C0F802,2601,2601052,0270840,178714,Zakamieńcze-Zastawie,część wsi,3.0,50.40877667933155,20.85275671878011
2EDAFD1D-00BD-5BEA-E053-CA2BA8C0F802,2601,2601052,0271087,43237,Jagodnica,część wsi,43.0,50.42128736332704,20.82648955406622
2EDAFD1C-FF25-5BEA-E053-CA2BA8C0F802,2601,2601063,0272767,6777,Błonie,część wsi,10.0,50.44830305639927,20.9077666831166
2EDAFD1C-FFA1-5BEA-E053-CA2BA8C0F802,2601,2601022,0238121,84894,Kaleby,kolonia,30.0,50.61440000784822,20.84898576766259
2EDAFD1D-0118-5BEA-E053-CA2BA8C0F802,2601,2601063,0272299,180769,Pod Rzędem,część wsi,3.0,50.51947022564549,20.897890435639393
2EDAFD1C-FFB0-5BEA-E053-CA2BA8C0F802,2601,2601022,0238032,12967,Bugaj,wieś,108.0,50.54959472123507,20.806021083201948
2EDAFD1C-FF0F-5BEA-E053-CA2BA8C0F802,2601,2601013,0232058,59078,Kostki Duże,wieś,287.0,50.45743903075187,20.633981192896393
2EDAFD1C-FF1B-5BEA-E053-CA2BA8C0F802,2601,2601063,0272968,132277,Strzałków,wieś,231.0,50.47033960340364,20.852212859241384
2EDAFD1D-00BF-5BEA-E053-CA2BA8C0F802,2601,2601033,0256171,6789,Błonie,przysiółek,105.0,50.33081328779859,20.950227135294398
205b3693-1591-11e8-8dcd-5404a6a68038,2601,2601043,0258610,140926,Isep,część wsi,4.0,50.32270581577408,20.98154366866781
2EDAFD1C-FFDE-5BEA-E053-CA2BA8C0F802,2601,2601022,0238351,104634,Podgrabie,część wsi,35.0,50.586324634592046,20.90236700815103
2EDAFD1C-FF7F-5BEA-E053-CA2BA8C0F802,2601,2601063,0272974,55357,Koci Zamek,część wsi,20.0,50.46580802816077,20.838422703954173
2EDAFD1D-009F-5BEA-E053-CA2BA8C0F802,2601,2601043,0259258,159078,Za Wodą,część wsi,68.0,50.40516026902397,21.08926377949193
2EDAFD1C-FF73-5BEA-E053-CA2BA8C0F802,2601,2601013,0232271,105325,Pod Lasem,część wsi,58.0,50.48445680588037,20.699851393759303
2EDAFD1C-FFA2-5BEA-E053-CA2BA8C0F802,2601,2601022,0238010,79439,Michałówka,część wsi,15.0,50.539149471134735,20.8440315588135
2EDAFD1C-FF5C-5BEA-E053-CA2BA8C0F802,2601,2601043,0259324,163978,Zołcza-Ugory,wieś,95.0,50.366990184525065,20.958349282150703
2EDAFD1D-00AA-5BEA-E053-CA2BA8C0F802,2601,2601063,0272833,99126,Piachy,część wsi,30.0,50.471571169800576,20.93320031651418
2EDAFD1C-FFB3-5BEA-E053-CA2BA8C0F802,2601,2601022,0238405,180136,Błonie,część wsi,10.0,50.562509834468614,20.86805177727345
2EDAFD1C-FF6F-5BEA-E053-CA2BA8C0F802,2601,2601052,0271377,81554,Młynek,część wsi,25.0,50.36793078282475,20.816963208389033
2EDAFD1C-FF5D-5BEA-E053-CA2BA8C0F802,2601,2601013,0231640,154171,Wzory,część wsi,15.0,50.402523261261706,20.758336842396155
fa204fde-c8dd-11e9-af46-b8ca3a7f05dc,2601,2601043,0258827,181419,Błonie,część wsi,2.0,50.36523466275322,21.056076825551912
fa204fdf-c8dd-11e9-a81e-b8ca3a7f05dc,2601,2601043,0259301,181461,Za Trzosem,część wsi,5.0,50.36351280958303,21.057190052897454
fa209e00-c8dd-11e9-bdd5-b8ca3a7f05dc,2601,2601033,0255970,181485,Łąki,kolonia,8.0,50.3210718481861,20.915137690140455
2EDAFD1C-FF0A-5BEA-E053-CA2BA8C0F802,2601,2601013,0233402,163754,Żerniki-Grójec,część wsi,15.0,50.463439214397056,20.782398463727517
2EDAFD1D-000D-5BEA-E053-CA2BA8C0F802,2601,2601063,0273040,134655,Szczeglin,wieś,122.0,50.41576336623388,20.997092626036565
2EDAFD1D-00D9-5BEA-E053-CA2BA8C0F802,2601,2601083,0277339,122127,Sielec Szpitalny,część wsi,18.0,50.37238621430856,20.66037014788949
2EDAFD1C-FF8F-5BEA-E053-CA2BA8C0F802,2601,2601022,0238256,180146,Koło Dworu,część wsi,68.0,50.57457855814218,20.834653181403716
2EDAFD1D-006F-5BEA-E053-CA2BA8C0F802,2601,2601083,0277380,200163,Folwark,część wsi,38.0,50.40662121739881,20.649715113266794
2EDAFD1D-00C3-5BEA-E053-CA2BA8C0F802,2601,2601063,0272365,28927,Dziesławice,wieś,186.0,50.4734308360082,20.96934996441862
2EDAFD1D-01AA-5BEA-E053-CA2BA8C0F802,2601,2601013,0232182,125581,Smug,część wsi,50.0,50.4941465115799,20.655640207529807
2EDAFD1D-00CD-5BEA-E053-CA2BA8C0F802,2601,2601083,0277055,36304,Nowa Wieś,część wsi,58.0,50.359951843132926,20.74634652475281
2EDAFD1C-FFC0-5BEA-E053-CA2BA8C0F802,2601,2601072,0275636,158851,Zapusty,przysiółek,35.0,50.52077380532123,21.005733178824087
2EDAFD1C-FFDD-5BEA-E053-CA2BA8C0F802,2601,2601022,0238641,180137,Czechowizna,część wsi,35.0,50.59242960031553,20.901625868286455
2EDAFD1C-FFDA-5BEA-E053-CA2BA8C0F802,2601,2601013,0231780,180051,Krzywie,część wsi,13.0,50.517969607800175,20.663774525715528
2EDAFD1C-FF52-5BEA-E053-CA2BA8C0F802,2601,2601052,0271213,57704,Kopanina,część wsi,15.0,50.34466965293581,20.875952121557894
2EDAFD1D-00A3-5BEA-E053-CA2BA8C0F802,2601,2601083,0277322,122126,Sielec Rządowy,część wsi,43.0,50.36323984574627,20.66694526233111
2EDAFD1D-0133-5BEA-E053-CA2BA8C0F802,2601,2601052,0271070,181148,Błonie,część wsi,15.0,50.42424449942154,20.83981928306643
2EDAFD1C-FF69-5BEA-E053-CA2BA8C0F802,2601,2601013,0232986,50251,Kapturów,kolonia,10.0,50.443876910968285,20.800629205153882
2EDAFD1D-005F-5BEA-E053-CA2BA8C0F802,2601,2601063,0273100,140023,Topola,wieś,178.0,50.42874200045729,20.881997408338876
2EDAFD1C-FF20-5BEA-E053-CA2BA8C0F802,2601,2601063,0272632,105083,Podlasek,wieś,104.0,50.43926872619148,20.894113850045876
2EDAFD1D-0028-5BEA-E053-CA2BA8C0F802,2601,2601043,0258253,6154,Biskupice,wieś,87.0,50.400715711005844,21.112936875962447
2EDAFD1D-00C7-5BEA-E053-CA2BA8C0F802,2601,2601083,0277457,135061,Szczytniki,wieś,251.0,50.323718483900045,20.7139871721777
2EDAFD1D-0066-5BEA-E053-CA2BA8C0F802,2601,2601052,0271414,160362,Zborów,wieś,663.0,50.390660648491135,20.898567036897287
2EDAFD1C-FF93-5BEA-E053-CA2BA8C0F802,2601,2601072,0275211,35715,Góra,wieś,248.0,50.51561834657301,21.013561829243248
2EDAFD1C-FFD5-5BEA-E053-CA2BA8C0F802,2601,2601022,0238492,10888,Brzeście,przysiółek,13.0,50.564762654912926,20.894129061871944
2EDAFD1C-FF94-5BEA-E053-CA2BA8C0F802,2601,2601022,0238434,102596,Płośnia,wieś,49.0,50.63325558644746,20.894321866509223
2EDAFD1D-0141-5BEA-E053-CA2BA8C0F802,2601,2601013,0946711,180940,Kotery,część miasta,10.0,50.454182296734885,20.731812434300963
2EDAFD1D-0115-5BEA-E053-CA2BA8C0F802,2601,2601072,0275145,180806,Pode Dworem,część wsi,60.0,50.53147416810178,20.922678860043725
2EDAFD1D-0053-5BEA-E053-CA2BA8C0F802,2601,2601013,0231410,181086,Wąsosz,kolonia,30.0,50.4110338184786,20.79165227318858
2EDAFD1C-FF27-5BEA-E053-CA2BA8C0F802,2601,2601052,0271495,77729,Marianów,część wsi,5.0,50.38860450946774,20.85755562716265
fa1f3e70-c8dd-11e9-9196-b8ca3a7f05dc,2601,2601013,0232992,200152,Kliny-Smogorzów,część wsi,12.0,50.44607690144271,20.819777999316656
fa1f6580-c8dd-11e9-95c7-b8ca3a7f05dc,2601,2601013,0233023,181081,Podlas,część wsi,20.0,50.44432359446038,20.813837387663256
2EDAFD1D-0054-5BEA-E053-CA2BA8C0F802,2601,2601052,0271354,181166,Podymacz,część wsi,5.0,50.36369284872846,20.82647216331292
2EDAFD1D-0055-5BEA-E053-CA2BA8C0F802,2601,2601052,0270870,181487,W Polu,część wsi,10.0,50.333334104246546,20.944456432441587
2EDAFD1D-003F-5BEA-E053-CA2BA8C0F802,2601,2601052,0270969,100829,Piestrzec,wieś,572.0,50.385638953468664,20.946772477935287
2EDAFD1C-FF4F-5BEA-E053-CA2BA8C0F802,2601,2601052,0271383,156014,Zagórzany,wieś,74.0,50.346491189753,20.856715645884904
2EDAFD1C-FF5A-5BEA-E053-CA2BA8C0F802,2601,2601052,0271466,161438,Zielonki,wieś,140.0,50.3487057249957,20.923621601893075
2EDAFD1D-0016-5BEA-E053-CA2BA8C0F802,2601,2601043,0259063,149912,Wola Biechowska,wieś,120.0,50.36933067906656,21.01337036432815
2EDAFD1D-01AD-5BEA-E053-CA2BA8C0F802,2601,2601083,0276995,33224,Gluzy,wieś,143.0,50.40201770297273,20.717007271234152
2EDAFD1D-00E7-5BEA-E053-CA2BA8C0F802,2601,2601072,0275352,87637,Niziny,wieś,612.0,50.49830004718701,21.07710476797422
2EDAFD1D-01BB-5BEA-E053-CA2BA8C0F802,2601,2601052,0270797,53323,Kików,wieś,400.0,50.4056732947502,20.868387866917235
2EDAFD1D-0193-5BEA-E053-CA2BA8C0F802,2601,2601063,0272951,131528,Stopnica,miasto,1113.0,50.433971709861275,20.939906436036484
098ad0a1-557d-11ef-9d33-b8ca3aa2e5c2,2602,2602023,0240299,64166,Książe-Skroniów,wieś,340.0,50.641332072315336,20.250578971967126
2EDAFD1C-FFED-5BEA-E053-CA2BA8C0F802,2601,2601013,0232319,180054,Psia Górka,część wsi,43.0,50.5488225517588,20.72269509425652
2EDAFD1C-FFEE-5BEA-E053-CA2BA8C0F802,2601,2601013,0231685,152651,Wygoda Kozińska,część wsi,3.0,50.519367443638416,20.72814116473023
099557f0-557d-11ef-8087-b8ca3aa2e5c2,2602,2602063,0993372,3468,Bąkowiec,część miasta,,50.57012119356838,20.04954666243329
098a8280-557d-11ef-92ba-b8ca3aa2e5c2,2602,2602093,0279150,79911,Mieronice,wieś,256.0,50.52505182517526,20.156584609956624
098a8282-557d-11ef-8926-b8ca3aa2e5c2,2602,2602093,0279203,79935,Mierzawa,wieś,158.0,50.57391430846918,20.229064681423953
098aa98f-557d-11ef-aa64-b8ca3aa2e5c2,2602,2602063,0267105,64627,Kucaków,kolonia,,50.603171058326815,20.0907817909571
098aa991-557d-11ef-8615-b8ca3aa2e5c2,2602,2602093,0279255,86138,Nawarzyce,wieś,322.0,50.501829792917064,20.28645609524418
098d68b1-557d-11ef-b77a-b8ca3aa2e5c2,2602,2602023,0240891,181812,Stara Wieś,część wsi,,50.65531895023867,20.249375297808246
098d1a91-557d-11ef-a3d2-b8ca3aa2e5c2,2602,2602093,0278830,11152,Brzezinki,wieś,115.0,50.4832064552891,20.275031461418596
098d41a1-557d-11ef-8e93-b8ca3aa2e5c2,2602,2602033,0249691,181850,Stara Wieś,część wsi,,50.79285228909974,20.208482363187784
098d41a3-557d-11ef-9319-b8ca3aa2e5c2,2602,2602042,0255177,181871,Stara Wieś,część wsi,,50.665668061828576,20.166977625741637
098d8fc0-557d-11ef-9ae5-b8ca3aa2e5c2,2602,2602033,0249030,25500,Dołki,przysiółek,,50.80839649138467,20.296744528205853
098d8fc2-557d-11ef-9055-b8ca3aa2e5c2,2602,2602033,0249283,163005,Żabiniec,przysiółek,,50.73731653974909,20.286192968534003
0980e58f-557d-11ef-af61-b8ca3aa2e5c2,2602,2602023,0240738,155143,Zabrzezinie,kolonia,,50.60420136603011,20.198869638308903
0980976e-557d-11ef-a52c-b8ca3aa2e5c2,2602,2602052,0256969,151562,Wrona,część wsi,,50.77764842135654,20.155338931686405
09809770-557d-11ef-844c-b8ca3aa2e5c2,2602,2602063,0267022,68527,Lipie,część wsi,,50.535071448984375,20.027017017595064
0980be80-557d-11ef-b524-b8ca3aa2e5c2,2602,2602042,0255131,160508,Zdanowice,wieś,218.0,50.66793332910657,20.165570014567503
098440f0-557d-11ef-b7ba-b8ca3aa2e5c2,2602,2602023,0240974,57764,Kopaniny,część wsi,,50.63342555691148,20.36675458798611
0983f2d1-557d-11ef-b5b1-b8ca3aa2e5c2,2602,2602072,0269050,114904,Rawka,wieś,116.0,50.61855494233381,19.957669026297037
098419de-557d-11ef-a843-b8ca3aa2e5c2,2602,2602023,0240939,181766,Ośrodek,osada,,50.67113541708328,20.2896859645282
098419e0-557d-11ef-8e98-b8ca3aa2e5c2,2602,2602093,1016635,99667,Piaski Wodzisławskie,część miasta,,50.50847217523246,20.205512846562712
09846800-557d-11ef-a6f8-b8ca3aa2e5c2,2602,2602082,0270188,153728,Wyspa,osada,,50.75086578414792,20.328261408942204
09846802-557d-11ef-89a0-b8ca3aa2e5c2,2602,2602063,0267016,181932,Laskowa,osada,,50.519518458140325,20.03681859393533
098e2c00-557d-11ef-8c1d-b8ca3aa2e5c2,2602,2602063,0267358,149484,Wojciechowice,wieś,77.0,50.598231525971904,20.159989855167485
098db6cf-557d-11ef-aba6-b8ca3aa2e5c2,2602,2602042,0254812,85705,Nagłowice,wieś,723.0,50.66173396663911,20.122509714575553
098ddde1-557d-11ef-9094-b8ca3aa2e5c2,2602,2602042,0254812,85705,Nagłowice,wieś,723.0,50.689932189001034,20.117125122941406
098ddde3-557d-11ef-a3fe-b8ca3aa2e5c2,2602,2602093,0278971,128706,Stara Wieś,część wsi,,50.526806213563134,20.306420270961365
098e2c02-557d-11ef-ae74-b8ca3aa2e5c2,2602,2602093,0279723,154441,Za Lasem,osada,,50.579251189177405,20.25545504679252
098e5311-557d-11ef-a4cc-b8ca3aa2e5c2,2602,2602023,0240483,117999,Rudki,przysiółek,,50.71595052385297,20.32323275239123
098e5313-557d-11ef-97ca-b8ca3aa2e5c2,2602,2602023,0240141,30341,Folwark,przysiółek,,50.65010800075886,20.43660190108465
098133b0-557d-11ef-b770-b8ca3aa2e5c2,2602,2602023,0240810,181816,Za Przegoną,część wsi,,50.67070552438822,20.226651562688463
0991ae6e-557d-11ef-a23d-b8ca3aa2e5c2,2602,2602072,0268837,88378,Nowa Wieś,wieś,224.0,50.5910006874028,20.00204268712235
0991ae70-557d-11ef-afcd-b8ca3aa2e5c2,2602,2602093,0279491,26355,Dropiówka,kolonia,,50.46523858519587,20.29305471555005
0991d580-557d-11ef-a54d-b8ca3aa2e5c2,2602,2602072,0268932,182178,Podlesie,część wsi,,50.586066085122965,19.853413601385007
09810c9e-557d-11ef-99eb-b8ca3aa2e5c2,2602,2602023,0239994,154866,Zabłocie,kolonia,,50.59873873317918,20.224389956224474
09810ca0-557d-11ef-b694-b8ca3aa2e5c2,2602,2602063,0267111,77731,Marianów,wieś,76.0,50.58142965377203,20.032297695276018
098133b2-557d-11ef-a2af-b8ca3aa2e5c2,2602,2602072,0268955,182235,Węgrzynówka,część wsi,,50.56880491521649,19.880111600050764
0984b620-557d-11ef-a4fe-b8ca3aa2e5c2,2602,2602023,0240260,44960,Jasionna,wieś,407.0,50.62062112647338,20.397416755049658
09848f0f-557d-11ef-8122-b8ca3aa2e5c2,2602,2602012,0239416,66013,Kwasków,kolonia,,50.53337204124163,20.451232787803853
09848f11-557d-11ef-b303-b8ca3aa2e5c2,2602,2602033,0249515,150315,Wola Tesserowa,wieś,433.0,50.77279190418294,20.284853144712194
0984b61e-557d-11ef-9d14-b8ca3aa2e5c2,2602,2602063,0267401,181920,Czostków,część wsi,,50.54406048497829,20.13864339804074
0984dd30-557d-11ef-b2c3-b8ca3aa2e5c2,2602,2602093,0279730,159193,Zarzecze,wieś,122.0,50.525519488317606,20.257409372924716
0984dd32-557d-11ef-a1da-b8ca3aa2e5c2,2602,2602042,0254960,181860,Okupniki,część wsi,,50.68811380973655,20.078941985457476
098ea132-557d-11ef-8c6a-b8ca3aa2e5c2,2602,2602012,0239853,130828,Stawy,wieś,340.0,50.58306283980754,20.484231140251836
098e7a21-557d-11ef-851a-b8ca3aa2e5c2,2602,2602082,0270372,156113,Zagórze,kolonia,,50.64301823191244,20.52301091705042
098e7a23-557d-11ef-98ab-b8ca3aa2e5c2,2602,2602012,0239706,181691,Jawór Stawski,kolonia,,50.59315770882869,20.47923291867758
098ea130-557d-11ef-b2cd-b8ca3aa2e5c2,2602,2602072,0268866,182191,Stara Wieś,część wsi,,50.58855189074522,19.99647614911169
098ec840-557d-11ef-8707-b8ca3aa2e5c2,2602,2602063,0267269,23151,Dębina,przysiółek,,50.53876965528428,19.9261068145157
098ec842-557d-11ef-bf1e-b8ca3aa2e5c2,2602,2602082,0270403,14886,Chabasów,część wsi,,50.727617994321115,20.364025906061404
098eef4f-557d-11ef-a1cf-b8ca3aa2e5c2,2602,2602072,0269311,182186,Sachalin,część wsi,,50.60643924181181,19.950722153802857
09924ab0-557d-11ef-ad82-b8ca3aa2e5c2,2602,2602023,0240862,124039,Skroniów,wieś,1005.0,50.62510696007266,20.253206627784497
0991fc8f-557d-11ef-a9d7-b8ca3aa2e5c2,2602,2602033,0249314,181849,Słupek,osada,,50.81260246192433,20.2057577465802
0992239e-557d-11ef-9ac6-b8ca3aa2e5c2,2602,2602023,0240106,157789,Załącze,część wsi,,50.67984900196308,20.248557956009357
099223a0-557d-11ef-9f28-b8ca3aa2e5c2,2602,2602082,0270521,65636,Kurzaków,przysiółek,,50.73382236049388,20.349116500446996
09924ab2-557d-11ef-90c7-b8ca3aa2e5c2,2602,2602023,0240997,143974,Wanat,część wsi,,50.636015537168696,20.441776625817766
098181d1-557d-11ef-bd02-b8ca3aa2e5c2,2602,2602052,0256917,157205,Zakrzów,wieś,233.0,50.76759225427415,20.13478650866462
09815ac0-557d-11ef-a965-b8ca3aa2e5c2,2602,2602012,0239505,151945,Wrzosy,przysiółek,,50.572051254440616,20.375430953189866
09815ac2-557d-11ef-8415-b8ca3aa2e5c2,2602,2602042,0254692,181854,Cierno Plebańskie,część wsi,,50.676317819170116,20.19362848254599
098181cf-557d-11ef-a2fe-b8ca3aa2e5c2,2602,2602023,0240023,10717,Brynica Sucha,wieś,198.0,50.62870596484143,20.212452139891568
0981a8df-557d-11ef-94f7-b8ca3aa2e5c2,2602,2602052,0256975,157525,Zalesie,wieś,173.0,50.780889470063066,20.13431738879971
0981cff0-557d-11ef-8f2e-b8ca3aa2e5c2,2602,2602063,0267306,159192,Zarzecze,kolonia,,50.59149285772353,20.190843418178627
0981cff2-557d-11ef-aad4-b8ca3aa2e5c2,2602,2602012,0239787,181727,Zapusty,kolonia,,50.55603411770515,20.347653190615848
0981f700-557d-11ef-8f3b-b8ca3aa2e5c2,2602,2602012,0239681,79974,Mierzwin,wieś,157.0,50.563821466422844,20.40453815669616
09821e0f-557d-11ef-9f81-b8ca3aa2e5c2,2602,2602033,0249107,60779,Kozłów,wieś,815.0,50.82682551340482,20.151753328577605
09821e11-557d-11ef-8aeb-b8ca3aa2e5c2,2602,2602093,0279189,182315,Wikle,część wsi,,50.52113351187048,20.15581642592929
09824521-557d-11ef-a831-b8ca3aa2e5c2,2602,2602052,0256805,181874,Błonie,część wsi,,50.74851077694977,20.154186118707923
09855261-557d-11ef-98cc-b8ca3aa2e5c2,2602,2602093,1016718,182323,Zarzecze,część wsi,,50.48049163925005,20.338406525293173
09850440-557d-11ef-ad2b-b8ca3aa2e5c2,2602,2602072,0269067,117229,Rożnica,wieś,496.0,50.60999702542008,20.020373134445173
09852b4f-557d-11ef-92f0-b8ca3aa2e5c2,2602,2602052,0256691,119863,Rzeszówek,wieś,162.0,50.73686537994958,20.07301589828298
09852b51-557d-11ef-8436-b8ca3aa2e5c2,2602,2602093,0279309,77732,Marianów,kolonia,,50.52477336803862,20.335167010038976
09855263-557d-11ef-bd22-b8ca3aa2e5c2,2602,2602023,0240709,181747,Las,kolonia,,50.60945040920361,20.22436013638723
098f3d6e-557d-11ef-b3e1-b8ca3aa2e5c2,2602,2602023,0240655,109329,Potok Wielki,wieś,443.0,50.61055468271278,20.222505780825486
098eef51-557d-11ef-9245-b8ca3aa2e5c2,2602,2602052,0256550,128449,Stara Warszawa,część wsi,,50.71933128834229,20.11902200631394
098f165e-557d-11ef-ac61-b8ca3aa2e5c2,2602,2602042,0254982,136989,Ślęcin,wieś,363.0,50.665446719784306,20.07742764287766
098f1660-557d-11ef-934c-b8ca3aa2e5c2,2602,2602093,0279640,137645,Świątniki,wieś,88.0,50.504942197100185,20.187268815735447
098f6480-557d-11ef-8a75-b8ca3aa2e5c2,2602,2602072,0268910,90632,Obiechów,wieś,218.0,50.57706229418109,19.865343920577352
098f6482-557d-11ef-b965-b8ca3aa2e5c2,2602,2602042,0254924,181870,Resztówka,część wsi,,50.64979242626374,20.100305348670176
