LOKALNYID,TERYT,IDTERC,IDSIMC,IDPRNG,NAZWA,RODZAJ,LICZ_MIESZ,lat,lon
272D6AAF-3019-9B0E-E053-CC2BA8C0B5EA,0201,0201022,0189345,88074,Nowa Oleszna,część wsi,14.0,51.42103713590487,15.598226671701692
272D6AAF-2FCA-9B0E-E053-CC2BA8C0B5EA,0201,0201032,0364133,9213,Borówki,wieś,207.0,51.38783064917857,15.686531042324445
272D6AAF-2FC2-9B0E-E053-CC2BA8C0B5EA,0201,0201022,0189055,60768,Kozłów,wieś,37.0,51.44163692330497,15.626282869856977
272D6AAF-3009-9B0E-E053-CC2BA8C0B5EA,0201,0201022,0188995,22123,Dąbrowa Bolesławiecka,wieś,335.0,51.326856162825095,15.580146777209471
272D6AAF-300A-9B0E-E053-CC2BA8C0B5EA,0201,0201062,1004023,187054,Lubkówek,część wsi,7.0,51.25816573124336,15.740456250544364
272D6AAF-2FCB-9B0E-E053-CC2BA8C0B5EA,0201,0201062,0368131,144429,Wartowice,wieś,303.0,51.21797924177914,15.644323527723595
272D6AAF-2FC8-9B0E-E053-CC2BA8C0B5EA,0201,0201022,0189291,129031,Stare Jaroszowice,wieś,291.0,51.210054302654136,15.614377536511519
272D6AAF-300B-9B0E-E053-CC2BA8C0B5EA,0201,0201032,1003992,60373,Przedwsie,część wsi,129.0,51.355317099759795,15.76847125753366
272D6AAF-300C-9B0E-E053-CC2BA8C0B5EA,0201,0201022,0189109,61550,Gozdów,część wsi,51.0,51.27949589739585,15.643564703190334
272D6AAF-300D-9B0E-E053-CC2BA8C0B5EA,0201,0201052,0191840,70440,Luboszów,osiedle,2.0,51.426820604171986,15.392855985807829
272D6AAF-2FC9-9B0E-E053-CC2BA8C0B5EA,0201,0201022,0189351,163667,Żeliszów,wieś,482.0,51.19261797370852,15.635556123872627
272D6AAF-300E-9B0E-E053-CC2BA8C0B5EA,0201,0201052,1063586,77196,Kluków,część wsi,25.0,51.30689921030869,15.400185412250996
272D6AAF-2FC3-9B0E-E053-CC2BA8C0B5EA,0201,0201022,0189279,128300,Stara Oleszna,wieś,184.0,51.41705293560212,15.620267281957824
272D6AAF-2FC4-9B0E-E053-CC2BA8C0B5EA,0201,0201022,0189167,68468,Lipiany,wieś,150.0,51.344029164530426,15.635273761979459
272D6AAF-2FCC-9B0E-E053-CC2BA8C0B5EA,0201,0201062,0368125,144420,Warta Bolesławiecka,wieś,1002.0,51.2327613695404,15.662661015668462
272D6AAF-2FCD-9B0E-E053-CC2BA8C0B5EA,0201,0201062,0368088,113674,Raciborowice Dolne,wieś,638.0,51.201011776008954,15.695226307146651
272D6AAF-301D-9B0E-E053-CC2BA8C0B5EA,0201,0201011,1061713,200938,Lelów,część miasta,45.0,51.24893428267873,15.560932393927263
272D6AAF-3023-9B0E-E053-CC2BA8C0B5EA,0201,0201062,0368102,135049,Szczytnica,wieś,1119.0,51.28302920019024,15.721350752568044
272D6AAF-301C-9B0E-E053-CC2BA8C0B5EA,0201,0201043,0191595,154816,Zabłocie,wieś,294.0,51.2193540631749,15.446342278822463
272D6AAF-301A-9B0E-E053-CC2BA8C0B5EA,0201,0201052,0191780,93986,Osiecznica,wieś,1268.0,51.329150335271,15.388877875456323
272D6AAF-2FCE-9B0E-E053-CC2BA8C0B5EA,0201,0201032,0364156,64013,Krzyżowa,wieś,545.0,51.326144162297005,15.669401907080744
272D6AAF-301B-9B0E-E053-CC2BA8C0B5EA,0201,0201022,0189240,95814,Otok,wieś,533.0,51.231405035637074,15.52567421194498
272D6AAF-2FCF-9B0E-E053-CC2BA8C0B5EA,0201,0201032,0364222,117583,Różyniec,wieś,387.0,51.322457264143985,15.71057087540772
272D6AAF-2FD0-9B0E-E053-CC2BA8C0B5EA,0201,0201032,0364191,94561,Osła,wieś,527.0,51.31674775289804,15.756547907550685
272D6AAF-301E-9B0E-E053-CC2BA8C0B5EA,0201,0201011,0935989,7973,Bolesławiec,miasto,34792.0,51.26070007587547,15.561097198161747
272D6AAF-301F-9B0E-E053-CC2BA8C0B5EA,0201,0201062,1063623,139861,Polanka,część wsi,32.0,51.279606885864254,15.698696004105482
272D6AAF-3020-9B0E-E053-CC2BA8C0B5EA,0201,0201043,1063540,154878,Smogórsko,część wsi,8.0,51.2208908913301,15.45603816242323
272D6AAF-2FD9-9B0E-E053-CC2BA8C0B5EA,0201,0201022,0188989,16378,Chościszowice,wieś,74.0,51.28444785216633,15.590477417325511
272D6AAF-2FD3-9B0E-E053-CC2BA8C0B5EA,0201,0201022,0188950,9614,Bożejowice,wieś,522.0,51.24304203316605,15.549408588145958
272D6AAF-3022-9B0E-E053-CC2BA8C0B5EA,0201,0201032,0364185,88034,Nowa Kuźnia,wieś,333.0,51.38938757431829,15.819378295791724
272D6AAF-3021-9B0E-E053-CC2BA8C0B5EA,0201,0201032,0364200,97887,Pasternik,wieś,130.0,51.4667253902464,15.746923019315052
272D6AAF-2FDB-9B0E-E053-CC2BA8C0B5EA,0201,0201032,0364239,146981,Wierzbowa,wieś,430.0,51.40791512662471,15.740101069459097
272D6AAF-2FEC-9B0E-E053-CC2BA8C0B5EA,0201,0201052,0191767,71572,Ławszowa,wieś,646.0,51.412807367421976,15.458139933585134
272D6AAF-2FE1-9B0E-E053-CC2BA8C0B5EA,0201,0201022,0189339,140965,Trzebień Mały,wieś,80.0,51.40621285818321,15.563015336037168
272D6AAF-2FE2-9B0E-E053-CC2BA8C0B5EA,0201,0201022,0189256,97368,Parkoszów,wieś,118.0,51.377047628953584,15.558514201752015
272D6AAF-2FE0-9B0E-E053-CC2BA8C0B5EA,0201,0201022,0189173,71658,Łaziska,wieś,1019.0,51.23870539303303,15.609495385132513
272D6AAF-2FEA-9B0E-E053-CC2BA8C0B5EA,0201,0201043,0191550,88194,Nowa Wieś,wieś,456.0,51.2686198245044,15.40021975374929
272D6AAF-2FEB-9B0E-E053-CC2BA8C0B5EA,0201,0201043,0191566,5735,Bieniec,kolonia,113.0,51.27676683006101,15.395051634074395
272D6AAF-2FF0-9B0E-E053-CC2BA8C0B5EA,0201,0201062,1004030,187055,Tomaszów Dolny,część wsi,464.0,51.27107813833091,15.681442707440016
272D6AAF-3028-9B0E-E053-CC2BA8C0B5EA,0201,0201022,0189300,133813,Suszki,wieś,260.0,51.197060438025154,15.580239878338292
272D6AAF-2FE3-9B0E-E053-CC2BA8C0B5EA,0201,0201022,0189032,34554,Golnice,wieś,193.0,51.352588736519294,15.579383369939396
272D6AAF-302A-9B0E-E053-CC2BA8C0B5EA,0201,0201022,0189204,87855,Nowa,wieś,193.0,51.19423395580607,15.521465783324057
272D6AAF-302B-9B0E-E053-CC2BA8C0B5EA,0201,0201043,0936279,93103,Ołdrzychów,część miasta,639.0,51.193887781128275,15.376619945619714
272D6AAF-3029-9B0E-E053-CC2BA8C0B5EA,0201,0201022,0189078,61514,Kraszowice,wieś,294.0,51.209959515418845,15.535735199171944
272D6AAF-2FD7-9B0E-E053-CC2BA8C0B5EA,0201,0201011,1061707,7967,Bolesławice,część miasta,107.0,51.251389508318674,15.50785671056884
272D6AAF-2FEE-9B0E-E053-CC2BA8C0B5EA,0201,0201052,0191856,139917,Tomisław,wieś,691.0,51.288698239068054,15.367875525995615
272D6AAF-2FF1-9B0E-E053-CC2BA8C0B5EA,0201,0201052,1063617,201194,Wesoła,część wsi,125.0,51.38974352477615,15.41274186090845
272D6AAF-2FF2-9B0E-E053-CC2BA8C0B5EA,0201,0201052,1063592,201196,Pokłady,część wsi,41.0,51.33230905017162,15.420158413732317
272D6AAF-2FED-9B0E-E053-CC2BA8C0B5EA,0201,0201052,0191796,93993,Osieczów,wieś,350.0,51.30165546341021,15.470787692230761
272D6AAF-2FEF-9B0E-E053-CC2BA8C0B5EA,0201,0201022,0188966,11468,Brzeźnik,wieś,912.0,51.2477703636032,15.471385339203907
272D6AAF-2FFE-9B0E-E053-CC2BA8C0B5EA,0201,0201032,0364140,39013,Gromadka,wieś,1909.0,51.35669178733623,15.755201286444857
272D6AAF-2FFF-9B0E-E053-CC2BA8C0B5EA,0201,0201022,0189121,61931,Krępnica,wieś,254.0,51.32572215208731,15.544019070528078
272D6AAF-2FF6-9B0E-E053-CC2BA8C0B5EA,0201,0201043,0191537,53187,Kierżno,wieś,269.0,51.26380651946186,15.43936759819083
272D6AAF-2FF8-9B0E-E053-CC2BA8C0B5EA,0201,0201043,0191572,97645,Parzyce,wieś,703.0,51.23126210842687,15.4184995385563
272D6AAF-2FE4-9B0E-E053-CC2BA8C0B5EA,0201,0201022,0189049,76647,Laskowice,część wsi,22.0,51.35129976507193,15.551265163704565
272D6AAF-2FD8-9B0E-E053-CC2BA8C0B5EA,0201,0201022,0189180,72181,Łąka,wieś,242.0,51.29954305359557,15.576022136030817
272D6AAF-2FF7-9B0E-E053-CC2BA8C0B5EA,0201,0201043,0191543,80640,Milików,wieś,1306.0,51.18457562190714,15.418832371463695
272D6AAF-2FFC-9B0E-E053-CC2BA8C0B5EA,0201,0201052,1063600,201343,Stara Wieś,część wsi,196.0,51.36182017126996,15.426360855778793
272D6AAF-2FF3-9B0E-E053-CC2BA8C0B5EA,0201,0201022,0189233,91072,Ocice,wieś,1002.0,51.20220495167208,15.483255257860545
272D6AAF-2FF4-9B0E-E053-CC2BA8C0B5EA,0201,0201043,0936262,89679,Nowogrodziec,miasto,3887.0,51.20089915417416,15.385599713454587
272D6AAF-2FF5-9B0E-E053-CC2BA8C0B5EA,0201,0201022,0189196,79970,Mierzwin,wieś,277.0,51.23427017796411,15.4898932420871
272D6AAF-2FFD-9B0E-E053-CC2BA8C0B5EA,0201,0201022,0189144,34195,Godnów,część wsi,15.0,51.25579509211658,15.622951693805216
272D6AAF-2FC0-9B0E-E053-CC2BA8C0B5EA,0201,0201052,0191810,109132,Poświętne,wieś,78.0,51.400708429035596,15.290803184581254
272D6AAF-2FBE-9B0E-E053-CC2BA8C0B5EA,0201,0201052,0191773,93108,Ołobok,wieś,398.0,51.325966558343744,15.30504458641943
272D6AAF-3000-9B0E-E053-CC2BA8C0B5EA,0201,0201052,0191833,138327,Świętoszów,wieś,1181.0,51.470776105811446,15.43758284871343
272D6AAF-2FDA-9B0E-E053-CC2BA8C0B5EA,0201,0201022,0189150,137783,Świeborowice,przysiółek,125.0,51.26131031973727,15.631904090067954
272D6AAF-2FD1-9B0E-E053-CC2BA8C0B5EA,0201,0201062,0368148,147919,Wilczy Las,wieś,179.0,51.28027736413722,15.754211542265304
272D6AAF-2FD2-9B0E-E053-CC2BA8C0B5EA,0201,0201022,0189227,88814,Nowe Jaroszowice,wieś,268.0,51.22100453456159,15.568326973163758
272D6AAF-300F-9B0E-E053-CC2BA8C0B5EA,0201,0201032,0364179,83809,Motyle,wieś,64.0,51.399418535743855,15.793112216132435
272D6AAF-3003-9B0E-E053-CC2BA8C0B5EA,0201,0201043,0191589,152889,Wykroty,wieś,1691.0,51.23812227492739,15.272049780641233
272D6AAF-2FBD-9B0E-E053-CC2BA8C0B5EA,0201,0201043,0191603,155765,Zagajnik,wieś,161.0,51.25795008375619,15.292917685241145
272D6AAF-3001-9B0E-E053-CC2BA8C0B5EA,0201,0201043,0191508,32513,Gierałtów,wieś,1181.0,51.20445871482629,15.304910744383717
272D6AAF-3002-9B0E-E053-CC2BA8C0B5EA,0201,0201043,0191514,34230,Godzieszów,wieś,532.0,51.20737173531113,15.246030734510656
272D6AAF-3004-9B0E-E053-CC2BA8C0B5EA,0201,0201062,0368094,113675,Raciborowice Górne,wieś,1256.0,51.17828724155247,15.700690129640112
272D6AAF-3005-9B0E-E053-CC2BA8C0B5EA,0201,0201043,0191520,35506,Gościszów,wieś,1473.0,51.15508968149326,15.449851461009473
272D6AAF-2FE8-9B0E-E053-CC2BA8C0B5EA,0201,0201062,0368042,187046,Iwiny-Osiedle,część wsi,463.0,51.21692275491414,15.731813640431188
272D6AAF-2FDC-9B0E-E053-CC2BA8C0B5EA,0201,0201043,1063563,151671,Wrotkowice,część wsi,68.0,51.22569848662683,15.43768511728297
272D6AAF-2FDF-9B0E-E053-CC2BA8C0B5EA,0201,0201022,0189138,62749,Kruszyn,wieś,1881.0,51.262634410555144,15.622244271306663
272D6AAF-2FDD-9B0E-E053-CC2BA8C0B5EA,0201,0201032,1004000,156683,Zając,część wsi,36.0,51.340570317692645,15.682885076619687
272D6AAF-2FD4-9B0E-E053-CC2BA8C0B5EA,0201,0201052,0191827,110888,Przejęsław,wieś,527.0,51.37538580699178,15.453127887297695
272D6AAF-2FDE-9B0E-E053-CC2BA8C0B5EA,0201,0201022,0188972,17099,Śmieszków,część wsi,90.0,51.24788088536168,15.47278340895472
272D6AAF-2FE7-9B0E-E053-CC2BA8C0B5EA,0201,0201022,0189010,187045,Modlików,część wsi,4.0,51.321510100615654,15.587435215407185
272D6AAF-2FE9-9B0E-E053-CC2BA8C0B5EA,0201,0201022,0189026,24627,Dobra,wieś,1037.0,51.27804897407434,15.51182493761324
272D6AAF-2FFB-9B0E-E053-CC2BA8C0B5EA,0201,0201052,0191750,53890,Kliczków,wieś,318.0,51.351142863829985,15.484930448330402
272D6AAF-2FF9-9B0E-E053-CC2BA8C0B5EA,0201,0201022,0189061,112668,Pstrąże,wieś,0.0,51.43961300472518,15.568133623054607
272D6AAF-3024-9B0E-E053-CC2BA8C0B5EA,0201,0201032,0364216,98369,Patoka,wieś,114.0,51.362939764912525,15.8228873037303
272D6AAF-2FD5-9B0E-E053-CC2BA8C0B5EA,0201,0201022,0189316,133816,Mojęcin,część wsi,54.0,51.20681225085073,15.573192114873061
272D6AAF-2FD6-9B0E-E053-CC2BA8C0B5EA,0201,0201022,0189262,114531,Rakowice,wieś,579.0,51.24725362009018,15.529951945119667
272D6AAF-2FE5-9B0E-E053-CC2BA8C0B5EA,0201,0201022,0189285,187043,Budzieszyce,część wsi,43.0,51.4241044475728,15.597947990884608
272D6AAF-3011-9B0E-E053-CC2BA8C0B5EA,0201,0201022,0188937,7966,Bolesławice,wieś,751.0,51.29432760423715,15.53585900981514
272D6AAF-2FE6-9B0E-E053-CC2BA8C0B5EA,0201,0201022,0189003,187044,Czerniczów,część wsi,10.0,51.31699989321726,15.568837800820177
bgWfl9Z7-5eFp-b9Ua-ZeDW-w6stifmapDge,0201,0201052,0191804,97440,Parowa,wieś,907.0,51.35496453367893,15.309867044432254
272D6AAF-2FFA-9B0E-E053-CC2BA8C0B5EA,0201,0201062,0368119,139858,Tomaszów Bolesławiecki,wieś,1934.0,51.273397740300204,15.681783197446807
272D6AAF-3012-9B0E-E053-CC2BA8C0B5EA,0201,0201043,1063557,129764,Stary Gaj,część wsi,15.0,51.25680185769628,15.3545679949539
272D6AAF-3014-9B0E-E053-CC2BA8C0B5EA,0201,0201062,0368071,70293,Lubków,wieś,350.0,51.241629379364106,15.72585154403105
272D6AAF-3015-9B0E-E053-CC2BA8C0B5EA,0201,0201043,0191490,20075,Czerna,wieś,1045.0,51.23758079415208,15.348922385366771
272D6AAF-3025-9B0E-E053-CC2BA8C0B5EA,0201,0201032,0364162,82377,Modła,wieś,439.0,51.36365319948959,15.794031311964591
272D6AAF-3026-9B0E-E053-CC2BA8C0B5EA,0201,0201062,0368036,42645,Iwiny,wieś,1157.0,51.21600203413235,15.721575984119427
272D6AAF-2FC7-9B0E-E053-CC2BA8C0B5EA,0201,0201022,0189090,61549,Kraśnik Górny,wieś,524.0,51.287359508910825,15.637934432723329
272D6AAF-3027-9B0E-E053-CC2BA8C0B5EA,0201,0201062,0368065,47714,Jurków,wieś,262.0,51.190568026693676,15.745635058389523
272D6AAF-2FC5-9B0E-E053-CC2BA8C0B5EA,0201,0201022,0189210,88183,Nowa Wieś,wieś,385.0,51.326735831832636,15.618978717763984
272D6AAF-2FC6-9B0E-E053-CC2BA8C0B5EA,0201,0201022,0189084,61544,Kraśnik Dolny,wieś,766.0,51.30345234084199,15.607768441970919
2B016ED5-E56E-A4EE-E053-CC2BA8C036C0,0202,0202073,0984261,149716,Wojsławice,część miasta,10.0,50.707984233886584,16.855786369448367
272D6AAF-3006-9B0E-E053-CC2BA8C0B5EA,0201,0201022,0189322,140957,Trzebień,wieś,979.0,51.38617253096368,15.621793581786207
272D6AAF-2FC1-9B0E-E053-CC2BA8C0B5EA,0201,0201052,0191744,10369,Bronowiec,wieś,57.0,51.3748481373891,15.333106856748248
272D6AAF-3016-9B0E-E053-CC2BA8C0B5EA,0201,0201043,1063528,201334,Lesieniec,część wsi,730.0,51.25153555736551,15.396358876912883
272D6AAF-3017-9B0E-E053-CC2BA8C0B5EA,0201,0201043,0191610,160788,Zebrzydowa,wieś,1347.0,51.24047977833252,15.386748622854832
272D6AAF-3018-9B0E-E053-CC2BA8C0B5EA,0201,0201043,1063505,201342,Karbiec,część wsi,22.0,51.22905179341478,15.434715521323419
2B016ED5-E56C-A4EE-E053-CC2BA8C036C0,0202,0202052,0852418,149318,Włóki,wieś,537.0,50.774981449079206,16.646030638583284
2B016ED5-E56D-A4EE-E053-CC2BA8C036C0,0202,0202021,0983988,28898,Dzierżoniów,miasto,28611.0,50.73120085118652,16.649301595611647
2B016ED5-E572-A4EE-E053-CC2BA8C036C0,0202,0202062,0876821,82059,Mniowice,przysiółek,28.0,50.7819817917953,16.769331981648065
2B016ED5-E56F-A4EE-E053-CC2BA8C036C0,0202,0202073,0853932,88490,Nowa Wieś Niemczańska,wieś,307.0,50.69369210087586,16.810968760479245
2B016ED5-E570-A4EE-E053-CC2BA8C036C0,0202,0202052,0852329,117086,Roztocznik,wieś,391.0,50.7473135032381,16.741807788807446
2B016ED5-E571-A4EE-E053-CC2BA8C036C0,0202,0202073,1004052,187059,Jasin,część miasta,,50.70861511103419,16.838349910125242
2B016ED5-E576-A4EE-E053-CC2BA8C036C0,0202,0202052,0852217,47452,Józefówek,kolonia,107.0,50.659268785579265,16.6249119627583
2B016ED5-E573-A4EE-E053-CC2BA8C036C0,0202,0202062,0876873,131552,Stoszów,przysiółek,162.0,50.782649234893476,16.724686084003306
2B016ED5-E574-A4EE-E053-CC2BA8C036C0,0202,0202062,0876703,64656,Kuchary,przysiółek,51.0,50.79760251714937,16.73035654371405
2B016ED5-E575-A4EE-E053-CC2BA8C036C0,0202,0202062,0876761,25823,Domaszów,przysiółek,2.0,50.81652247603954,16.773614149601624
2B016ED5-E577-A4EE-E053-CC2BA8C036C0,0202,0202052,0852170,77748,Marianówek,osada,5.0,50.71598497746162,16.721448075679056
2B016ED5-E578-A4EE-E053-CC2BA8C036C0,0202,0202052,0852163,24719,Dobrocin,wieś,598.0,50.73349096106218,16.705612737651897
2B016ED5-E579-A4EE-E053-CC2BA8C036C0,0202,0202073,0853903,34348,Gola Dzierżoniowska,wieś,91.0,50.73566163578659,16.790250137984117
2B016ED5-E57A-A4EE-E053-CC2BA8C036C0,0202,0202041,0984516,59583,Kośmin,część miasta,,50.6905588261515,16.776189678225418
2B016ED5-E57B-A4EE-E053-CC2BA8C036C0,0202,0202021,1061759,198277,Podgórzno,część miasta,,50.71415508979289,16.645956731881252
2B016ED5-E57F-A4EE-E053-CC2BA8C036C0,0202,0202073,0853955,118653,Ruszkowice,wieś,35.0,50.69178396202371,16.873151603172506
2B016ED5-E57C-A4EE-E053-CC2BA8C036C0,0202,0202062,0876784,112386,Przystronie,wieś,160.0,50.764945246147086,16.824104775417002
2B016ED5-E57D-A4EE-E053-CC2BA8C036C0,0202,0202041,1063669,201218,Kalinów,część miasta,,50.68859426451284,16.782355658959542
2B016ED5-E57E-A4EE-E053-CC2BA8C036C0,0202,0202052,0852335,14197,Byszów,kolonia,51.0,50.73029032717844,16.740965138547065
2B016ED5-E583-A4EE-E053-CC2BA8C036C0,0202,0202062,0876790,114299,Radzików,wieś,256.0,50.811336022003,16.858864789116236
2B016ED5-E580-A4EE-E053-CC2BA8C036C0,0202,0202073,0984255,130233,Stasin,część miasta,,50.71798300812215,16.857215076999022
2B016ED5-E581-A4EE-E053-CC2BA8C036C0,0202,0202062,0876778,92376,Oleszna,wieś,882.0,50.81698591267996,16.78977762204948
2B016ED5-E582-A4EE-E053-CC2BA8C036C0,0202,0202062,0876749,71128,Łagiewniki,wieś,2579.0,50.79075990722834,16.85060240184598
2B016ED5-E58D-A4EE-E053-CC2BA8C036C0,0202,0202052,0852275,95052,Ostroszowice,wieś,1095.0,50.64587542710234,16.623099483678423
2B016ED5-E584-A4EE-E053-CC2BA8C036C0,0202,0202062,0876867,126239,Sokolniki,wieś,249.0,50.822117649857844,16.837831102213045
2B016ED5-E585-A4EE-E053-CC2BA8C036C0,0202,0202062,0876844,124960,Słupice,wieś,366.0,50.815533608571315,16.74457898712746
2B016ED5-E586-A4EE-E053-CC2BA8C036C0,0202,0202062,0876880,141027,Trzebnik,wieś,111.0,50.824620561567976,16.869221619171025
2B016ED5-E587-A4EE-E053-CC2BA8C036C0,0202,0202062,0876838,122280,Sienice,wieś,339.0,50.7770968620755,16.874341136362204
2B016ED5-E588-A4EE-E053-CC2BA8C036C0,0202,0202073,0853889,16896,Chwalęcin,wieś,31.0,50.757189449996304,16.875133900683487
2B016ED5-E589-A4EE-E053-CC2BA8C036C0,0202,0202073,1061771,198280,Nowiny,część miasta,,50.72522416294542,16.848921537729165
2B016ED5-E58A-A4EE-E053-CC2BA8C036C0,0202,0202073,1004069,187060,Piotrków,część miasta,,50.71914439177516,16.886669029735145
2B016ED5-E58B-A4EE-E053-CC2BA8C036C0,0202,0202073,1063630,8908,Borowe,część miasta,,50.70946308499232,16.877447891303376
2B016ED5-E58C-A4EE-E053-CC2BA8C036C0,0202,0202073,0853949,105195,Podlesie,wieś,96.0,50.69235487145919,16.85731248281704
2B016ED5-E58E-A4EE-E053-CC2BA8C036C0,0202,0202052,0852306,101258,Piława Dolna,wieś,1431.0,50.695656154579254,16.696329857014774
2B016ED5-E58F-A4EE-E053-CC2BA8C036C0,0202,0202011,0983818,5344,Bielawa,miasto,26563.0,50.67572720926443,16.603415229108087
2B016ED5-E590-A4EE-E053-CC2BA8C036C0,0202,0202052,0852370,142456,Uciechów,wieś,965.0,50.76216524584848,16.680904852905027
2B016ED5-E591-A4EE-E053-CC2BA8C036C0,0202,0202062,0876695,45802,Jaźwina,wieś,735.0,50.80074041259124,16.708825192131343
2B016ED5-E592-A4EE-E053-CC2BA8C036C0,0202,0202073,0853926,68198,Ligota Mała,wieś,48.0,50.66736542123254,16.80605510803439
2B016ED5-E597-A4EE-E053-CC2BA8C036C0,0202,0202052,0852246,83751,Mościsko,wieś,983.0,50.776325263673115,16.586941811512915
2B016ED5-E593-A4EE-E053-CC2BA8C036C0,0202,0202073,0853910,53209,Kietlin,wieś,191.0,50.74423472745904,16.822393271146797
2B016ED5-E594-A4EE-E053-CC2BA8C036C0,0202,0202062,0876732,68211,Ligota Wielka,wieś,288.0,50.75561584297233,16.78407384221737
2B016ED5-E596-A4EE-E053-CC2BA8C036C0,0202,0202033,0984456,101701,Piskorzów,wieś,640.0,50.737162120652485,16.56266408332157
2B016ED5-E598-A4EE-E053-CC2BA8C036C0,0202,0202073,0853961,111104,Przerzeczyn-Zdrój,wieś,475.0,50.681895498914145,16.820106483518927
2B016ED5-E599-A4EE-E053-CC2BA8C036C0,0202,0202041,0984491,101259,Piława Górna,miasto,5697.0,50.682941665447764,16.755926201379193
2B016ED5-E59A-A4EE-E053-CC2BA8C036C0,0202,0202041,0984500,57633,Kopanica,część miasta,,50.67134351634798,16.765635518071484
2B016ED5-E59E-A4EE-E053-CC2BA8C036C0,0202,0202073,0984232,86788,Niemcza,miasto,2689.0,50.7152923856487,16.834090870634306
2B016ED5-E59B-A4EE-E053-CC2BA8C036C0,0202,0202073,1004046,40252,Gumin,część miasta,,50.707977372687346,16.806698742188438
2B016ED5-E59C-A4EE-E053-CC2BA8C036C0,0202,0202073,0853895,32629,Gilów,wieś,598.0,50.71807741133792,16.766216755183038
2B016ED5-E59D-A4EE-E053-CC2BA8C036C0,0202,0202073,0853978,148184,Wilków Wielki,wieś,424.0,50.74626380479663,16.853508185983905
2B016ED5-E59F-A4EE-E053-CC2BA8C036C0,0202,0202073,0984249,44905,Jasinek,część miasta,,50.72683479801758,16.81756373975218
2a283308-446c-46d2-93e4-6a9b30c8bd9a,0202,0202033,0984396,100851,Pieszyce,miasto,6484.0,50.71008959935119,16.590627493092782
2f429db1-5399-11ed-922a-5404a6a68038,0202,0202052,0852281,96000,Owiesno,wieś,440.0,50.66258080254659,16.681955306771144
cfd7d950-0056-417e-a4f5-44d91a45feb2,0202,0202033,0984462,109211,Potoczek,część wsi,,50.69795792760844,16.497738974581384
2B016ED5-E55C-A4EE-E053-CC2BA8C036C0,0202,0202052,0852341,177822,Dębowa Góra,przysiółek,6.0,50.76650533403486,16.73291759401403
2B016ED5-E558-A4EE-E053-CC2BA8C036C0,0202,0202033,0984440,96224,Padole,część wsi,,50.71845482389393,16.510710905628898
2B016ED5-E55A-A4EE-E053-CC2BA8C036C0,0202,0202033,0984485,187057,Szczytów,część wsi,,50.703258250308174,16.52405641554382
2B016ED5-E55B-A4EE-E053-CC2BA8C036C0,0202,0202052,0852364,141874,Tuszyn,wieś,371.0,50.79417673018112,16.645414190622347
2B016ED5-E560-A4EE-E053-CC2BA8C036C0,0202,0202062,0876710,43756,Janczowice,przysiółek,59.0,50.785395207116174,16.74585823666725
2B016ED5-E55D-A4EE-E053-CC2BA8C036C0,0202,0202062,0876815,122268,Sieniawka,wieś,377.0,50.77878150858633,16.768842458464633
2B016ED5-E55E-A4EE-E053-CC2BA8C036C0,0202,0202062,0876850,187058,Domanice,przysiółek,,50.806091945243196,16.75157114594192
2B016ED5-E55F-A4EE-E053-CC2BA8C036C0,0202,0202062,0876726,142831,Uliczno,przysiółek,26.0,50.809858345883164,16.719903716704547
2B016ED5-E561-A4EE-E053-CC2BA8C036C0,0202,0202052,0852358,24722,Dobrocinek,kolonia,17.0,50.73862925540804,16.757297336629538
2B016ED5-E562-A4EE-E053-CC2BA8C036C0,0202,0202073,0991960,101399,Piotrkówek,część miasta,,50.71515843664472,16.87507963612755
2B016ED5-E566-A4EE-E053-CC2BA8C036C0,0202,0202062,0876755,81576,Młynica,wieś,161.0,50.81571735433907,16.763562782343968
2B016ED5-E563-A4EE-E053-CC2BA8C036C0,0202,0202073,1061765,198279,Mieczniki,część miasta,,50.730655499211835,16.834589001603284
2B016ED5-E564-A4EE-E053-CC2BA8C036C0,0202,0202033,0984410,25939,Dorotka,część wsi,,50.72729564653013,16.562387327726668
2B016ED5-E565-A4EE-E053-CC2BA8C036C0,0202,0202033,0984433,66693,Lasocin,część wsi,,50.69691103562901,16.528188370801562
2B016ED5-E56A-A4EE-E053-CC2BA8C036C0,0202,0202033,0984404,9927,Bratoszów,wieś,231.0,50.733551857509845,16.58260685581816
2B016ED5-E567-A4EE-E053-CC2BA8C036C0,0202,0202062,0876809,114825,Ratajno,wieś,246.0,50.782511099160885,16.807498065947804
2B016ED5-E568-A4EE-E053-CC2BA8C036C0,0202,0202052,0852192,47085,Jodłownik,kolonia,396.0,50.64730955688743,16.61537756583636
2B016ED5-E569-A4EE-E053-CC2BA8C036C0,0202,0202052,0852298,53207,Kietlice,kolonia,33.0,50.66158250176863,16.672265601746524
2B016ED5-E551-A4EE-E053-CC2BA8C036C0,0202,0202052,0852186,47002,Jędrzejowice,wieś,81.0,50.818136040786015,16.668487782800405
2B016ED5-E56B-A4EE-E053-CC2BA8C036C0,0202,0202052,0852269,89636,Nowizna,wieś,391.0,50.75996969064555,16.615779272780102
2B016ED5-E54D-A4EE-E053-CC2BA8C036C0,0202,0202052,0852230,64199,Książnica,wieś,432.0,50.80852281785242,16.606886970935378
2B016ED5-E54E-A4EE-E053-CC2BA8C036C0,0202,0202052,0852223,52930,Kiełczyn,wieś,226.0,50.81122143962481,16.64849543226086
2B016ED5-E54F-A4EE-E053-CC2BA8C036C0,0202,0202052,0852200,145474,Wiatraczyn,osada,12.0,50.62936389643683,16.6217059512619
2B016ED5-E550-A4EE-E053-CC2BA8C036C0,0202,0202033,0984479,116788,Rościszów,wieś,706.0,50.702043315063484,16.521313090273626
2B016ED5-E555-A4EE-E053-CC2BA8C036C0,0202,0202052,0852252,84617,Myśliszów,kolonia,135.0,50.66821145448876,16.64795976662978
2B016ED5-E552-A4EE-E053-CC2BA8C036C0,0202,0202021,0983994,187056,Nowe Miasto,część miasta,,50.73799608626797,16.664428714240035
2B016ED5-E553-A4EE-E053-CC2BA8C036C0,0202,0202021,1061742,198278,Sobieszyn,część miasta,,50.72342799457022,16.667570740810486
2B016ED5-E554-A4EE-E053-CC2BA8C036C0,0202,0202052,0852401,56295,Kołaczów,kolonia,48.0,50.76416705247292,16.725304813791734
2B016ED5-E557-A4EE-E053-CC2BA8C036C0,0202,0202033,0984427,171419,Kamionki,wieś,446.0,50.67112958423571,16.532466459703706
2BE1E316-01C8-E8CA-E053-CA2BA8C04B7E,0203,0203042,0364564,123533,Skidniów,wieś,227.0,51.71848400735118,15.943259402897993
2BE1E316-0185-E8CA-E053-CA2BA8C04B7E,0203,0203062,0368792,21426,Dankowice,wieś,84.0,51.6169951629939,15.972826484476073
2BE1E316-0186-E8CA-E053-CA2BA8C04B7E,0203,0203062,0368800,24886,Dobrzejowice,wieś,335.0,51.71076055616464,15.88065491055183
2BE1E316-0187-E8CA-E053-CA2BA8C04B7E,0203,0203062,0368830,25765,Domaniowice,wieś,48.0,51.67591467803867,15.921066086697326
2BE1E316-01C4-E8CA-E053-CA2BA8C04B7E,0203,0203042,0364535,63159,Krzekotówek,wieś,329.0,51.714022495796414,16.096688881342594
2BE1E316-01C5-E8CA-E053-CA2BA8C04B7E,0203,0203042,0364541,65142,Kulów,wieś,200.0,51.753314322909375,16.10316781733828
2BE1E316-0188-E8CA-E053-CA2BA8C04B7E,0203,0203062,0368852,32899,Glinica,wieś,141.0,51.6510893164583,15.9718676671708
2BE1E316-0189-E8CA-E053-CA2BA8C04B7E,0203,0203062,0368906,35777,Góra Świętej Anny,osada,6.0,51.67334114641109,15.85575557845579
2BE1E316-01C6-E8CA-E053-CA2BA8C04B7E,0203,0203042,0364558,83679,Moszowice,wieś,126.0,51.723161463743814,16.05891599350885
2BE1E316-01C7-E8CA-E053-CA2BA8C04B7E,0203,0203042,0364587,99057,Pękoszów,osada,54.0,51.733021869449416,15.936977579298167
2BE1E316-018A-E8CA-E053-CA2BA8C04B7E,0203,0203032,0364268,30979,Gaiki,wieś,177.0,51.58238387907503,16.012999216023942
2BE1E316-018B-E8CA-E053-CA2BA8C04B7E,0203,0203032,0364245,3423,Bądzów,wieś,304.0,51.57491696183636,16.058347431862465
2BE1E316-018C-E8CA-E053-CA2BA8C04B7E,0203,0203032,0364251,34557,Golowice,wieś,44.0,51.57203961246758,16.078785784669655
2BE1E316-018D-E8CA-E053-CA2BA8C04B7E,0203,0203032,0364297,46337,Jerzmanowa,wieś,1160.0,51.59961610933636,16.043462070772684
2BE1E316-018E-E8CA-E053-CA2BA8C04B7E,0203,0203032,0364311,65564,Kurów Mały,wieś,130.0,51.59455865254898,16.085649363391155
2BE1E316-018F-E8CA-E053-CA2BA8C04B7E,0203,0203032,0364328,71167,Łagoszów Mały,wieś,216.0,51.62138989757577,16.025005091549335
2BE1E316-01CD-E8CA-E053-CA2BA8C04B7E,0203,0203052,0366215,26310,Droglowice,wieś,183.0,51.67077690890832,16.2409966748079
2BE1E316-01C9-E8CA-E053-CA2BA8C04B7E,0203,0203052,0366296,141743,Turów,osada,72.0,51.62453391002839,16.241671661841803
2BE1E316-01CA-E8CA-E053-CA2BA8C04B7E,0203,0203052,0366304,147137,Wierzchownia,wieś,119.0,51.63799616555282,16.262194272399807
2BE1E316-0190-E8CA-E053-CA2BA8C04B7E,0203,0203032,0364334,77303,Maniów,wieś,123.0,51.60648886335913,16.02725203837886
2BE1E316-0191-E8CA-E053-CA2BA8C04B7E,0203,0203032,0364340,82376,Modła,wieś,401.0,51.63078712671179,16.047688748272133
2BE1E316-0193-E8CA-E053-CA2BA8C04B7E,0203,0203032,0364280,43040,Jaczów,wieś,2003.0,51.625627596866046,16.082000508955122
2BE1E316-01CB-E8CA-E053-CA2BA8C04B7E,0203,0203052,0366310,147315,Wietszyce,wieś,174.0,51.648446143595066,16.29389887774921
2BE1E316-01CC-E8CA-E053-CA2BA8C04B7E,0203,0203052,1004164,16921,Chwaliszewo,część wsi,,51.65456112211419,16.22856769833304
2BE1E316-01CE-E8CA-E053-CA2BA8C04B7E,0203,0203052,0366221,34750,Golkowice,wieś,16.0,51.68268070175913,16.234262022683694
2BE1E316-0194-E8CA-E053-CA2BA8C04B7E,0203,0203032,0364305,65513,Kurowice,wieś,471.0,51.639895292744974,16.034908670457614
2BE1E316-01D1-E8CA-E053-CA2BA8C04B7E,0203,0203052,0366238,80576,Mileszyn,wieś,58.0,51.66153360421627,16.264445789479694
2BE1E316-0196-E8CA-E053-CA2BA8C04B7E,0203,0203032,0364357,109210,Potoczek,wieś,220.0,51.55633443816134,16.01156659935634
2BE1E316-0197-E8CA-E053-CA2BA8C04B7E,0203,0203042,0364423,123534,Skidniówek,osada,39.0,51.718218834705226,15.973635956943912
2BE1E316-0198-E8CA-E053-CA2BA8C04B7E,0203,0203042,0364498,123959,Skórzyn,osada,4.0,51.7672984223778,16.04455651449258
2BE1E316-01CF-E8CA-E053-CA2BA8C04B7E,0203,0203052,0366280,48123,Kaczyce,wieś,21.0,51.626925017451526,16.298575662983733
2BE1E316-01D0-E8CA-E053-CA2BA8C04B7E,0203,0203052,0366244,59767,Kotowice,wieś,58.0,51.631721468955995,16.316882572644555
2BE1E316-019C-E8CA-E053-CA2BA8C04B7E,0203,0203062,0368875,54473,Kłoda,wieś,210.0,51.65912255190359,15.947814119756401
2BE1E316-0199-E8CA-E053-CA2BA8C04B7E,0203,0203042,0364593,125883,Sobczyce,wieś,362.0,51.707797649036465,16.06488318045652
2BE1E316-019A-E8CA-E053-CA2BA8C04B7E,0203,0203022,0363850,118675,Ruszowice,wieś,1251.0,51.64535968775522,16.06685492916294
2BE1E316-019B-E8CA-E053-CA2BA8C04B7E,0203,0203062,0368869,49603,Kamiona,wieś,105.0,51.65541708280904,16.00394095416621
2BE1E316-01D6-E8CA-E053-CA2BA8C04B7E,0203,0203062,0368898,62080,Kromolin,wieś,211.0,51.6815349002262,15.874055262105113
2BE1E316-01D2-E8CA-E053-CA2BA8C04B7E,0203,0203052,0366333,8815,Borków,wieś,16.0,51.674932695489964,16.19491612926255
2BE1E316-01D3-E8CA-E053-CA2BA8C04B7E,0203,0203052,0366267,98998,Pęcław,wieś,520.0,51.641149261373634,16.2376807866123
2BE1E316-01D5-E8CA-E053-CA2BA8C04B7E,0203,0203052,0366273,100701,Piersna,wieś,148.0,51.62296761645834,16.278523298636888
2BE1E316-01D7-E8CA-E053-CA2BA8C04B7E,0203,0203052,0366250,67528,Leszkowice,wieś,194.0,51.60972145726169,16.326790514562923
2BE1E316-019D-E8CA-E053-CA2BA8C04B7E,0203,0203062,0368912,79967,Mierzów,wieś,33.0,51.6801286434612,15.848731609442236
2BE1E316-01A2-E8CA-E053-CA2BA8C04B7E,0203,0203032,0364274,162241,Zofiówka,wieś,58.0,51.56074135319073,15.990778392781555
2BE1E316-019E-E8CA-E053-CA2BA8C04B7E,0203,0203022,0363889,134987,Szczyglice,wieś,324.0,51.63033351971591,16.123736892797062
2BE1E316-019F-E8CA-E053-CA2BA8C04B7E,0203,0203022,0363895,141742,Turów,wieś,123.0,51.616988283874996,16.119941933877154
2BE1E316-01D8-E8CA-E053-CA2BA8C04B7E,0203,0203052,0366209,4846,Białołęka,wieś,372.0,51.64515077166232,16.212882263023122
2BE1E316-01D9-E8CA-E053-CA2BA8C04B7E,0203,0203052,0366327,149748,Wojszyn,wieś,110.0,51.667823693030236,16.195081355687577
2BE1E316-01DA-E8CA-E053-CA2BA8C04B7E,0203,0203042,0364469,67575,Leśna Dolina,osada,,51.73743470087384,16.14409155415875
2BE1E316-01A0-E8CA-E053-CA2BA8C04B7E,0203,0203062,0368935,86770,Nielubia,wieś,582.0,51.63913707995339,15.998450023831145
2BE1E316-01A1-E8CA-E053-CA2BA8C04B7E,0203,0203032,0364386,125086,Smardzów,wieś,338.0,51.60921426555948,16.07119616489519
2BE1E316-01A5-E8CA-E053-CA2BA8C04B7E,0203,0203011,0954113,151736,Wróblin Głogowski,część miasta,,51.69879726000769,15.952182700632791
2BE1E316-01DB-E8CA-E053-CA2BA8C04B7E,0203,0203022,0363820,54286,Klucze,wieś,244.0,51.68227869307112,16.16111843284603
2BE1E316-01DC-E8CA-E053-CA2BA8C04B7E,0203,0203022,0363872,129344,Stare Serby,wieś,121.0,51.67878743731897,16.13472691579567
2BE1E316-01DD-E8CA-E053-CA2BA8C04B7E,0203,0203011,1004075,11596,Brzostów,część miasta,,51.65859795731461,16.055642556152737
2BE1E316-01A3-E8CA-E053-CA2BA8C04B7E,0203,0203022,0363808,14219,Bytnik,wieś,194.0,51.63835218506178,16.151227637919106
2BE1E316-01A4-E8CA-E053-CA2BA8C04B7E,0203,0203022,0363903,148161,Wilków,wieś,711.0,51.69775721325859,16.196389802872538
2BE1E316-01A6-E8CA-E053-CA2BA8C04B7E,0203,0203022,0363910,154942,Zabornia,wieś,183.0,51.660644557670516,16.153666747303003
2BE1E316-01DE-E8CA-E053-CA2BA8C04B7E,0203,0203011,1063712,98458,Paulinów,część miasta,,51.646191762645216,16.072008060590633
2BE1E316-01A7-E8CA-E053-CA2BA8C04B7E,0203,0203011,1061788,163260,Żarków Górny,część miasta,,51.64683643674606,16.117801339156223
2BE1E316-01DF-E8CA-E053-CA2BA8C04B7E,0203,0203011,0954107,145780,Widziszów,część miasta,,51.66116810836651,16.119961925883935
2BE1E316-01E0-E8CA-E053-CA2BA8C04B7E,0203,0203022,0363837,63158,Krzekotów,wieś,139.0,51.70818141477932,16.154236762667974
2BE1E316-01E1-E8CA-E053-CA2BA8C04B7E,0203,0203022,0363866,121285,Serby,wieś,1847.0,51.69431120381924,16.114090661382736
2BE1E316-01A8-E8CA-E053-CA2BA8C04B7E,0203,0203011,0954082,33711,Głogów,miasto,58030.0,51.66929680560659,16.050166426632888
2BE1E316-01AE-E8CA-E053-CA2BA8C04B7E,0203,0203022,0363843,110789,Przedmoście,wieś,836.0,51.62598657355274,16.16307061097998
2BE1E316-01A9-E8CA-E053-CA2BA8C04B7E,0203,0203011,1004081,35853,Górka,część miasta,,51.639493074981644,16.116380618456922
2BE1E316-01AA-E8CA-E053-CA2BA8C04B7E,0203,0203022,0363814,38815,Grodziec Mały,wieś,519.0,51.68543994835354,16.063770548679457
2BE1E316-01AB-E8CA-E053-CA2BA8C04B7E,0203,0203011,1004098,63318,Krzepów,część miasta,,51.64229357565662,16.138243004350144
2BE1E316-01AC-E8CA-E053-CA2BA8C04B7E,0203,0203022,0363790,8225,Borek,wieś,430.0,51.64426012766552,16.17927490291015
2BE1E316-01AD-E8CA-E053-CA2BA8C04B7E,0203,0203011,1004106,87823,Nosocice,część miasta,,51.65171431121767,16.12968460088851
2BE1E316-01AF-E8CA-E053-CA2BA8C04B7E,0203,0203062,0368763,10798,Brzeg Głogowski,wieś,420.0,51.69396055057959,15.919729368088575
2BE1E316-01B0-E8CA-E053-CA2BA8C04B7E,0203,0203062,0368881,124525,Słoćwina,wieś,65.0,51.678074623444616,15.948607591790186
2BE1E316-01B4-E8CA-E053-CA2BA8C04B7E,0203,0203062,0368823,145857,Wiekowice,osada,21.0,51.69590514014956,15.868476741157377
2BE1E316-01B1-E8CA-E053-CA2BA8C04B7E,0203,0203062,0368941,124630,Słone,wieś,164.0,51.654805918750476,16.024069417043997
2BE1E316-01B2-E8CA-E053-CA2BA8C04B7E,0203,0203062,0368929,134780,Szczepów,wieś,192.0,51.67404126503679,15.886970439213284
2BE1E316-01B3-E8CA-E053-CA2BA8C04B7E,0203,0203062,0368770,13565,Bukwica,wieś,247.0,51.6230443100076,15.993028666983069
2BE1E316-01BA-E8CA-E053-CA2BA8C04B7E,0203,0203042,0364400,14355,Ceber,wieś,114.0,51.70601194944482,16.004779063656365
2BE1E316-01B5-E8CA-E053-CA2BA8C04B7E,0203,0203062,0368958,154815,Zabłocie,wieś,100.0,51.639632204078374,15.962651789287918
2BE1E316-01B6-E8CA-E053-CA2BA8C04B7E,0203,0203062,0368846,158028,Zameczno,wieś,45.0,51.66774127987171,15.92858343694627
2BE1E316-01B7-E8CA-E053-CA2BA8C04B7E,0203,0203062,0368964,164096,Żukowice,wieś,13.0,51.669739130119694,15.982299268859498
2BE1E316-01B8-E8CA-E053-CA2BA8C04B7E,0203,0203062,0368786,20071,Czerna,wieś,216.0,51.71202948280563,15.899628237354921
2BE1E316-01B9-E8CA-E053-CA2BA8C04B7E,0203,0203042,1004141,129428,Stare Zabiele,część wsi,,51.714999684923015,16.038456870242882
2BE1E316-01BE-E8CA-E053-CA2BA8C04B7E,0203,0203042,0364570,25962,Dorzecze,osada,38.0,51.71317757680112,15.939179281146924
2BE1E316-01BB-E8CA-E053-CA2BA8C04B7E,0203,0203042,0364601,154750,Zabiele,wieś,113.0,51.71115249270045,16.038273272779644
2BE1E316-01BC-E8CA-E053-CA2BA8C04B7E,0203,0203042,0364446,15769,Chociemyśl,wieś,325.0,51.736444082794854,15.992329193348594
2BE1E316-01BD-E8CA-E053-CA2BA8C04B7E,0203,0203042,0364529,159490,Zaszków,osada,8.0,51.764002743484006,16.0785515084719
2BE1E316-01BF-E8CA-E053-CA2BA8C04B7E,0203,0203042,0364452,33718,Głogówko,wieś,359.0,51.7357713144786,16.128202878909036
2BE1E316-01C0-E8CA-E053-CA2BA8C04B7E,0203,0203042,0364475,38667,Grochowice,wieś,333.0,51.7777587486399,16.002276001995835
2BE1E316-01C1-E8CA-E053-CA2BA8C04B7E,0203,0203042,0364481,59669,Kotla,wieś,1454.0,51.74976295670713,16.042117017833863
1422817F-9516-B3EC-E053-CA2BA8C0E529,0204,0204013,0370487,147215,Wierzowice Małe,wieś,33.0,51.58966337479054,16.561099938950765
2BE1E316-01C2-E8CA-E053-CA2BA8C04B7E,0203,0203042,0364506,60466,Kozie Doły,wieś,213.0,51.724166253026,16.023470274543623
2BE1E316-01C3-E8CA-E053-CA2BA8C04B7E,0203,0203042,0364512,61641,Krążkówko,wieś,16.0,51.772131097906275,16.073793531789523
f7e2c780-adf6-11f0-aee6-a029191646e8,0203,0203011,0954099,5115,Biechów,część miasta,,51.67121427586425,16.029010697889824
c136369e-d834-11f0-80c6-100d7fb85f38,0203,0203052,1004170,198281,Igłowice,osada,,51.62266721771676,16.269417026383014
1422817F-957D-B3EC-E053-CA2BA8C0E529,0204,0204043,0377070,3680,Bełcz Mały,wieś,96.0,51.57927068855611,16.661411554610567
1422817F-957E-B3EC-E053-CA2BA8C0E529,0204,0204032,0373534,3681,Bełcz Wielki,wieś,193.0,51.62131496818117,16.359424628678777
1422817F-9513-B3EC-E053-CA2BA8C0E529,0204,0204032,0373681,144673,Wągroda,wieś,60.0,51.65954483799456,16.327514188958908
1422817F-9514-B3EC-E053-CA2BA8C0E529,0204,0204043,0954662,144759,Wąsosz,miasto,2514.0,51.562774694218845,16.69211123756056
1422817F-954D-B3EC-E053-CA2BA8C0E529,0204,0204013,0370062,9303,Borszyn Wielki,wieś,144.0,51.67463664499109,16.628459837974823
1422817F-954E-B3EC-E053-CA2BA8C0E529,0204,0204013,0370263,93896,Osetno,wieś,358.0,51.63208903419385,16.464650343830446
1422817F-954F-B3EC-E053-CA2BA8C0E529,0204,0204013,0370270,93902,Osetno Małe,wieś,26.0,51.63290642685489,16.435225212820452
1422817F-957F-B3EC-E053-CA2BA8C0E529,0204,0204013,0370174,37534,Grabowno,wieś,113.0,51.628987128577805,16.586397003423603
1422817F-9515-B3EC-E053-CA2BA8C0E529,0204,0204013,0370470,146826,Wieruszowice,przysiółek,,51.621342212990214,16.641835553576367
1422817F-951B-B3EC-E053-CA2BA8C0E529,0204,0204013,0370501,148944,Witoszyce,wieś,406.0,51.75476031061389,16.512509203134016
1422817F-9517-B3EC-E053-CA2BA8C0E529,0204,0204013,0370493,147216,Wierzowice Wielkie,wieś,156.0,51.608567670739006,16.595881174591778
1422817F-9518-B3EC-E053-CA2BA8C0E529,0204,0204043,0377437,147320,Wiewierz,wieś,171.0,51.630700170456365,16.74634247790526
1422817F-9550-B3EC-E053-CA2BA8C0E529,0204,0204022,0370665,53213,Kietlów,osada,277.0,51.62126335771101,16.438600066616402
1422817F-9551-B3EC-E053-CA2BA8C0E529,0204,0204032,0373630,53967,Klimontów,osada,18.0,51.6944952578752,16.323669105869868
1422817F-9580-B3EC-E053-CA2BA8C0E529,0204,0204022,0370613,21554,Daszów,wieś,147.0,51.56551345716427,16.595886293629825
1422817F-9519-B3EC-E053-CA2BA8C0E529,0204,0204043,0377443,147446,Wiklina,wieś,94.0,51.60238012502983,16.73275401883259
1422817F-951A-B3EC-E053-CA2BA8C0E529,0204,0204032,0373698,148426,Wioska,wieś,117.0,51.74354749771841,16.46242676517208
1422817F-9555-B3EC-E053-CA2BA8C0E529,0204,0204043,0377383,118032,Rudna Wielka,wieś,149.0,51.63693819301538,16.690447468575726
1422817F-9552-B3EC-E053-CA2BA8C0E529,0204,0204043,0377325,94975,Ostrawa,wieś,6.0,51.52209503157358,16.728494713116323
1422817F-9553-B3EC-E053-CA2BA8C0E529,0204,0204043,0377408,199344,Sułów Wielki,osada leśna,,51.64441452472864,16.716086509805915
1422817F-9554-B3EC-E053-CA2BA8C0E529,0204,0204032,0373669,137882,Świerczów,wieś,52.0,51.67754588956813,16.285168008750553
1422817F-9556-B3EC-E053-CA2BA8C0E529,0204,0204022,0370754,94577,Osłowice,wieś,119.0,51.542489011461235,16.619684132542915
1422817F-9520-B3EC-E053-CA2BA8C0E529,0204,0204043,0377348,102840,Pobiel,wieś,432.0,51.5542662903168,16.74911942967941
1422817F-9581-B3EC-E053-CA2BA8C0E529,0204,0204043,0377147,24975,Dochowa,wieś,110.0,51.620848763604826,16.673764601223393
1422817F-9582-B3EC-E053-CA2BA8C0E529,0204,0204043,0377041,2559,Baranowice,wieś,44.0,51.557899422765495,16.627206960109895
1422817F-951C-B3EC-E053-CA2BA8C0E529,0204,0204013,0370524,149190,Włodków Dolny,wieś,51.0,51.691407123786455,16.56158237195634
1422817F-951D-B3EC-E053-CA2BA8C0E529,0204,0204013,0370398,149191,Włodków Górny,przysiółek,,51.652291744594,16.53089434668894
1422817F-9557-B3EC-E053-CA2BA8C0E529,0204,0204013,0370205,54484,Kłoda Górowska,wieś,355.0,51.65526358744001,16.584065546513166
1422817F-9558-B3EC-E053-CA2BA8C0E529,0204,0204043,0377242,55179,Kobylniki,wieś,13.0,51.52080557707771,16.680111986418282
1422817F-9583-B3EC-E053-CA2BA8C0E529,0204,0204043,0377058,2949,Bartków,wieś,36.0,51.51626305730498,16.788044578490837
1422817F-9584-B3EC-E053-CA2BA8C0E529,0204,0204032,0373528,3012,Bartodzieje,wieś,102.0,51.68225879835649,16.31808297964787
1422817F-9585-B3EC-E053-CA2BA8C0E529,0204,0204013,0370151,32982,Glinka,wieś,371.0,51.71252149075438,16.537580999489293
1422817F-951E-B3EC-E053-CA2BA8C0E529,0204,0204043,0377450,149400,Wodniki,wieś,90.0,51.59466946485356,16.760978565471913
1422817F-951F-B3EC-E053-CA2BA8C0E529,0204,0204043,0377331,102556,Płoski,wieś,153.0,51.53226303177936,16.69440215110312
1422817F-9521-B3EC-E053-CA2BA8C0E529,0204,0204013,0370079,10382,Bronów,wieś,149.0,51.65000000811801,16.661886064604424
1422817F-9525-B3EC-E053-CA2BA8C0E529,0204,0204013,0370085,11540,Brzeżany,wieś,156.0,51.708304102480696,16.48056036109144
1422817F-9559-B3EC-E053-CA2BA8C0E529,0204,0204022,0370547,5634,Bieliszów,wieś,31.0,51.53989579410608,16.481914691896574
1422817F-955A-B3EC-E053-CA2BA8C0E529,0204,0204043,0377259,60062,Kowalowo,wieś,93.0,51.55525334046586,16.667285205527815
1422817F-9586-B3EC-E053-CA2BA8C0E529,0204,0204032,0373557,33612,Głobice,wieś,152.0,51.63995051076685,16.34444356320519
1422817F-9587-B3EC-E053-CA2BA8C0E529,0204,0204032,0373729,162954,Żabin,wieś,57.0,51.661142437554766,16.350415775230267
1422817F-9588-B3EC-E053-CA2BA8C0E529,0204,0204013,0370435,163244,Żarki,przysiółek,,51.6907987783646,16.648364527107656
1422817F-9522-B3EC-E053-CA2BA8C0E529,0204,0204013,0370292,107266,Polanowo,wieś,22.0,51.72026393592756,16.50703750376988
1422817F-9523-B3EC-E053-CA2BA8C0E529,0204,0204022,0370783,112524,Psary,wieś,273.0,51.55049472626554,16.576085599018093
1422817F-9526-B3EC-E053-CA2BA8C0E529,0204,0204013,0370330,116006,Rogów Górowski,wieś,144.0,51.64828141929242,16.488325500257737
1422817F-9527-B3EC-E053-CA2BA8C0E529,0204,0204022,0370694,117321,Równa,przysiółek,,51.61110536099181,16.396508762262318
1422817F-955B-B3EC-E053-CA2BA8C0E529,0204,0204013,0370228,62789,Kruszyniec,wieś,157.0,51.689858111708084,16.584303160621367
1422817F-955C-B3EC-E053-CA2BA8C0E529,0204,0204013,0370458,64927,Kuklice,część wsi,,51.65995279941422,16.61843543337669
1422817F-955D-B3EC-E053-CA2BA8C0E529,0204,0204013,0370518,66598,Laskowa,przysiółek,,51.77159414574383,16.52683355731671
1422817F-9589-B3EC-E053-CA2BA8C0E529,0204,0204013,0954455,48289,Kajęcin,część miasta,,51.66851635341844,16.56844232996581
1422817F-958A-B3EC-E053-CA2BA8C0E529,0204,0204043,0377220,49477,Kamień Górowski,wieś,200.0,51.50770986340765,16.70662578704219
1422817F-9528-B3EC-E053-CA2BA8C0E529,0204,0204043,0377377,118030,Rudna Mała,wieś,89.0,51.63053513534045,16.681408865941222
1422817F-9560-B3EC-E053-CA2BA8C0E529,0204,0204032,0373570,69033,Lipowiec,wieś,87.0,51.64217384615315,16.381994333142334
1422817F-9529-B3EC-E053-CA2BA8C0E529,0204,0204013,0370346,119113,Ryczeń,wieś,237.0,51.615355325351565,16.514768246875573
1422817F-952A-B3EC-E053-CA2BA8C0E529,0204,0204043,0377271,121091,Sądowel,wieś,19.0,51.59480265257371,16.609718182396662
1422817F-952B-B3EC-E053-CA2BA8C0E529,0204,0204013,0370211,121553,Sędziwojowice,część miasta,,51.66274437586042,16.5701370927353
1422817F-955E-B3EC-E053-CA2BA8C0E529,0204,0204043,0377265,66882,Lechitów,wieś,52.0,51.594997066301744,16.62671079335768
1422817F-955F-B3EC-E053-CA2BA8C0E529,0204,0204013,0370234,68169,Ligota,wieś,183.0,51.7024956305217,16.600920398881094
1422817F-9561-B3EC-E053-CA2BA8C0E529,0204,0204043,0377288,70168,Lubiel,wieś,285.0,51.50042489824728,16.750281357930724
1422817F-9562-B3EC-E053-CA2BA8C0E529,0204,0204022,0370671,70441,Luboszyce,wieś,201.0,51.60640462123448,16.41625191090973
1422817F-952D-B3EC-E053-CA2BA8C0E529,0204,0204013,0370375,124380,Sławęcice,wieś,274.0,51.69526525682059,16.52570293486284
1422817F-958B-B3EC-E053-CA2BA8C0E529,0204,0204032,0373735,164062,Żuchlów,wieś,331.0,51.67743322916002,16.39594847770769
1422817F-958C-B3EC-E053-CA2BA8C0E529,0204,0204043,0377153,26363,Drozdowice Małe,wieś,68.0,51.51319641798828,16.661991077158067
1422817F-952C-B3EC-E053-CA2BA8C0E529,0204,0204032,0373646,121706,Siciny,wieś,541.0,51.74046934323785,16.400960155220222
1422817F-952E-B3EC-E053-CA2BA8C0E529,0204,0204022,0370808,125380,Smolne,wieś,56.0,51.51496686695723,16.498297201710482
1422817F-952F-B3EC-E053-CA2BA8C0E529,0204,0204022,0370620,127984,Stanowice,przysiółek,,51.56850313752113,16.598396739034467
1422817F-9530-B3EC-E053-CA2BA8C0E529,0204,0204013,0370381,128123,Stara Góra,wieś,444.0,51.64682423590044,16.528837511008643
1422817F-9592-B3EC-E053-CA2BA8C0E529,0204,0204013,0954449,35643,Góra,miasto,10175.0,51.670556258243174,16.550320686771887
1422817F-9531-B3EC-E053-CA2BA8C0E529,0204,0204043,0377130,130953,Stefanów,osada,16.0,51.560911939353566,16.652831421198666
1422817F-9532-B3EC-E053-CA2BA8C0E529,0204,0204013,0370406,132104,Strumienna,wieś,100.0,51.6916443654022,16.49134053146523
1422817F-9563-B3EC-E053-CA2BA8C0E529,0204,0204022,0370702,70444,Luboszyce Małe,wieś,89.0,51.59873526941269,16.45218205578794
1422817F-9564-B3EC-E053-CA2BA8C0E529,0204,0204022,0370725,70482,Lubów,wieś,188.0,51.565096203488125,16.483561644254472
1422817F-958D-B3EC-E053-CA2BA8C0E529,0204,0204043,0377160,26364,Drozdowice Wielkie,wieś,65.0,51.5212632235505,16.659965389321812
1422817F-9533-B3EC-E053-CA2BA8C0E529,0204,0204013,0370412,132121,Strumyk,wieś,82.0,51.68765799296162,16.612476793083506
1422817F-9534-B3EC-E053-CA2BA8C0E529,0204,0204013,0370429,133567,Sułków,wieś,86.0,51.700891499213554,16.656201819061145
1422817F-9565-B3EC-E053-CA2BA8C0E529,0204,0204013,0370240,71158,Łagiszyn,wieś,99.0,51.731152791395566,16.48547606565694
1422817F-9566-B3EC-E053-CA2BA8C0E529,0204,0204022,0370748,72557,Łęczyca,wieś,109.0,51.52326158746073,16.574569288496143
1422817F-9567-B3EC-E053-CA2BA8C0E529,0204,0204032,0373586,72830,Łękanów,wieś,244.0,51.71046957536685,16.394244508872077
1422817F-958F-B3EC-E053-CA2BA8C0E529,0204,0204022,0370582,17259,Ciechanów,wieś,120.0,51.58001696324932,16.43553494220135
1422817F-9590-B3EC-E053-CA2BA8C0E529,0204,0204013,0370168,34350,Gola Górowska,wieś,146.0,51.66137910666032,16.45954962658835
1422817F-9591-B3EC-E053-CA2BA8C0E529,0204,0204043,0377199,34355,Gola Wąsoska,wieś,125.0,51.58511521780424,16.704903590521486
1422817F-9535-B3EC-E053-CA2BA8C0E529,0204,0204043,0377390,133598,Sułów Wielki,wieś,76.0,51.64344730895494,16.704990098434404
1422817F-9536-B3EC-E053-CA2BA8C0E529,0204,0204032,0373652,134496,Szaszorowice,wieś,133.0,51.65650038056951,16.384043798890715
1422817F-9568-B3EC-E053-CA2BA8C0E529,0204,0204043,0377302,73859,Ługi,wieś,51.0,51.528139439365795,16.759105985407384
1422817F-9569-B3EC-E053-CA2BA8C0E529,0204,0204022,0370790,160027,Zawiszów,przysiółek,,51.55063174626391,16.568978332069946
1422817F-9593-B3EC-E053-CA2BA8C0E529,0204,0204022,0370719,417,Aleksandrówka,przysiółek,,51.59971913001283,16.451009626175
1422817F-956A-B3EC-E053-CA2BA8C0E529,0204,0204043,0377489,160260,Zbaków Dolny,wieś,65.0,51.618589314288634,16.7355855578602
1422817F-9594-B3EC-E053-CA2BA8C0E529,0204,0204022,0370636,42560,Irządze,wieś,114.0,51.589465455929975,16.413569799474843
1422817F-9537-B3EC-E053-CA2BA8C0E529,0204,0204013,0370441,135097,Szedziec,wieś,158.0,51.650482346480395,16.623477587791143
1422817F-9538-B3EC-E053-CA2BA8C0E529,0204,0204022,0370820,136979,Śleszów,wieś,58.0,51.54771304567541,16.535836890070044
1422817F-9539-B3EC-E053-CA2BA8C0E529,0204,0204013,0370464,137082,Ślubów,wieś,375.0,51.62833938851242,16.62766458939791
1422817F-953A-B3EC-E053-CA2BA8C0E529,0204,0204022,0370659,137958,Świerki,osada leśna,,51.51729471731119,16.536704506931066
1422817F-9595-B3EC-E053-CA2BA8C0E529,0204,0204013,0370180,45145,Jastrzębia,wieś,278.0,51.674831208864994,16.488444190274283
1422817F-956B-B3EC-E053-CA2BA8C0E529,0204,0204043,0377495,160261,Zbaków Górny,wieś,112.0,51.611070891637404,16.71155217097607
1422817F-956C-B3EC-E053-CA2BA8C0E529,0204,0204022,0370837,160762,Zdziesławice,wieś,148.0,51.56831386262928,16.523021631683722
1422817F-956D-B3EC-E053-CA2BA8C0E529,0204,0204043,0377354,162404,Zubrza,osada,9.0,51.54835541502876,16.78885978176583
1422817F-953B-B3EC-E053-CA2BA8C0E529,0204,0204043,0377414,138413,Świniary,wieś,93.0,51.57867865470767,16.784252017345946
1422817F-9596-B3EC-E053-CA2BA8C0E529,0204,0204043,0377176,45442,Jawor,osada,18.0,51.51599231546959,16.64513284317308
1422817F-9597-B3EC-E053-CA2BA8C0E529,0204,0204022,0370642,46274,Jemielno,wieś,346.0,51.52228233117649,16.540848180384515
1422817F-9598-B3EC-E053-CA2BA8C0E529,0204,0204032,0373706,151608,Wroniniec,wieś,263.0,51.679960620577965,16.447240853807095
1422817F-9570-B3EC-E053-CA2BA8C0E529,0204,0204013,0370300,172885,Polanowiec,przysiółek,,51.720637410595955,16.51104301004731
1422817F-953C-B3EC-E053-CA2BA8C0E529,0204,0204032,0373675,139094,Tarpno,wieś,189.0,51.72234095041104,16.460170232769922
1422817F-953D-B3EC-E053-CA2BA8C0E529,0204,0204022,0370560,75769,Majówka,przysiółek,,51.54720102043419,16.491610663084277
1422817F-953E-B3EC-E053-CA2BA8C0E529,0204,0204032,0373540,7691,Bogucin,wieś,63.0,51.70677359154366,16.453179998431754
1422817F-956E-B3EC-E053-CA2BA8C0E529,0204,0204022,0370576,16246,Chorągwice,wieś,53.0,51.589665478504934,16.476301878884534
1422817F-956F-B3EC-E053-CA2BA8C0E529,0204,0204013,0370116,172884,Bylica,część wsi,,51.72839930452559,16.549542279576663
1422817F-9571-B3EC-E053-CA2BA8C0E529,0204,0204022,0370553,172886,Chobienia,przysiółek,,51.546324447699384,16.45698951337325
1422817F-9542-B3EC-E053-CA2BA8C0E529,0204,0204032,0373600,79532,Miechów,wieś,142.0,51.65692589622158,16.422802911288734
1422817F-9599-B3EC-E053-CA2BA8C0E529,0204,0204032,0373712,151638,Wronów,wieś,233.0,51.759028812786454,16.43411515645276
1422817F-959A-B3EC-E053-CA2BA8C0E529,0204,0204043,0377466,151785,Wrząca Śląska,wieś,105.0,51.502827456427624,16.66473855078199
1422817F-953F-B3EC-E053-CA2BA8C0E529,0204,0204022,0370731,77483,Marcinówka,przysiółek,,51.57893915903567,16.45992534722222
1422817F-9540-B3EC-E053-CA2BA8C0E529,0204,0204043,0377182,78159,Marysin,osada,16.0,51.52530582191033,16.644766272848496
1422817F-9541-B3EC-E053-CA2BA8C0E529,0204,0204032,0373592,78259,Masełkowice,wieś,47.0,51.62599994211781,16.398536426772324
1422817F-9572-B3EC-E053-CA2BA8C0E529,0204,0204043,0377093,17678,Cieszkowice,wieś,210.0,51.597270594689704,16.672422044629478
1422817F-9544-B3EC-E053-CA2BA8C0E529,0204,0204022,0370814,8536,Borki,przysiółek,,51.511563195717635,16.51805035344601
1422817F-9573-B3EC-E053-CA2BA8C0E529,0204,0204022,0370599,17713,Cieszyny,wieś,102.0,51.54511334137519,16.55222545747653
1422817F-959B-B3EC-E053-CA2BA8C0E529,0204,0204043,0377472,151786,Wrząca Wielka,wieś,61.0,51.496937780736666,16.70524012247512
1422817F-959C-B3EC-E053-CA2BA8C0E529,0204,0204043,0377087,15763,Chocieborowice,wieś,173.0,51.536989887436846,16.654182939880965
1422817F-9543-B3EC-E053-CA2BA8C0E529,0204,0204043,0377360,81494,Młynary,osada,15.0,51.56537379314526,16.72813742234307
1422817F-9574-B3EC-E053-CA2BA8C0E529,0204,0204043,0377294,18621,Czaple,osada,15.0,51.49515867757252,16.737299436142955
1422817F-9575-B3EC-E053-CA2BA8C0E529,0204,0204043,0377118,19244,Czarnoborsko,wieś,118.0,51.6108030759188,16.694894882348034
1422817F-9576-B3EC-E053-CA2BA8C0E529,0204,0204022,0370607,19918,Czeladź Mała,wieś,20.0,51.520374242994194,16.597485175309707
1422817F-9577-B3EC-E053-CA2BA8C0E529,0204,0204043,0377124,19919,Czeladź Wielka,wieś,276.0,51.574856441065855,16.62853668147482
1422817F-9578-B3EC-E053-CA2BA8C0E529,0204,0204013,0370122,20235,Czernina,wieś,778.0,51.73211351188922,16.625433484616167
1422817F-9548-B3EC-E053-CA2BA8C0E529,0204,0204043,0377420,9092,Borowna,wieś,77.0,51.58444537025858,16.79556989862013
1422817F-959D-B3EC-E053-CA2BA8C0E529,0204,0204013,0370530,159995,Zawieścice,wieś,146.0,51.63163540368036,16.568999287049543
a30034da-e6a5-4c36-92c8-80d24459d71f,0204,0204013,0370317,114030,Radosław,wieś,287.0,51.76891408257157,16.47903230401664
1422817F-9545-B3EC-E053-CA2BA8C0E529,0204,0204032,0373617,85942,Naratów,wieś,564.0,51.6950503751073,16.42838612939523
1422817F-9546-B3EC-E053-CA2BA8C0E529,0204,0204032,0373623,86390,Niechlów,wieś,718.0,51.68795131789856,16.361556063711493
1422817F-9547-B3EC-E053-CA2BA8C0E529,0204,0204013,0370257,88520,Nowa Wioska,wieś,36.0,51.780996679742586,16.438818562951784
1422817F-957C-B3EC-E053-CA2BA8C0E529,0204,0204043,0377064,3679,Bełcz Górny,wieś,70.0,51.60749981315074,16.644937568883584
1422817F-9579-B3EC-E053-CA2BA8C0E529,0204,0204013,0370139,20236,Czernina Dolna,wieś,303.0,51.729749092842184,16.590313910974672
1422817F-957A-B3EC-E053-CA2BA8C0E529,0204,0204013,0370145,20237,Czernina Górna,wieś,112.0,51.71432050992203,16.633981242069044
1422817F-9549-B3EC-E053-CA2BA8C0E529,0204,0204013,0370056,9302,Borszyn Mały,wieś,121.0,51.67121358373043,16.60180173873273
1422817F-954A-B3EC-E053-CA2BA8C0E529,0204,0204032,0373563,50898,Karów,wieś,118.0,51.66711882830627,16.308617274804938
1422817F-954B-B3EC-E053-CA2BA8C0E529,0204,0204043,0377236,51751,Kąkolno,wieś,19.0,51.56966523443901,16.81371204795811
1422817F-954C-B3EC-E053-CA2BA8C0E529,0204,0204013,0370286,53212,Kietlów,przysiółek,,51.63061052077917,16.44189755815647
1422817F-957B-B3EC-E053-CA2BA8C0E529,0204,0204043,0377213,36026,Górka Wąsoska,wieś,79.0,51.57663970872718,16.685415097941874
1422817F-9512-B3EC-E053-CA2BA8C0E529,0204,0204043,0377207,14422,Podmieście,osada,48.0,51.57748892663019,16.71648755515281
1422817F-950D-B3EC-E053-CA2BA8C0E529,0204,0204022,0370760,101448,Piotrowice Małe,wieś,104.0,51.52472196204241,16.625533367839797
1422817F-950E-B3EC-E053-CA2BA8C0E529,0204,0204022,0370777,101679,Piskorze,wieś,37.0,51.50859971616237,16.57730864474419
1422817F-950F-B3EC-E053-CA2BA8C0E529,0204,0204013,0370091,142866,Ułanka,przysiółek,,51.70184538418654,16.48416602668064
1422817F-9510-B3EC-E053-CA2BA8C0E529,0204,0204043,0377319,142986,Unisławice,wieś,41.0,51.535499055152854,16.78603907221472
1422817F-9511-B3EC-E053-CA2BA8C0E529,0204,0204022,0370688,143315,Uszczonów,przysiółek,,51.600976670877095,16.39901335969959
272D698C-3D09-25D8-E053-CA2BA8C0148F,0205,0205023,0189440,84486,Mysłów,wieś,556.0,50.93105773980855,15.983249816812666
f747c56e-7c71-11f0-b6aa-a029191646e8,0204,0204013,0370100,16586,Chróścina,wieś,514.0,51.745793773825646,16.549167340979132
272D698C-3CCD-25D8-E053-CA2BA8C0148F,0205,0205052,0366095,54577,Kłonice,wieś,130.0,50.99663547531511,16.1384132286128
272D698C-3CFF-25D8-E053-CA2BA8C0148F,0205,0205042,0365960,77457,Marcinowice,wieś,237.0,51.063026625739255,16.323409145396482
272D698C-3CCA-25D8-E053-CA2BA8C0148F,0205,0205062,0368289,109038,Postolice,wieś,165.0,51.105404752507624,16.42434782403212
272D698C-3CFD-25D8-E053-CA2BA8C0148F,0205,0205023,0935995,8060,Bolków,miasto,4535.0,50.92480503739801,16.099005306197984
272D698C-3CCC-25D8-E053-CA2BA8C0148F,0205,0205062,0368355,147065,Wierzchowice,wieś,58.0,51.12478502608289,16.36227406632481
272D698C-3D01-25D8-E053-CA2BA8C0148F,0205,0205042,0366020,138827,Targoszyn,wieś,793.0,51.0327476752895,16.309787839064033
272D698C-3CCE-25D8-E053-CA2BA8C0148F,0205,0205032,0365606,16563,Chroślice,wieś,241.0,51.08562066947048,16.075350506216918
272D698C-3CD0-25D8-E053-CA2BA8C0148F,0205,0205052,0366072,43470,Jakuszowa,wieś,87.0,51.00385312969351,16.097948915333788
272D698C-3CD3-25D8-E053-CA2BA8C0148F,0205,0205062,0368303,123152,Skała,wieś,167.0,51.07881506605121,16.302896798014395
272D698C-3CD4-25D8-E053-CA2BA8C0148F,0205,0205032,0365693,107903,Pomocne,wieś,331.0,51.045857531853905,16.021297651875493
272D698C-3CCF-25D8-E053-CA2BA8C0148F,0205,0205032,0365635,78990,Męcinka,wieś,691.0,51.06939688155662,16.081399659133837
272D698C-3CD1-25D8-E053-CA2BA8C0148F,0205,0205062,0368190,32042,Gądków,wieś,121.0,51.086840300194865,16.384844778789947
272D698C-3CD2-25D8-E053-CA2BA8C0148F,0205,0205062,0368243,79890,Mierczyce,wieś,592.0,51.093426023208,16.32690232909523
272D698C-3CFC-25D8-E053-CA2BA8C0148F,0205,0205023,0189552,138506,Świny,wieś,241.0,50.94191471472324,16.115997901952248
272D698C-3CFE-25D8-E053-CA2BA8C0148F,0205,0205023,0189581,147062,Wierzchosławiczki,wieś,57.0,50.91084431305409,16.067021214802175
272D698C-3CF1-25D8-E053-CA2BA8C0148F,0205,0205062,0368326,144649,Wądroże Małe,wieś,193.0,51.1110941592167,16.309311817653995
272D698C-3CD5-25D8-E053-CA2BA8C0148F,0205,0205032,0365670,84614,Myślinów,wieś,198.0,51.026399819859,16.076925796306693
272D698C-3D00-25D8-E053-CA2BA8C0148F,0205,0205042,0365925,26679,Drzymałowice,wieś,114.0,51.0516435182904,16.3110995366266
272D698C-3CB1-25D8-E053-CA2BA8C0148F,0205,0205042,0366037,161751,Zimnik,wieś,163.0,51.00940142018245,16.25605892567235
272D698C-3CB2-25D8-E053-CA2BA8C0148F,0205,0205042,0365990,86472,Niedaszów,wieś,305.0,51.02138604575417,16.26111920572046
272D698C-3CB0-25D8-E053-CA2BA8C0148F,0205,0205023,0189598,150440,Wolbromek,wieś,516.0,50.92845618438356,16.149407214524977
272D698C-3CD6-25D8-E053-CA2BA8C0148F,0205,0205032,0365575,15270,Chełmiec,wieś,332.0,51.04187256762413,16.0937490559154
272D698C-3CD7-25D8-E053-CA2BA8C0148F,0205,0205052,0366110,84592,Myślibórz,wieś,123.0,51.0246269728631,16.12019910707288
272D698C-3D08-25D8-E053-CA2BA8C0148F,0205,0205023,0189397,48067,Kaczorów,wieś,597.0,50.908199706502664,15.954854712374535
272D698C-3D0C-25D8-E053-CA2BA8C0148F,0205,0205023,0189500,120324,Sady Dolne,wieś,370.0,50.901147025966175,16.164984713359733
8BA90D6F-551F-4A48-94F3-A27016D88126,0205,0205032,0365730,124908,Słup,wieś,252.0,51.09637670362429,16.12412407498379
272D698C-3CBC-25D8-E053-CA2BA8C0148F,0205,0205032,0365598,172888,Raczyce,osada,5.0,51.040995307737596,16.080008339820772
272D698C-3D0B-25D8-E053-CA2BA8C0148F,0205,0205032,0365664,84150,Muchów,wieś,151.0,51.01228995824583,16.01204105169997
272D698C-3D0D-25D8-E053-CA2BA8C0148F,0205,0205052,0366184,145452,Wiadrów,wieś,459.0,50.97453880461087,16.17661915273695
E1B0E268-896F-4F7A-8C88-F112ED580CDB,0205,0205023,0189411,68376,Lipa,wieś,650.0,50.967205567113616,16.009461414715496
61C86940-ACDE-41C9-BC9E-8EE00A888337,0205,0205023,0189517,120325,Sady Górne,wieś,440.0,50.8745565266746,16.159555981863797
272D698C-3CAE-25D8-E053-CA2BA8C0148F,0205,0205052,0366190,160934,Zębowice,wieś,506.0,51.03472670104715,16.216773018884123
272D698C-3CAF-25D8-E053-CA2BA8C0148F,0205,0205052,0366149,98291,Paszowice,wieś,1431.0,51.01897549707659,16.16922750199326
272D698C-3CF5-25D8-E053-CA2BA8C0148F,0205,0205062,0368310,126019,Sobolew,wieś,92.0,51.11714364062988,16.441966743515337
2ac58bc1-f494-11ed-8f98-e454e883742c,0205,0205032,1063480,185782,Słup-Osiedle,osiedle,3.0,51.086036430954344,16.149496591317853
2ac7d5af-f494-11ed-8a5d-e454e883742c,0205,0205032,0365641,7565,Bogaczów,osada,20.0,51.068797142037084,16.06778287377852
272D698C-3CB8-25D8-E053-CA2BA8C0148F,0205,0205062,0368349,1096,Augustów,osada,7.0,51.10903734465761,16.35113434132259
272D698C-3CE3-25D8-E053-CA2BA8C0148F,0205,0205023,0189546,172887,Bolków-Zdrój,przysiółek,29.0,50.92589775155824,16.070169064047352
272D698C-3CC3-25D8-E053-CA2BA8C0148F,0205,0205023,0189523,29945,Figlów,przysiółek,18.0,50.86754955066057,16.124292021441146
272D698C-3D06-25D8-E053-CA2BA8C0148F,0205,0205023,0189486,141920,Twardowice,przysiółek,37.0,50.90204142550284,15.987502964831183
272D698C-3CE2-25D8-E053-CA2BA8C0148F,0205,0205023,0189428,39485,Grudno,wieś,60.0,50.9575499716601,16.033829256325664
272D698C-3CF6-25D8-E053-CA2BA8C0148F,0205,0205062,0368177,12855,Budziszów Mały,wieś,148.0,51.09558575585424,16.46257262652777
272D698C-3CB9-25D8-E053-CA2BA8C0148F,0205,0205023,0189457,114314,Radzimowice,osada,18.0,50.94060793018799,15.974846911449726
272D698C-3CE7-25D8-E053-CA2BA8C0148F,0205,0205011,0954136,129816,Stary Jawor,część miasta,836.0,51.07607015201718,16.16137315138047
272D698C-3CE0-25D8-E053-CA2BA8C0148F,0205,0205052,0366066,48921,Kamienica,osada,4.0,50.98203914658661,16.096350390604293
272D698C-3CE4-25D8-E053-CA2BA8C0148F,0205,0205023,0189374,46908,Jeżów,przysiółek,10.0,50.93529796015496,16.0704765950792
272D698C-3CC6-25D8-E053-CA2BA8C0148F,0205,0205062,0368250,24874,Dobrzany,osada,2.0,51.09283476516551,16.361006681771045
272D698C-3CEE-25D8-E053-CA2BA8C0148F,0205,0205042,0365919,3129,Barycz,wieś,46.0,51.100735228143925,16.249386606078037
272D698C-3CFB-25D8-E053-CA2BA8C0148F,0205,0205062,0368208,38156,Granowice,wieś,233.0,51.0768395149792,16.350083923554074
272D698C-3CE5-25D8-E053-CA2BA8C0148F,0205,0205023,0189569,177823,Dolinka,przysiółek,70.0,50.93027562701087,16.119591682378342
272D698C-3CBD-25D8-E053-CA2BA8C0148F,0205,0205052,1004260,177825,Kobylica,osada,4.0,51.01762658167265,16.121845373857003
272D698C-3CDE-25D8-E053-CA2BA8C0148F,0205,0205042,1004247,125838,Snowidza Dolna,część wsi,94.0,51.08895658904034,16.25860472764513
272D698C-3CBE-25D8-E053-CA2BA8C0148F,0205,0205052,1004276,177826,Osiębórz,przysiółek,22.0,50.999220963558244,16.19652675546581
272D698C-3CDC-25D8-E053-CA2BA8C0148F,0205,0205062,0368272,187061,Przybędów,część wsi,6.0,51.09760456543312,16.25564066987824
272D698C-3CDD-25D8-E053-CA2BA8C0148F,0205,0205042,1004253,125839,Snowidza Górna,część wsi,71.0,51.072430311001085,16.24559410513917
272D698C-3CBB-25D8-E053-CA2BA8C0148F,0205,0205052,0366089,121995,Siedmica,przysiółek,26.0,50.995767124512724,16.091399122473003
272D698C-3CC8-25D8-E053-CA2BA8C0148F,0205,0205052,0366050,38561,Grobla,wieś,91.0,50.98463973762056,16.11312204594936
272D698C-3CC9-25D8-E053-CA2BA8C0148F,0205,0205052,0366178,126164,Sokola,wieś,168.0,50.981453000019805,16.146227320857584
272D698C-3CC5-25D8-E053-CA2BA8C0148F,0205,0205023,0189434,84152,Muchówek,kolonia,13.0,50.98627218249165,16.004744377192505
272D698C-3CB6-25D8-E053-CA2BA8C0148F,0205,0205052,0366155,106851,Pogwizdów,wieś,416.0,50.96606153768333,16.08755147619075
272D698C-3CB4-25D8-E053-CA2BA8C0148F,0205,0205023,0189368,35096,Gorzanowice,wieś,74.0,50.9432967154453,16.078936182349494
272D698C-3CC2-25D8-E053-CA2BA8C0148F,0205,0205042,0366014,125837,Snowidza,wieś,958.0,51.07868317681814,16.24928124450175
272D698C-3CB5-25D8-E053-CA2BA8C0148F,0205,0205052,0366103,66147,Kwietniki,wieś,230.0,50.96092982833418,16.13369709959836
272D698C-3CB7-25D8-E053-CA2BA8C0148F,0205,0205023,0189380,45113,Jastrowiec,wieś,172.0,50.95779839964364,16.04692737291391
272D698C-3CFA-25D8-E053-CA2BA8C0148F,0205,0205062,0368214,46296,Jenków,wieś,161.0,51.06927722274876,16.38813012843739
272D698C-3D04-25D8-E053-CA2BA8C0148F,0205,0205023,0189575,147059,Wierzchosławice,wieś,793.0,50.895098948637866,16.092562304236814
272D698C-3CD8-25D8-E053-CA2BA8C0148F,0205,0205023,0189463,89115,Nowe Rochowice,wieś,45.0,50.93715690083455,16.04057673379293
272D698C-3CED-25D8-E053-CA2BA8C0148F,0205,0205042,0365931,34258,Godziszowa,wieś,318.0,51.09571058140467,16.20937705898959
272D698C-3CEA-25D8-E053-CA2BA8C0148F,0205,0205032,0365747,127862,Stanisławów,wieś,131.0,51.06865028491476,16.004739969330476
272D698C-3D05-25D8-E053-CA2BA8C0148F,0205,0205023,0189530,129321,Stare Rochowice,wieś,358.0,50.91956529644579,16.037839444595328
272D698C-3CDA-25D8-E053-CA2BA8C0148F,0205,0205011,0954120,45443,Jawor,miasto,20552.0,51.06816750527844,16.18641323559481
272D698C-3D0F-25D8-E053-CA2BA8C0148F,0205,0205032,0365701,111420,Przybyłowice,wieś,236.0,51.12309056862204,16.15268617807981
272D698C-3CC4-25D8-E053-CA2BA8C0148F,0205,0205032,0365581,46356,Jerzyków,przysiółek,36.0,51.03995857556282,16.09750436029338
272D698C-3D07-25D8-E053-CA2BA8C0148F,0205,0205023,0189470,102502,Płonina,wieś,108.0,50.90377694215022,16.00243447122873
272D698C-3D03-25D8-E053-CA2BA8C0148F,0205,0205023,0189492,109834,Półwsie,wieś,58.0,50.87836874033192,16.115320236895375
272D698C-3CE9-25D8-E053-CA2BA8C0148F,0205,0205032,0365612,168194,Kondratów,wieś,271.0,51.0497620663088,15.966766806746092
272D698C-3D02-25D8-E053-CA2BA8C0148F,0205,0205032,0365629,76994,Małuszów,wieś,340.0,51.11065833750035,16.175356944539807
272D698C-3CD9-25D8-E053-CA2BA8C0148F,0205,0205042,0365948,39822,Grzegorzów,wieś,123.0,51.06044982400203,16.240753426284893
272D698C-3CDB-25D8-E053-CA2BA8C0148F,0205,0205032,0365687,101416,Piotrowice,wieś,1076.0,51.05704286956851,16.14282519455367
272D698C-3CE8-25D8-E053-CA2BA8C0148F,0205,0205032,1063474,198518,Piotrowice-Osiedle,osiedle,126.0,51.054856357476254,16.16439218034445
272D698C-3CF4-25D8-E053-CA2BA8C0148F,0205,0205062,0368220,52602,Kępy,wieś,128.0,51.11826722463109,16.389469487581156
272D698C-3CBA-25D8-E053-CA2BA8C0148F,0205,0205042,0365983,118987,Rybno,przysiółek,20.0,51.049028592408845,16.240058171382593
272D698C-3CC7-25D8-E053-CA2BA8C0148F,0205,0205052,0366132,88483,Nowa Wieś Mała,wieś,29.0,50.98431907119938,16.05784973543982
272D698C-3CF9-25D8-E053-CA2BA8C0148F,0205,0205062,0368154,5293,Bielany,wieś,83.0,51.07773652571885,16.410000203290377
272D698C-3CF7-25D8-E053-CA2BA8C0148F,0205,0205062,0368237,58914,Kosiska,wieś,142.0,51.120753042588625,16.417517184944227
272D698C-3CE6-25D8-E053-CA2BA8C0148F,0205,0205032,0365658,88060,Nowa Męcinka,przysiółek,173.0,51.07054236245179,16.121893134707307
272D698C-3CF0-25D8-E053-CA2BA8C0148F,0205,0205062,0368266,98570,Pawłowice Wielkie,wieś,134.0,51.1011331206812,16.274166013834403
272D698C-3D0E-25D8-E053-CA2BA8C0148F,0205,0205052,0366043,8051,Bolkowice,wieś,179.0,50.994510781123104,16.194129551177628
272D698C-3CEB-25D8-E053-CA2BA8C0148F,0205,0205032,0365718,121692,Sichów,wieś,324.0,51.09131459987295,16.038978046381438
272D698C-3CF3-25D8-E053-CA2BA8C0148F,0205,0205062,0368160,5827,Biernatki,wieś,121.0,51.139345645475295,16.35326581418173
272D698C-3CF8-25D8-E053-CA2BA8C0148F,0205,0205062,0368183,12856,Budziszów Wielki,wieś,582.0,51.09002917338329,16.43142719349426
272D698C-3CC0-25D8-E053-CA2BA8C0148F,0205,0205042,0365977,84116,Mściwojów,wieś,439.0,51.043507011584175,16.264860663204328
272D698C-3CEC-25D8-E053-CA2BA8C0148F,0205,0205032,0365724,121695,Sichówek,wieś,68.0,51.11047583880895,16.061208462601037
272D698C-3CE1-25D8-E053-CA2BA8C0148F,0205,0205052,0366126,88502,Nowa Wieś Wielka,wieś,116.0,51.000893761335675,16.051145484191228
272D698C-3CBF-25D8-E053-CA2BA8C0148F,0205,0205042,0365954,70418,Luboradz,wieś,185.0,51.06162881518209,16.281875643448288
272D698C-3CF2-25D8-E053-CA2BA8C0148F,0205,0205062,0368332,144650,Wądroże Wielkie,wieś,661.0,51.1160694422333,16.345945073044717
2B016DC2-234A-4692-E053-CA2BA8C02B3A,0206,0206072,0191388,39638,Gruszków,wieś,120.0,50.81998918628156,15.879067524786286
272D698C-3CCB-25D8-E053-CA2BA8C0148F,0205,0205062,0368295,114943,Rąbienice,wieś,41.0,51.09902333134069,16.393841447835158
272D698C-3CC1-25D8-E053-CA2BA8C0148F,0205,0205042,0366008,122072,Siekierzyce,wieś,136.0,51.0294267371727,16.235601754185193
272D698C-3CDF-25D8-E053-CA2BA8C0148F,0205,0205032,0365641,7565,Bogaczów,osada,20.0,51.07371430081371,16.063792252545078
2B016DC2-2346-4692-E053-CA2BA8C02B3A,0206,0206052,0189701,79642,Miedzianka,wieś,67.0,50.877405475446395,15.94289695322429
2B016DC2-2347-4692-E053-CA2BA8C02B3A,0206,0206052,0189670,44103,Janowice Wielkie,wieś,1930.0,50.870006713914215,15.926687554251474
2B016DC2-2348-4692-E053-CA2BA8C02B3A,0206,0206052,0189718,82099,Mniszków,wieś,86.0,50.85635911689151,15.946996421382599
2B016DC2-2349-4692-E053-CA2BA8C02B3A,0206,0206052,0189730,140887,Trzcińsko,wieś,536.0,50.87658629718389,15.884034382801026
2B016DC2-234B-4692-E053-CA2BA8C02B3A,0206,0206021,0936078,60153,Kowary,miasto,9493.0,50.780862941234574,15.840717686693194
2B016DC2-234C-4692-E053-CA2BA8C02B3A,0206,0206072,0191431,73144,Łomnica,wieś,1880.0,50.86551281782499,15.796530332005345
2B016DC2-234D-4692-E053-CA2BA8C02B3A,0206,0206072,0191448,84474,Mysłakowice,wieś,4107.0,50.8389572925687,15.778610140320932
2B016DC2-234E-4692-E053-CA2BA8C02B3A,0206,0206082,0192146,127960,Staniszów,wieś,966.0,50.8506102855952,15.732369426565054
2B016DC2-2352-4692-E053-CA2BA8C02B3A,0206,0206011,0936032,50906,Karpacz,miasto,4083.0,50.76246833245435,15.741034240029087
2B016DC2-234F-4692-E053-CA2BA8C02B3A,0206,0206082,0192070,77520,Marczyce,wieś,180.0,50.83628581934034,15.707549471239533
2B016DC2-2350-4692-E053-CA2BA8C02B3A,0206,0206082,0192100,104622,Podgórzyn,wieś,1674.0,50.828395084438185,15.686800687263105
2B016DC2-2351-4692-E053-CA2BA8C02B3A,0206,0206082,0192057,8949,Borowice,wieś,155.0,50.782952189779756,15.691543723643393
2B016DC2-2356-4692-E053-CA2BA8C02B3A,0206,0206092,0192436,149562,Wojcieszyce,wieś,1212.0,50.8819015759805,15.631541994056196
2B016DC2-2353-4692-E053-CA2BA8C02B3A,0206,0206062,0189820,151828,Wrzeszczyn,wieś,76.0,50.94553839161272,15.650593172371122
2B016DC2-2354-4692-E053-CA2BA8C02B3A,0206,0206092,0192413,118948,Rybnica,wieś,725.0,50.91285094770152,15.630615485597513
2B016DC2-2355-4692-E053-CA2BA8C02B3A,0206,0206092,0192324,2708,Barcinek,wieś,479.0,50.93939032929044,15.606627621567299
2B016DC2-2357-4692-E053-CA2BA8C02B3A,0206,0206092,0192420,128180,Stara Kamienica,wieś,1187.0,50.91972680231694,15.57233889608958
2B016DC2-2358-4692-E053-CA2BA8C02B3A,0206,0206092,0192347,76356,Mała Kamienica,wieś,197.0,50.908598760502436,15.528344933088817
2B016DC2-2359-4692-E053-CA2BA8C02B3A,0206,0206092,0192301,872,Antoniów,wieś,94.0,50.90407361955497,15.496297225441305
2B016DC2-235A-4692-E053-CA2BA8C02B3A,0206,0206092,0192360,57654,Kopaniec,wieś,343.0,50.86861665874657,15.510625165764948
2B016DC2-235B-4692-E053-CA2BA8C02B3A,0206,0206082,1063853,31315,Gajniki,część wsi,28.0,50.80476652855696,15.702889572960453
2B016DC2-235C-4692-E053-CA2BA8C02B3A,0206,0206082,1063830,3043,Broniów,część wsi,36.0,50.80070223041276,15.69583651835567
2B016DC2-2360-4692-E053-CA2BA8C02B3A,0206,0206072,1063824,201328,Skiba,część wsi,38.0,50.82742615939268,15.79781016039328
2B016DC2-235D-4692-E053-CA2BA8C02B3A,0206,0206072,1063787,20579,Czestków,przysiółek,92.0,50.836536885288105,15.760557812738195
2B016DC2-235E-4692-E053-CA2BA8C02B3A,0206,0206082,1063847,20488,Czerwoniak,część wsi,48.0,50.81185361852009,15.703201231027958
2B016DC2-235F-4692-E053-CA2BA8C02B3A,0206,0206041,1063907,201333,Białka,część miasta,500.0,50.83654056900348,15.503778492272131
2B016DC2-2361-4692-E053-CA2BA8C02B3A,0206,0206082,1063876,201220,Raszków,część wsi,8.0,50.79624952485151,15.717782998522472
2B016DC2-2362-4692-E053-CA2BA8C02B3A,0206,0206011,1063764,201216,Wodna,część miasta,4.0,50.74971007357946,15.705722796370083
2B016DC2-2364-4692-E053-CA2BA8C02B3A,0206,0206072,0191402,172890,Szwajcarka,inny obiekt,2.0,50.86351791583793,15.873124935564862
2B016DC2-2365-4692-E053-CA2BA8C02B3A,0206,0206021,0936109,172889,Radociny,część miasta,604.0,50.79684440280311,15.836722651302814
2B016DC2-2366-4692-E053-CA2BA8C02B3A,0206,0206082,0192123,171420,Odrodzenie,inny obiekt,2.0,50.76332448756124,15.637415481603561
2B016DC2-2367-4692-E053-CA2BA8C02B3A,0206,0206092,0192330,16511,Chromiec,wieś,179.0,50.89174929566126,15.516840173600684
2B016DC2-236B-4692-E053-CA2BA8C02B3A,0206,0206082,0192152,136768,Ścięgny,wieś,1003.0,50.79299737223508,15.780236667886262
2B016DC2-2368-4692-E053-CA2BA8C02B3A,0206,0206072,1063793,15136,Gąska,część wsi,88.0,50.8044462373249,15.801905629700517
2B016DC2-2369-4692-E053-CA2BA8C02B3A,0206,0206021,0936115,149622,Wojków,część miasta,802.0,50.80861370457693,15.843609239182635
2B016DC2-236A-4692-E053-CA2BA8C02B3A,0206,0206011,0936061,147650,Wilcza Poręba,część miasta,136.0,50.76555100891585,15.763725361870945
2B016DC2-236C-4692-E053-CA2BA8C02B3A,0206,0206041,0936440,135573,Szklarska Poręba Średnia,część miasta,483.0,50.84394467412375,15.539467676315498
2B016DC2-236D-4692-E053-CA2BA8C02B3A,0206,0206041,0936428,135572,Szklarska Poręba Górna,część miasta,1200.0,50.824266308692145,15.522141042818816
2B016DC2-2371-4692-E053-CA2BA8C02B3A,0206,0206072,0191365,13253,Bukowiec,wieś,572.0,50.82319566311245,15.828385809317579
2B016DC2-236E-4692-E053-CA2BA8C02B3A,0206,0206041,0936411,135571,Szklarska Poręba Dolna,część miasta,500.0,50.84146445573842,15.556078287798154
2B016DC2-236F-4692-E053-CA2BA8C02B3A,0206,0206041,0936405,135526,Szklarka,część miasta,50.0,50.824879951571674,15.545874420717825
2B016DC2-2370-4692-E053-CA2BA8C02B3A,0206,0206082,1063899,133270,Suchy Świerk,część wsi,8.0,50.83454313437504,15.743223860965733
2B016DC2-2372-4692-E053-CA2BA8C02B3A,0206,0206072,0191454,132174,Strużnica,wieś,54.0,50.83291589536335,15.903126630673459
2B016DC2-2373-4692-E053-CA2BA8C02B3A,0206,0206082,0192130,126875,Sosnówka,wieś,1064.0,50.81116485410796,15.723705112022751
2B016DC2-2374-4692-E053-CA2BA8C02B3A,0206,0206092,0192353,126776,Sosnka,część wsi,52.0,50.91393983462725,15.519248412936804
2B016DC2-2378-4692-E053-CA2BA8C02B3A,0206,0206021,1063770,114349,Ciszyca,część wsi,15.0,50.80620361557892,15.81343186570564
2B016DC2-2375-4692-E053-CA2BA8C02B3A,0206,0206082,1063860,114240,Radzicz,część wsi,56.0,50.81788613196343,15.742103276513536
2B016DC2-2376-4692-E053-CA2BA8C02B3A,0206,0206082,0192092,10971,Brzezie Karkonoskie,część wsi,144.0,50.79572434372519,15.760849464936223
2B016DC2-2377-4692-E053-CA2BA8C02B3A,0206,0206072,1063818,108325,Popów,część wsi,136.0,50.818504133154725,15.798438659935965
2B016DC2-237C-4692-E053-CA2BA8C02B3A,0206,0206041,0936368,135570,Szklarska Poręba,miasto,5399.0,50.81878869321589,15.462612115740109
2B016DC2-2379-4692-E053-CA2BA8C02B3A,0206,0206011,0936055,102639,Płóczki,część miasta,800.0,50.781945824023936,15.761052963533144
2B016DC2-237A-4692-E053-CA2BA8C02B3A,0206,0206092,0192407,87994,Nowa Kamienica,wieś,146.0,50.92806088010056,15.526708758129635
2B016DC2-237B-4692-E053-CA2BA8C02B3A,0206,0206021,0936090,104492,Podgórze,część miasta,96.0,50.76606995842152,15.848321490731182
2B016DC2-237D-4692-E053-CA2BA8C02B3A,0206,0206062,0189813,121847,Siedlęcin,wieś,1449.0,50.93497963947834,15.683261562802397
2B016DC2-2320-4692-E053-CA2BA8C02B3A,0206,0206031,0936285,99984,Piechowice,miasto,5577.0,50.831445349719516,15.580181067809356
2B016DC2-231D-4692-E053-CA2BA8C02B3A,0206,0206031,0936322,96391,Pakoszów,część miasta,354.0,50.85964908006096,15.618932541614319
2B016DC2-231E-4692-E053-CA2BA8C02B3A,0206,0206082,1063882,155210,Sosnowica,część wsi,76.0,50.836095868756395,15.662737498943168
2B016DC2-231F-4692-E053-CA2BA8C02B3A,0206,0206082,0192169,155206,Zachełmie,wieś,366.0,50.81961119623686,15.654085440091063
2B016DC2-2324-4692-E053-CA2BA8C02B3A,0206,0206041,1061802,93520,Orle,część miasta,4.0,50.8159819095461,15.382431215800155
2B016DC2-2321-4692-E053-CA2BA8C02B3A,0206,0206011,0936049,5860,Karpacz Górny,część miasta,392.0,50.77702437067884,15.72633585183125
2B016DC2-2322-4692-E053-CA2BA8C02B3A,0206,0206082,0192117,111124,Przesieka,wieś,442.0,50.7849042574332,15.659365173192414
2B016DC2-2323-4692-E053-CA2BA8C02B3A,0206,0206031,0936339,99815,Piastów,część miasta,380.0,50.86921264037926,15.604073272565582
2B016DC2-2325-4692-E053-CA2BA8C02B3A,0206,0206082,0192086,80739,Miłków,wieś,1697.0,50.80536080495543,15.758397048113899
2B016DC2-2329-4692-E053-CA2BA8C02B3A,0206,0206072,0191477,7276,Bobrów,wieś,208.0,50.87028322040055,15.847119696617964
2B016DC2-2326-4692-E053-CA2BA8C02B3A,0206,0206092,0192376,80166,Międzylesie,część wsi,20.0,50.89626193059108,15.531113856084236
2B016DC2-2327-4692-E053-CA2BA8C02B3A,0206,0206031,0936316,79281,Michałowice,część miasta,335.0,50.83143478691626,15.586970588090644
2B016DC2-2328-4692-E053-CA2BA8C02B3A,0206,0206041,0936397,78160,Marysin,część miasta,400.0,50.819794926577096,15.522157761817294
2B016DC2-232A-4692-E053-CA2BA8C02B3A,0206,0206021,0936084,63021,Krzaczyna,część miasta,321.0,50.78898081085365,15.800743986623791
2B016DC2-232E-4692-E053-CA2BA8C02B3A,0206,0206092,0192399,57668,Kopanina,część wsi,56.0,50.87953466218015,15.5802948318601
2B016DC2-232B-4692-E053-CA2BA8C02B3A,0206,0206092,0192382,62076,Kromnów,wieś,454.0,50.89030247148434,15.581165873630285
2B016DC2-232C-4692-E053-CA2BA8C02B3A,0206,0206072,0191425,62032,Krogulec,wieś,136.0,50.838778138706125,15.836290841648298
2B016DC2-232D-4692-E053-CA2BA8C02B3A,0206,0206072,0191419,59132,Kostrzyca,wieś,891.0,50.81012456975224,15.800057157745767
2B016DC2-232F-4692-E053-CA2BA8C02B3A,0206,0206072,0191394,50981,Karpniki,wieś,657.0,50.84932680073326,15.870036827877877
2B016DC2-2330-4692-E053-CA2BA8C02B3A,0206,0206072,1063801,46951,Jeżyny,część wsi,96.0,50.81224531323505,15.819192426560548
2B016DC2-2331-4692-E053-CA2BA8C02B3A,0206,0206072,0191483,44993,Januszowice,część wsi,20.0,50.892478386875,15.842043797871234
2B016DC2-2332-4692-E053-CA2BA8C02B3A,0206,0206092,0192318,44645,Jaroszyce,część wsi,48.0,50.90587978458577,15.49383799426183
2B016DC2-2333-4692-E053-CA2BA8C02B3A,0206,0206041,0936380,43473,Jakuszyce,część miasta,20.0,50.81906148694857,15.435793823206312
2B016DC2-2334-4692-E053-CA2BA8C02B3A,0206,0206041,0936374,4270,Biała Dolina,część miasta,90.0,50.840712474222265,15.51796677375236
2B016DC2-2339-4692-E053-CA2BA8C02B3A,0206,0206052,0189724,113978,Radomierz,wieś,455.0,50.90717270174747,15.904206288147865
2B016DC2-2335-4692-E053-CA2BA8C02B3A,0206,0206041,0936434,42181,Szklarska Poręba-Huta,część miasta,40.0,50.825876375109196,15.505962996851977
2B016DC2-2336-4692-E053-CA2BA8C02B3A,0206,0206031,0936291,36977,Górzyniec,część miasta,802.0,50.85546914095635,15.57279841940374
2B016DC2-2337-4692-E053-CA2BA8C02B3A,0206,0206082,0192063,33335,Głębock,wieś,105.0,50.82708168989199,15.750925158247986
2B016DC2-233A-4692-E053-CA2BA8C02B3A,0206,0206052,0189687,56579,Komarno,wieś,879.0,50.92953576653553,15.872012979235263
2B016DC2-233E-4692-E053-CA2BA8C02B3A,0206,0206062,0189747,16566,Chrośnica,wieś,175.0,50.97770824792109,15.791506321333381
2B016DC2-233B-4692-E053-CA2BA8C02B3A,0206,0206052,0189693,56583,Chałupy,część wsi,300.0,50.92171626282758,15.85187591670654
2B016DC2-233C-4692-E053-CA2BA8C02B3A,0206,0206072,0191460,149469,Wojanów,wieś,456.0,50.88379135844432,15.829041948967927
2B016DC2-233D-4692-E053-CA2BA8C02B3A,0206,0206062,0189776,44302,Janówek,wieś,173.0,50.99456327041088,15.758461866098715
2B016DC2-233F-4692-E053-CA2BA8C02B3A,0206,0206062,0189760,29288,Dziwiszów,wieś,1433.0,50.944547725302286,15.796475785336789
2B016DC2-2340-4692-E053-CA2BA8C02B3A,0206,0206062,0189799,102584,Płoszczyna,wieś,293.0,50.96104633180217,15.740921163900373
2B016DC2-2341-4692-E053-CA2BA8C02B3A,0206,0206062,0189753,20138,Czernica,wieś,667.0,50.983497746606204,15.717739276288652
2B016DC2-2342-4692-E053-CA2BA8C02B3A,0206,0206062,0189807,102587,Płoszczynka,część wsi,60.0,50.95810567006961,15.713396383405568
2B016DC2-2343-4692-E053-CA2BA8C02B3A,0206,0206062,0189782,46919,Jeżów Sudecki,wieś,3088.0,50.93745398004554,15.740805028511362
2AF9217F-7BA1-FFE7-E053-CA2BA8C0135F,0207,0207033,0190549,97003,Paprotki,wieś,93.0,50.72826850176851,15.950787565563738
2B016DC2-2344-4692-E053-CA2BA8C02B3A,0206,0206072,0191371,22219,Dąbrowica,wieś,447.0,50.892674919487995,15.805607426873426
2B016DC2-2345-4692-E053-CA2BA8C02B3A,0206,0206062,1063741,201195,Łapiguz,część wsi,150.0,50.914135958238994,15.67783810939807
2AF9217F-7B9E-FFE7-E053-CA2BA8C0135F,0207,0207033,0190532,96202,Paczyn,wieś,60.0,50.74137218863533,15.90791416167528
2AF9217F-7B9F-FFE7-E053-CA2BA8C0135F,0207,0207033,0190526,93290,Opawa,wieś,306.0,50.69905411960154,15.89641573419058
2AF9217F-7BA0-FFE7-E053-CA2BA8C0135F,0207,0207042,0191081,113126,Pustelnik,wieś,115.0,50.8489114259486,16.06104261187053
2AF9217F-7BA2-FFE7-E053-CA2BA8C0135F,0207,0207022,0189865,24760,Dobromyśl,wieś,57.0,50.687648248400045,16.123050430704655
2AF9217F-7BAA-FFE7-E053-CA2BA8C0135F,0207,0207033,0936196,104502,Jurkowice,część miasta,,50.69611749429956,15.993620897277774
2AF9217F-7BA3-FFE7-E053-CA2BA8C0135F,0207,0207033,0190555,128042,Stara Białka,wieś,191.0,50.7448582562679,15.956173546207461
2AF9217F-7BA4-FFE7-E053-CA2BA8C0135F,0207,0207022,0189954,91396,Ogorzelec,wieś,400.0,50.75936180536646,15.882991104481512
2AF9217F-7BA5-FFE7-E053-CA2BA8C0135F,0207,0207042,0191112,20696,Częstocin,część wsi,,50.89793503004098,15.980560550773676
2AF9217F-7BA6-FFE7-E053-CA2BA8C0135F,0207,0207022,0189902,55291,Kochanów,wieś,179.0,50.69858662035045,16.156863979882107
2AF9217F-7BA7-FFE7-E053-CA2BA8C0135F,0207,0207042,0191098,121543,Sędzisław,wieś,530.0,50.81748984836808,16.06479248231547
2AF9217F-7BA8-FFE7-E053-CA2BA8C0135F,0207,0207011,1004313,21270,Daleszów Górny,część miasta,,50.777701019233064,16.01532449602593
2AF9217F-7BA9-FFE7-E053-CA2BA8C0135F,0207,0207033,0190503,86455,Niedamirów,wieś,149.0,50.687197625441264,15.876694773091645
2AF9217F-7BAE-FFE7-E053-CA2BA8C0135F,0207,0207033,0190578,142941,Uniemyśl,wieś,76.0,50.63439183720085,16.039415877920067
2AF9217F-7BAB-FFE7-E053-CA2BA8C0135F,0207,0207033,0936204,105193,Ulanowice,część miasta,,50.693534509509306,16.02095843110574
2AF9217F-7BAC-FFE7-E053-CA2BA8C0135F,0207,0207042,0191046,25776,Domanów,wieś,236.0,50.87110621159528,16.06262794016827
2AF9217F-7BAD-FFE7-E053-CA2BA8C0135F,0207,0207022,0189859,22738,Dębrznik,wieś,272.0,50.81226346465448,16.02567258101449
2AF9217F-7BAF-FFE7-E053-CA2BA8C0135F,0207,0207042,0191129,147275,Wieściszowice,wieś,408.0,50.8312595154139,15.967856371990148
2AF9217F-7BB0-FFE7-E053-CA2BA8C0135F,0207,0207042,0191030,17253,Ciechanowice,wieś,845.0,50.86605321847103,15.979497978880946
2AF9217F-7BB1-FFE7-E053-CA2BA8C0135F,0207,0207022,0189871,35133,Gorzeszów,wieś,262.0,50.706074973329656,16.110286185046473
2AF9217F-7BB2-FFE7-E053-CA2BA8C0135F,0207,0207022,0189977,101602,Pisarzowice,wieś,891.0,50.7849036086382,15.953417858899265
2AF9217F-7BB3-FFE7-E053-CA2BA8C0135F,0207,0207033,0936180,70022,Lubawka,miasto,5340.0,50.69780373364596,16.008476071998448
2AF9217F-7BB4-FFE7-E053-CA2BA8C0135F,0207,0207011,1004320,38994,Grodztwo,część miasta,,50.78785238326743,16.030204131527512
2AF9217F-7BB5-FFE7-E053-CA2BA8C0135F,0207,0207022,0189983,110827,Przedwojów,wieś,650.0,50.74995339903964,16.01696794065011
2AF9217F-7BB9-FFE7-E053-CA2BA8C0135F,0207,0207042,0191075,98017,Pastewnik,wieś,251.0,50.88419948419225,16.035235789305986
2AF9217F-7BB6-FFE7-E053-CA2BA8C0135F,0207,0207042,0191069,85734,Nagórnik,wieś,62.0,50.866068400829064,16.099480959012038
2AF9217F-7BB7-FFE7-E053-CA2BA8C0135F,0207,0207022,0190006,114773,Raszów,wieś,493.0,50.805382874987636,15.983413480526478
2AF9217F-7BB8-FFE7-E053-CA2BA8C0135F,0207,0207022,0190012,115537,Rędziny,wieś,211.0,50.81754974707977,15.938204107316317
2AF9217F-7BBA-FFE7-E053-CA2BA8C0135F,0207,0207022,0189931,67469,Leszczyniec,wieś,452.0,50.78079349748653,15.902590078815681
2AF9217F-7BBB-FFE7-E053-CA2BA8C0135F,0207,0207022,0190029,134455,Szarocin,wieś,577.0,50.76285260126393,15.926120531158881
2AF9217F-7BBC-FFE7-E053-CA2BA8C0135F,0207,0207022,0189836,18495,Czadrów,wieś,812.0,50.761610581477704,16.062891637726807
2AF9217F-7BBD-FFE7-E053-CA2BA8C0135F,0207,0207033,0190495,81135,Miszkowice,wieś,513.0,50.71830951980838,15.923950129964693
2AF9217F-7BBE-FFE7-E053-CA2BA8C0135F,0207,0207011,0936026,49203,Kamienna Góra,miasto,16059.0,50.78244153396565,16.026571914995564
2AF9217F-7BBF-FFE7-E053-CA2BA8C0135F,0207,0207033,0190450,6492,Błażkowa,wieś,223.0,50.73553580602839,15.985396473331079
2AF9217F-7BC0-FFE7-E053-CA2BA8C0135F,0207,0207011,1004307,187067,Daleszów Dolny,część miasta,,50.777008215483,16.018661248134823
2AF9217F-7BC1-FFE7-E053-CA2BA8C0135F,0207,0207033,0190489,44510,Jarkowice,wieś,330.0,50.72688072389674,15.866059190694974
2AF9217F-7BC2-FFE7-E053-CA2BA8C0135F,0207,0207022,0189990,112818,Ptaszków,wieś,464.0,50.795342611893695,16.054688712471638
2AF9217F-7BC3-FFE7-E053-CA2BA8C0135F,0207,0207022,0189842,19357,Czarnów,wieś,65.0,50.80306556953522,15.912858209428073
2AF9217F-7B92-FFE7-E053-CA2BA8C0135F,0207,0207033,0190472,15331,Chełmsko Śląskie,wieś,1799.0,50.661718009355596,16.07835253486734
2AF9217F-7BC4-FFE7-E053-CA2BA8C0135F,0207,0207022,0190035,87865,Nowa Białka,wieś,1.0,50.74822505252727,15.934914336106814
2AF9217F-7B90-FFE7-E053-CA2BA8C0135F,0207,0207022,0189925,63361,Krzeszówek,wieś,101.0,50.719284826223934,16.096437139613045
2AF9217F-7B91-FFE7-E053-CA2BA8C0135F,0207,0207022,0189960,92963,Olszyny,wieś,305.0,50.68675521704357,16.065669914953972
2AF9217F-7B93-FFE7-E053-CA2BA8C0135F,0207,0207033,0190443,6489,Błażejów,wieś,299.0,50.66187745801987,16.032200096092332
2AF9217F-7B94-FFE7-E053-CA2BA8C0135F,0207,0207022,0189894,45439,Jawiszów,wieś,224.0,50.70663416122604,16.07030899762089
2AF9217F-7B95-FFE7-E053-CA2BA8C0135F,0207,0207022,0189888,43908,Janiszów,wieś,401.0,50.762598422308926,15.980743006776237
2AF9217F-7B96-FFE7-E053-CA2BA8C0135F,0207,0207022,0189919,63354,Krzeszów,wieś,1630.0,50.74151548509944,16.07652906210003
2AF9217F-7B9A-FFE7-E053-CA2BA8C0135F,0207,0207033,0190466,13528,Bukówka,wieś,248.0,50.710093821031826,15.966124726788035
2AF9217F-7B97-FFE7-E053-CA2BA8C0135F,0207,0207033,0190510,92078,Okrzeszyn,wieś,161.0,50.61535192354734,16.016677408913356
2AF9217F-7B98-FFE7-E053-CA2BA8C0135F,0207,0207042,0191052,77487,Marciszów,wieś,1404.0,50.83968242790939,16.020977064586873
2AF9217F-7B99-FFE7-E053-CA2BA8C0135F,0207,0207033,0190561,134745,Szczepanów,wieś,63.0,50.69524666649665,15.936136506941228
2AF9217F-7B9B-FFE7-E053-CA2BA8C0135F,0207,0207042,0191106,137703,Świdnik,wieś,286.0,50.88791566076533,15.994438866485984
2AF9217F-7B9C-FFE7-E053-CA2BA8C0135F,0207,0207022,0189948,68573,Lipienica,wieś,172.0,50.719909777252305,16.03831045324268
2AF9217F-7B9D-FFE7-E053-CA2BA8C0135F,0207,0207011,1004299,18496,Czadrówek,część miasta,,50.77179641686521,16.04554048293781
2F4C3942-DC6B-BB56-E053-CA2BA8C0AD88,0208,0208092,0853286,46351,Jerzykowice Małe,wieś,19.0,50.38765968851766,16.31304159084259
2F4C3942-DBE6-BB56-E053-CA2BA8C0AD88,0208,0208112,0853990,87936,Nowa Głuszyca,przysiółek,,50.64201880637532,16.387784202043505
2F4C3942-DBE7-BB56-E053-CA2BA8C0AD88,0208,0208063,0851471,88049,Nowa Łomnica,wieś,104.0,50.34927777928884,16.550215348887402
2F4C3942-DC26-BB56-E053-CA2BA8C0AD88,0208,0208063,0851695,151034,Wójtowice,wieś,125.0,50.31058732122049,16.550665590763813
2F4C3942-DC27-BB56-E053-CA2BA8C0AD88,0208,0208083,0853228,151063,Wójtówka,wieś,50.0,50.37180479724356,16.880891071245035
2F4C3942-DC28-BB56-E053-CA2BA8C0AD88,0208,0208072,1004359,177829,Siemków,osada,,50.49897270874888,16.636357508923876
2F4C3942-DC69-BB56-E053-CA2BA8C0AD88,0208,0208092,0853234,21462,Dańczów,wieś,128.0,50.426228229042785,16.28965738569821
2F4C3942-DC6A-BB56-E053-CA2BA8C0AD88,0208,0208092,0853240,21507,Darnków,wieś,36.0,50.448168293055005,16.320796614704992
2F4C3942-DC6C-BB56-E053-CA2BA8C0AD88,0208,0208092,0853317,46352,Jerzykowice Wielkie,wieś,101.0,50.440925683862446,16.28376939077322
2F4C3942-DC6D-BB56-E053-CA2BA8C0AD88,0208,0208103,0853754,47092,Jodłów,wieś,62.0,50.15977043171252,16.746475565694865
2F4C3942-DC6E-BB56-E053-CA2BA8C0AD88,0208,0208112,0854179,47519,Jugów,wieś,2588.0,50.63405529558088,16.521796362061988
2F4C3942-DC2D-BB56-E053-CA2BA8C0AD88,0208,0208103,0853748,45472,Jaworek,wieś,89.0,50.216392883713624,16.74069152290313
2F4C3942-DCB6-BB56-E053-CA2BA8C0AD88,0208,0208072,0852944,101774,Piszkowice,wieś,259.0,50.47017694624095,16.588344302111405
2F4C3942-DCB7-BB56-E053-CA2BA8C0AD88,0208,0208103,0853719,31310,Gajnik,wieś,107.0,50.192684085304485,16.71062999292596
2F4C3942-DBE8-BB56-E053-CA2BA8C0AD88,0208,0208072,0852890,77471,Marcinów,wieś,165.0,50.38863764238157,16.690160388732394
2F4C3942-DBE9-BB56-E053-CA2BA8C0AD88,0208,0208063,0851399,77752,Marianówka,wieś,49.0,50.25511955149777,16.732034888745677
2F4C3942-DC29-BB56-E053-CA2BA8C0AD88,0208,0208072,1004342,177830,Rybie,osada,,50.4969579176361,16.661479480810602
2F4C3942-DC2A-BB56-E053-CA2BA8C0AD88,0208,0208123,0854989,177832,Ratno-Wambierzyce,osada,,50.505600882902996,16.457926911888343
2F4C3942-DC2C-BB56-E053-CA2BA8C0AD88,0208,0208112,0854430,187072,Buczyna,osada leśna,,50.61432778600997,16.552124804646592
2F4C3942-DC70-BB56-E053-CA2BA8C0AD88,0208,0208112,0854200,47799,Jutroszów,część wsi,,50.61574409860427,16.541951909503457
2F4C3942-DC71-BB56-E053-CA2BA8C0AD88,0208,0208133,0855575,48932,Kamienica,wieś,64.0,50.256953454749144,16.88358015629762
2F4C3942-DC75-BB56-E053-CA2BA8C0AD88,0208,0208083,0853205,131339,Stójków,wieś,167.0,50.32205699899344,16.881417154243188
2F4C3942-DC72-BB56-E053-CA2BA8C0AD88,0208,0208133,0855658,129774,Stary Gierałtów,wieś,326.0,50.305787502802545,16.933762012233636
2F4C3942-DC73-BB56-E053-CA2BA8C0AD88,0208,0208063,0851637,130100,Stary Waliszów,wieś,607.0,50.31770547217726,16.689417506007878
2F4C3942-DC74-BB56-E053-CA2BA8C0AD88,0208,0208072,0853027,130116,Stary Wielisław,wieś,982.0,50.39784902641515,16.568687328869572
2F4C3942-DC76-BB56-E053-CA2BA8C0AD88,0208,0208133,0855664,131601,Strachocin,wieś,331.0,50.30645781918685,16.86761888006358
2F4C3942-DC77-BB56-E053-CA2BA8C0AD88,0208,0208133,0984545,131840,Stronie Śląskie,miasto,4652.0,50.29518990372486,16.8775097381275
2F4C3942-DCB8-BB56-E053-CA2BA8C0AD88,0208,0208123,0854920,31329,Gajów,wieś,48.0,50.530711461556784,16.423874048352136
2F4C3942-DCBD-BB56-E053-CA2BA8C0AD88,0208,0208123,0992220,64377,Księżno,osada,,50.5331936724927,16.509431662975967
2F4C3942-DCB9-BB56-E053-CA2BA8C0AD88,0208,0208143,0984605,3254,Batorów,część miasta,,50.43800545478385,16.426815382051164
2F4C3942-DCBA-BB56-E053-CA2BA8C0AD88,0208,0208103,0853725,34052,Gniewoszów,wieś,76.0,50.20015968829073,16.598317740358915
2F4C3942-DCBB-BB56-E053-CA2BA8C0AD88,0208,0208092,0853330,63964,Krzyżanów,wieś,34.0,50.39413001084292,16.287823826288076
2F4C3942-DCBE-BB56-E053-CA2BA8C0AD88,0208,0208031,0984120,64808,Kudowa-Zdrój,miasto,8758.0,50.450198354961415,16.258714477402194
2F4C3942-DBED-BB56-E053-CA2BA8C0AD88,0208,0208123,0855010,7790,Boguszowice,przysiółek,,50.468129843920224,16.54965050098178
2F4C3942-DBEA-BB56-E053-CA2BA8C0AD88,0208,0208133,0855606,88064,Nowa Morawa,wieś,64.0,50.24247320513384,16.907241038924415
2F4C3942-DBEB-BB56-E053-CA2BA8C0AD88,0208,0208041,0984278,88119,Nowa Ruda,miasto,19453.0,50.57111914098958,16.521058061415975
2F4C3942-DBEC-BB56-E053-CA2BA8C0AD88,0208,0208103,0853814,88220,Nowa Wieś,wieś,122.0,50.18685792231911,16.773083314886374
2F4C3942-DBEE-BB56-E053-CA2BA8C0AD88,0208,0208072,0852766,7819,Boguszyn,wieś,492.0,50.46750471108278,16.685054092622302
2F4C3942-DC31-BB56-E053-CA2BA8C0AD88,0208,0208123,1064108,123516,Skibin,część miasta,,50.50976989829941,16.379164891250337
2F4C3942-DC2E-BB56-E053-CA2BA8C0AD88,0208,0208092,0853270,45498,Jawornica,wieś,36.0,50.39181680695604,16.336687752141074
2F4C3942-DC2F-BB56-E053-CA2BA8C0AD88,0208,0208123,0855204,46056,Jelenia Głowa,przysiółek,,50.468848755445514,16.434994679289233
2F4C3942-DC30-BB56-E053-CA2BA8C0AD88,0208,0208092,0853300,46147,Jeleniów,wieś,474.0,50.41757775940335,16.26151741948974
2F4C3942-DC32-BB56-E053-CA2BA8C0AD88,0208,0208031,0984189,124633,Słone,część miasta,,50.44044386225793,16.216560346551606
2F4C3942-DC7B-BB56-E053-CA2BA8C0AD88,0208,0208112,0854156,23746,Dębówka,część wsi,,50.55495521559008,16.58323102997493
2F4C3942-DC78-BB56-E053-CA2BA8C0AD88,0208,0208092,0853381,161325,Zielone Ludowe,wieś,13.0,50.40353366441253,16.344230039215446
2F4C3942-DC79-BB56-E053-CA2BA8C0AD88,0208,0208041,1064019,161382,Dolsko,część miasta,,50.52908199588657,16.557320346348675
2F4C3942-DC7A-BB56-E053-CA2BA8C0AD88,0208,0208092,1061647,161736,Zimne Wody,osada,4.0,50.38239576696659,16.342826489214836
2F4C3942-DCC2-BB56-E053-CA2BA8C0AD88,0208,0208123,0855061,136839,Ścinawka Górna,wieś,583.0,50.54149318285935,16.467026954197003
2F4C3942-DCBF-BB56-E053-CA2BA8C0AD88,0208,0208092,0853346,65118,Kulin Kłodzki,wieś,24.0,50.421086480642806,16.331654099145613
2F4C3942-DCC0-BB56-E053-CA2BA8C0AD88,0208,0208072,0853056,136835,Ścinawica,wieś,309.0,50.47084343299902,16.644428943490713
2F4C3942-DCC1-BB56-E053-CA2BA8C0AD88,0208,0208123,0855032,136838,Ścinawka Dolna,wieś,1050.0,50.49565377126769,16.52947706642956
2F4C3942-DCC3-BB56-E053-CA2BA8C0AD88,0208,0208123,0855109,136840,Ścinawka Średnia,wieś,1951.0,50.5241086478439,16.497265529850793
2F4C3942-DCC4-BB56-E053-CA2BA8C0AD88,0208,0208112,0854475,137964,Świerki,wieś,480.0,50.631196842925696,16.419665102678593
2F4C3942-DCC5-BB56-E053-CA2BA8C0AD88,0208,0208112,0854498,137965,Świerki Dolne,przysiółek,,50.630187067476086,16.441267402783286
2F4C3942-DC35-BB56-E053-CA2BA8C0AD88,0208,0208103,0853866,125532,Smreczyna,wieś,192.0,50.13022664171251,16.66585269761804
2F4C3942-DBEF-BB56-E053-CA2BA8C0AD88,0208,0208103,0853783,79286,Michałowice,wieś,56.0,50.18489917754769,16.70698589974682
2F4C3942-DC33-BB56-E053-CA2BA8C0AD88,0208,0208143,0855948,124774,Słoszów,wieś,156.0,50.41210298501407,16.361119754473886
2F4C3942-DC34-BB56-E053-CA2BA8C0AD88,0208,0208041,0984344,124969,Słupiec,część miasta,,50.54279866165492,16.54628138422743
2F4C3942-DC7F-BB56-E053-CA2BA8C0AD88,0208,0208041,1064060,25096,Porąbka,część miasta,,50.56170843825383,16.541171068918484
2F4C3942-DC36-BB56-E053-CA2BA8C0AD88,0208,0208112,0854512,151854,Wrześnik,osada,,50.62884924864268,16.39436842176597
2F4C3942-DC37-BB56-E053-CA2BA8C0AD88,0208,0208083,0990801,151902,Wrzosówka,wieś,1.0,50.38292874547605,16.90255324707766
2F4C3942-DC7C-BB56-E053-CA2BA8C0AD88,0208,0208063,0851324,24235,Długopole-Zdrój,wieś,488.0,50.244321197807075,16.63093603350722
2F4C3942-DC7D-BB56-E053-CA2BA8C0AD88,0208,0208063,0851318,24236,Długopole Dolne,wieś,318.0,50.263812974277215,16.631524046388243
2F4C3942-DC7E-BB56-E053-CA2BA8C0AD88,0208,0208103,0853688,24237,Długopole Górne,wieś,658.0,50.22061910493917,16.636164717351672
2F4C3942-DCC6-BB56-E053-CA2BA8C0AD88,0208,0208063,0851525,102343,Pławnica,wieś,455.0,50.28252638637344,16.68330042462772
2F4C3942-DCC7-BB56-E053-CA2BA8C0AD88,0208,0208112,0854251,102698,Pniaki,część wsi,,50.621932846863835,16.532632988038763
2F4C3942-DC3A-BB56-E053-CA2BA8C0AD88,0208,0208112,0854423,187075,Huta Barbara,część wsi,,50.60327315827731,16.55827832148219
2F4C3942-DBF0-BB56-E053-CA2BA8C0AD88,0208,0208112,0854400,88470,Nowa Wieś Kłodzka,wieś,196.0,50.56900293401318,16.612891212200335
2F4C3942-DBF1-BB56-E053-CA2BA8C0AD88,0208,0208041,1064077,89239,Rękawczyn,część miasta,,50.53450669024771,16.554918269882727
2F4C3942-DBF2-BB56-E053-CA2BA8C0AD88,0208,0208112,0854162,89988,Nowy Dzikowiec,przysiółek,,50.57157656652765,16.54120247964347
2F4C3942-DC38-BB56-E053-CA2BA8C0AD88,0208,0208112,0854009,153278,Wyrębina,przysiółek,,50.648198447467166,16.408298043618732
2F4C3942-DC39-BB56-E053-CA2BA8C0AD88,0208,0208112,0854185,187073,Goliszyn,część wsi,,50.626456947728784,16.51967440286567
2F4C3942-DC3B-BB56-E053-CA2BA8C0AD88,0208,0208112,0854191,187076,Jastrzębiec,część wsi,,50.622223041004546,16.521945396578584
2F4C3942-DC3C-BB56-E053-CA2BA8C0AD88,0208,0208112,0854104,187102,Sobaniów,osada,,50.532157490155306,16.579819321221333
2F4C3942-DCCB-BB56-E053-CA2BA8C0AD88,0208,0208103,0853760,49532,Kamieńczyk,wieś,68.0,50.12004243634462,16.64167467482089
2F4C3942-DC80-BB56-E053-CA2BA8C0AD88,0208,0208083,0853139,52108,Kąty Bystrzyckie,wieś,54.0,50.31758266101531,16.83342861034652
2F4C3942-DC81-BB56-E053-CA2BA8C0AD88,0208,0208133,0855581,53812,Kletno,wieś,40.0,50.25859031044639,16.86816869140202
2F4C3942-DC82-BB56-E053-CA2BA8C0AD88,0208,0208021,0984077,54557,Kłodzko,miasto,23081.0,50.43670361277923,16.644839957747564
2F4C3942-DCC9-BB56-E053-CA2BA8C0AD88,0208,0208072,0852849,49009,Kamieniec,wieś,171.0,50.45740793931485,16.545783803326277
2F4C3942-DCCA-BB56-E053-CA2BA8C0AD88,0208,0208063,0851360,49176,Kamienna,wieś,40.0,50.28367573709668,16.75177213689058
2F4C3942-DCCC-BB56-E053-CA2BA8C0AD88,0208,0208123,0854937,50658,Karłów,wieś,51.0,50.470064178607906,16.359956898565137
2F4C3942-DBF6-BB56-E053-CA2BA8C0AD88,0208,0208031,0984172,112670,Pstrążna,część miasta,,50.47060288851261,16.261462954687694
2F4C3942-DBF3-BB56-E053-CA2BA8C0AD88,0208,0208063,0851413,79815,Mielnik,wieś,96.0,50.344341902748695,16.666061833223274
2F4C3942-DBF4-BB56-E053-CA2BA8C0AD88,0208,0208133,0855552,7990,Bolesławów,wieś,239.0,50.25207571503637,16.892227876456133
2F4C3942-DBF5-BB56-E053-CA2BA8C0AD88,0208,0208063,0851420,80149,Międzygórze,wieś,371.0,50.22532403449158,16.792319061138905
2F4C3942-DBF7-BB56-E053-CA2BA8C0AD88,0208,0208123,0984539,113875,Radków,miasto,2201.0,50.49818216526261,16.3887954115929
2F4C3942-DC3F-BB56-E053-CA2BA8C0AD88,0208,0208063,0851382,66754,Lasówka,wieś,92.0,50.31113114384203,16.462078216234318
2F4C3942-DBF8-BB56-E053-CA2BA8C0AD88,0208,0208083,0853174,113933,Radochów,wieś,571.0,50.34898543767012,16.830329928545048
2F4C3942-DC3D-BB56-E053-CA2BA8C0AD88,0208,0208112,0854274,187103,Więcław,część wsi,,50.63155241158373,16.522931161576015
2F4C3942-DC3E-BB56-E053-CA2BA8C0AD88,0208,0208123,0855084,6584,Błogocice,przysiółek,,50.5571552617356,16.4553623445994
2F4C3942-DC40-BB56-E053-CA2BA8C0AD88,0208,0208083,0984203,66838,Lądek-Zdrój,miasto,4732.0,50.34352163847735,16.87987693758021
2F4C3942-DC41-BB56-E053-CA2BA8C0AD88,0208,0208103,0853777,67267,Lesica,wieś,39.0,50.16413879610274,16.59739252071752
2F4C3942-DC42-BB56-E053-CA2BA8C0AD88,0208,0208103,0853777,67267,Lesica,wieś,39.0,50.15032474929536,16.60219874327717
2F4C3942-DC88-BB56-E053-CA2BA8C0AD88,0208,0208112,0854311,168063,Rybno,osada,,50.58598630976729,16.456055525857355
2F4C3942-DC83-BB56-E053-CA2BA8C0AD88,0208,0208133,0855670,131841,Stronie-Wieś,wieś,211.0,50.27982110807507,16.853188892080887
2F4C3942-DC84-BB56-E053-CA2BA8C0AD88,0208,0208143,0855954,132785,Studzienno,wieś,23.0,50.462373305098396,16.449790276154786
2F4C3942-DC85-BB56-E053-CA2BA8C0AD88,0208,0208143,0855977,162049,Złotno,wieś,177.0,50.42198393438764,16.39079871573405
2F4C3942-DC86-BB56-E053-CA2BA8C0AD88,0208,0208072,0853122,163554,Żelazno,wieś,748.0,50.372923886847985,16.66919129281168
2F4C3942-DC87-BB56-E053-CA2BA8C0AD88,0208,0208063,0991226,165061,Góra Igliczna,osada,1.0,50.24138596613369,16.7483320940812
2F4C3942-DCD0-BB56-E053-CA2BA8C0AD88,0208,0208011,0983959,104498,Podgórze,część miasta,,50.374797678548305,16.372707812764748
2F4C3942-DBFC-BB56-E053-CA2BA8C0AD88,0208,0208063,0851703,42003,Huta,wieś,,50.33163061558953,16.54228941108579
2F4C3942-DCD1-BB56-E053-CA2BA8C0AD88,0208,0208112,0854570,105194,Podlesie,osada,,50.57920600781309,16.588620297846337
2F4C3942-DCD2-BB56-E053-CA2BA8C0AD88,0208,0208072,0852950,106362,Podtynie,wieś,85.0,50.49212894236637,16.68163510968839
2F4C3942-DBF9-BB56-E053-CA2BA8C0AD88,0208,0208083,0853180,113934,Skowronki,osada,,50.33415043833164,16.834220672360647
2F4C3942-DBFA-BB56-E053-CA2BA8C0AD88,0208,0208123,0854950,114764,Raszków,wieś,186.0,50.481611803830454,16.48542911620657
2F4C3942-DBFB-BB56-E053-CA2BA8C0AD88,0208,0208123,0854966,114839,Ratno Dolne,wieś,415.0,50.50834834904429,16.44596066870787
2F4C3942-DBFD-BB56-E053-CA2BA8C0AD88,0208,0208063,0851353,42275,Idzików,wieś,524.0,50.27199353868403,16.735329418404444
2F4C3942-DBFF-BB56-E053-CA2BA8C0AD88,0208,0208123,0855150,43843,Janików,przysiółek,,50.54171179665905,16.397067667598467
2F4C3942-DC44-BB56-E053-CA2BA8C0AD88,0208,0208112,0854469,126209,Sokolica,wieś,61.0,50.59050333117815,16.46892080453378
2F4C3942-DC45-BB56-E053-CA2BA8C0AD88,0208,0208051,1061825,126331,Sokołówka,część miasta,,50.38401169815901,16.508918999296128
2F4C3942-DC46-BB56-E053-CA2BA8C0AD88,0208,0208112,0854133,127000,Sośnina,przysiółek,,50.638563325916834,16.41380209540528
2F4C3942-DC89-BB56-E053-CA2BA8C0AD88,0208,0208112,0854305,168064,Bytkowice,przysiółek,,50.61029167364905,16.4515270651103
2F4C3942-DC8A-BB56-E053-CA2BA8C0AD88,0208,0208143,0855919,25097,Dolina,wieś,118.0,50.41267768312423,16.400876624301006
2F4C3942-DCC8-BB56-E053-CA2BA8C0AD88,0208,0208092,0853257,34588,Gołaczów,wieś,55.0,50.4301179304262,16.31544183842311
2F4C3942-DBFE-BB56-E053-CA2BA8C0AD88,0208,0208031,0984166,43389,Jakubowice,część miasta,,50.4559426098806,16.26867130905202
2F4C3942-DC03-BB56-E053-CA2BA8C0AD88,0208,0208103,0853850,117485,Różanka,wieś,298.0,50.17650456174778,16.619085001142462
2F4C3942-DC00-BB56-E053-CA2BA8C0AD88,0208,0208072,0852996,116768,Roszyce,wieś,181.0,50.447497136001196,16.580872517373916
2F4C3942-DC01-BB56-E053-CA2BA8C0AD88,0208,0208031,0984137,11698,Brzozowie,część miasta,,50.413813594845664,16.223078456226393
2F4C3942-DC02-BB56-E053-CA2BA8C0AD88,0208,0208103,0853843,117129,Roztoki,wieś,403.0,50.187278126022406,16.67143817921032
2F4C3942-DC4A-BB56-E053-CA2BA8C0AD88,0208,0208123,0855078,199345,Bemowo,część wsi,,50.528483278042636,16.481718326209645
2F4C3942-DC47-BB56-E053-CA2BA8C0AD88,0208,0208063,0851710,153829,Wyszki,wieś,94.0,50.2724827109017,16.59552030108856
2F4C3942-DC48-BB56-E053-CA2BA8C0AD88,0208,0208123,0855144,187104,Pasterczyk,część wsi,,50.566511204147524,16.408876978478812
2F4C3942-DC49-BB56-E053-CA2BA8C0AD88,0208,0208143,1004402,187105,Szczytnik,część miasta,,50.410238821398714,16.458491669229936
2F4C3942-DC4B-BB56-E053-CA2BA8C0AD88,0208,0208031,0984150,20056,Czermna,część miasta,,50.456357974452565,16.241416694225997
2F4C3942-DC4C-BB56-E053-CA2BA8C0AD88,0208,0208041,1064083,201144,Siemiątków,część miasta,,50.56431599750564,16.52306518709279
2F4C3942-DC8B-BB56-E053-CA2BA8C0AD88,0208,0208103,0853694,25344,Dolnik,wieś,92.0,50.14274766444274,16.698250749644444
2F4C3942-DC8C-BB56-E053-CA2BA8C0AD88,0208,0208112,0854067,59360,Koszyn,osada,,50.53182900029152,16.57902811876444
2F4C3942-DC8D-BB56-E053-CA2BA8C0AD88,0208,0208041,0984321,59385,Kościelniki,część miasta,,50.55032357900887,16.517617730830292
2F4C3942-DC8E-BB56-E053-CA2BA8C0AD88,0208,0208011,0983942,60384,Kozicowa Hala,część miasta,,50.38627570883961,16.362344614377566
2F4C3942-DC8F-BB56-E053-CA2BA8C0AD88,0208,0208112,0854297,61100,Krajanów,wieś,90.0,50.59918196069348,16.44676771167573
2F4C3942-DC90-BB56-E053-CA2BA8C0AD88,0208,0208072,0852861,62150,Krosnowice,wieś,2634.0,50.386575172638985,16.626741264930097
2F4C3942-DC07-BB56-E053-CA2BA8C0AD88,0208,0208123,0855180,143970,Wambierzyce,wieś,835.0,50.479309926942186,16.442465399314614
2F4C3942-DCCD-BB56-E053-CA2BA8C0AD88,0208,0208112,0854506,137966,Świerki Kłodzkie,osada,,50.626508149763445,16.41682302534186
2F4C3942-DCCE-BB56-E053-CA2BA8C0AD88,0208,0208072,0853062,138150,Święcko,wieś,222.0,50.49815102630154,16.594062358256775
2F4C3942-DCCF-BB56-E053-CA2BA8C0AD88,0208,0208092,0853375,139159,Taszów,wieś,23.0,50.37980527096676,16.281507998666633
2F4C3942-DC04-BB56-E053-CA2BA8C0AD88,0208,0208123,0855167,117841,Rudawa,przysiółek,,50.56989014186457,16.433805019586924
2F4C3942-DC05-BB56-E053-CA2BA8C0AD88,0208,0208063,0851548,117842,Rudawa,przysiółek,11.0,50.23817254479819,16.5398385008199
