LOKALNYID,TERYT,IDTERC,IDSIMC,IDPRNG,NAZWA,RODZAJ,LICZ_MIESZ,lat,lon
2EE5D203-CC55-1739-E053-CA2BA8C00404,3201,3201033,0949968,50630,Karlino,miasto,5281.0,54.0393188495501,15.867976048190785
2EE5D203-CC56-1739-E053-CA2BA8C00404,3201,3201043,0313644,164142,Żukówek,osada,8.0,53.886733768715246,16.230215212189897
2EE5D203-CC57-1739-E053-CA2BA8C00404,3201,3201022,0302764,14205,Byszyno,wieś,161.0,53.946466150156425,16.034372012850856
2EE5D203-CC58-1739-E053-CA2BA8C00404,3201,3201033,0307230,60342,Kozia Góra,osada,113.0,54.014735676963504,15.824668017313988
2EE5D203-CC59-1739-E053-CA2BA8C00404,3201,3201011,0949690,4811,Białogard,miasto,20762.0,54.00532348383157,15.978883005662176
2EE5D203-CC5A-1739-E053-CA2BA8C00404,3201,3201022,0303150,116780,Rościno,wieś,177.0,54.00060650821488,15.897285329114315
2EE5D203-CC5B-1739-E053-CA2BA8C00404,3201,3201043,0313526,24809,Dobrowo,wieś,569.0,53.96893890539981,16.120510494416642
2EE5D203-CC5C-1739-E053-CA2BA8C00404,3201,3201033,0307201,20339,Czerwięcino,wieś,1.0,54.06991440013093,15.80354407933465
2EE5D203-CC5F-1739-E053-CA2BA8C00404,3201,3201043,0313822,141020,Trzebiszyn,wieś,110.0,53.95231748392249,16.26961679510101
2EE5D203-CCB1-1739-E053-CA2BA8C00404,3201,3201022,0303195,152549,Wygoda,osada,47.0,53.92725617990422,16.06217574970854
2EE5D203-CCB2-1739-E053-CA2BA8C00404,3201,3201033,0307170,51141,Karwin,wieś,139.0,53.992090163199975,15.765650538074361
2EE5D203-CCB3-1739-E053-CA2BA8C00404,3201,3201022,0302729,127758,Stajkowo,osada,54.0,54.090747997148256,16.06561277025461
2EE5D203-CCB4-1739-E053-CA2BA8C00404,3201,3201022,0302847,49896,Kamosowo,wieś,102.0,53.984450683563836,15.904333800627848
2f452550-bc57-45a1-aa92-f46d2fa9bd97,3201,3201043,0313578,29015,Dzięciołowo,wieś,37.0,53.91086031279976,16.430294143239077
337a038a-3f4e-47ff-a624-78267acc1f71,3201,3201033,0307282,152439,Wyganowo,wieś,29.0,54.13466998551502,15.897863713716122
3cdb0f7d-474e-4e8b-89f7-a86eabb6ba0a,3201,3201043,0313868,144287,Warnino,wieś,179.0,53.951113533542646,16.34022938326316
419cc00a-cf9d-4b72-ad35-c66f80eddae4,3201,3201022,0303048,114739,Rarwino,wieś,161.0,53.95348428556662,15.791330923669598
2EE5D203-CC61-1739-E053-CA2BA8C00404,3201,3201033,0307112,25729,Domacyno,wieś,161.0,53.967006695726546,15.75295027808629
2EE5D203-CC62-1739-E053-CA2BA8C00404,3201,3201011,0949709,53416,Kisielice,część miasta,438.0,53.99799809689629,15.978862676384336
2EE5D203-CC64-1739-E053-CA2BA8C00404,3201,3201022,0302965,162981,Żabiniec,osada,17.0,53.98192345735817,15.9413702640261
56a32e05-abcd-4d6c-b30e-9875b7922a96,3201,3201043,0313584,125139,Smęcino,wieś,115.0,53.941157350375406,16.41303010283575
53f8fad6-7828-46cc-8c68-232f50b226d5,3201,3201043,0313791,128958,Stare Dębno,wieś,175.0,53.84509387181825,16.176703803277857
55c8f429-8763-420b-9b0b-5328e505f9cc,3201,3201043,0313621,53316,Kikowo,wieś,153.0,53.88285624057156,16.272175647026028
55dbb139-7099-4921-b4ba-2d966304ea4b,3201,3201022,0303031,106485,Podwilcze,wieś,220.0,53.91634213479376,15.82404500816405
6e1ed813-7273-4d4d-9f28-c5e24c2d543e,3201,3201043,0313561,26668,Drzonowo Białogardzkie,wieś,134.0,53.906406638401876,16.29914614518782
729ff5c9-8914-47ad-9891-7e33e52d01ad,3201,3201022,0303077,113334,Pustkowo,wieś,141.0,54.07034784925151,16.020142526701584
73f00cfc-8dc5-4a68-87b3-7aa21031ca81,3201,3201043,0313650,94773,Osówko,wieś,84.0,53.910189405420304,16.117121178832292
787d5073-f18d-411c-922c-130369cbc2d8,3201,3201043,0313704,102832,Pobądz,wieś,102.0,54.00526945184252,16.302927287856928
96aee26f-758c-4168-a5e7-33698112309f,3201,3201022,0302787,19324,Czarnowęsy,wieś,251.0,53.92818577864314,16.00243266560665
a7225e5e-bc2e-457f-9bf8-e3fb256de29e,3201,3201022,0302706,4832,Białogórzyno,wieś,322.0,54.08055268226123,16.080720447909055
c236cc99-996a-43b1-a903-f157f3a1182c,3201,3201022,0303210,163648,Żelimucha,wieś,97.0,54.06041876707616,15.98271461934213
c6ac5ad5-6a16-4824-802b-22164e34259c,3201,3201043,0313911,159355,Zaspy Wielkie,wieś,136.0,54.007342284619995,16.23004299081264
eae3101d-ce34-44c3-bc8c-bd19ffb71b00,3201,3201043,0313609,60024,Kowalki,wieś,166.0,53.92473418137916,16.379189683053873
eb607f5f-0b13-4fe0-8b35-689eee611b1a,3201,3201022,0302741,12098,Buczek,wieś,249.0,54.026871347837016,16.118312136656808
2EE5D203-CC68-1739-E053-CA2BA8C00404,3201,3201022,0302920,70746,Lulewiczki,wieś,169.0,54.04327612179803,15.964039347800137
2EE5D203-CC65-1739-E053-CA2BA8C00404,3201,3201022,0303019,99043,Pękanino,wieś,115.0,54.027857922932704,15.985686253279038
2EE5D203-CC66-1739-E053-CA2BA8C00404,3201,3201043,0313615,83772,Motarzyn,wieś,88.0,53.876244563582155,16.226523194691904
2EE5D203-CC67-1739-E053-CA2BA8C00404,3201,3201011,0949738,56456,Przedmieście Kołobrzeskie,część miasta,2200.0,54.012993817728244,15.954349887538667
2EE5D203-CC69-1739-E053-CA2BA8C00404,3201,3201033,0307247,62572,Krukowo,wieś,224.0,54.02185880314148,15.771186389066186
2EE5D203-CC6A-1739-E053-CA2BA8C00404,3201,3201022,0303108,132384,Strzelec,osada,35.0,54.07361674655385,16.020650914725753
ebbda7e9-e9d2-424e-a65a-9dc4f5765cf5,3201,3201022,0302824,36657,Góry,wieś,41.0,53.89863112998226,16.039729835175834
2EE5D203-CC6E-1739-E053-CA2BA8C00404,3201,3201022,0302770,110868,Przegonia,osada,82.0,53.95223801268922,16.05821661051534
fe56e74e-2369-431d-a96b-b96c8a30b6c5,3201,3201033,0307030,21549,Daszewo,wieś,241.0,54.08037273679609,15.886929881102299
2EE5D203-CC6B-1739-E053-CA2BA8C00404,3201,3201022,0303054,119082,Rychowo,wieś,156.0,53.94330898813751,15.843381927754782
2EE5D203-CC6D-1739-E053-CA2BA8C00404,3201,3201022,0303166,119083,Rychówko,wieś,50.0,53.93281998006759,15.885924316150762
2EE5D203-CC75-1739-E053-CA2BA8C00404,3201,3201043,0313710,12127,Buczki,osada,42.0,54.00518336902688,16.3167132180279
2EE5D203-CC72-1739-E053-CA2BA8C00404,3201,3201033,0307081,102966,Poczernino,wieś,29.0,54.08577143774301,15.850711674873383
2EE5D203-CC73-1739-E053-CA2BA8C00404,3201,3201022,0302942,72535,Łęczenko,osada,13.0,53.98007317173315,15.956495464624565
2EE5D203-CC74-1739-E053-CA2BA8C00404,3201,3201043,0313727,184888,Solno,osada,4.0,54.01857665707198,16.297787459090472
2EE5D203-CC77-1739-E053-CA2BA8C00404,3201,3201011,0949750,200539,Trzebiele,część miasta,57.0,54.019235405285066,15.949906997390547
2EE5D203-CC78-1739-E053-CA2BA8C00404,3201,3201022,0302818,22909,Dębczyno,wieś,161.0,53.97589852360993,15.992444040276864
2EE5D203-CC7C-1739-E053-CA2BA8C00404,3201,3201033,0307299,162461,Zwartowo,wieś,81.0,53.97857037342179,15.793294565649921
2EE5D203-CC79-1739-E053-CA2BA8C00404,3201,3201022,0303114,160231,Ząbki,osada,8.0,54.0685767372678,15.98714131896618
2EE5D203-CC7A-1739-E053-CA2BA8C00404,3201,3201043,0313733,115411,Retowo,wieś,27.0,53.96787121273846,16.199613430988162
2EE5D203-CC7B-1739-E053-CA2BA8C00404,3201,3201043,0313673,124474,Sławomierz,osada,3.0,53.89186186758344,16.105716768175526
2EE5D203-CC7D-1739-E053-CA2BA8C00404,3201,3201022,0302853,86076,Nasutowo,wieś,254.0,53.98447563980266,15.857771410614376
2EE5D203-CC7E-1739-E053-CA2BA8C00404,3201,3201043,0313680,140934,Trzebiec,osada,54.0,53.88045417698365,16.162157846773503
2EE5D203-CC7F-1739-E053-CA2BA8C00404,3201,3201033,0307129,31787,Garnki,wieś,67.0,53.991102347682286,15.826649093777059
2EE5D203-CC87-1739-E053-CA2BA8C00404,3201,3201022,0302936,72550,Łęczno,wieś,228.0,53.96873906808596,15.945887290693744
2EE5D203-CC84-1739-E053-CA2BA8C00404,3201,3201043,0313590,144900,Wełdkowo,osada,34.0,53.960653121530925,16.39522313349409
2EE5D203-CC85-1739-E053-CA2BA8C00404,3201,3201043,0313756,120185,Sadkowo,wieś,274.0,53.88989334485158,16.199578404070802
2EE5D203-CC86-1739-E053-CA2BA8C00404,3201,3201022,0302988,86155,Nawino,wieś,108.0,53.93803770568384,15.983472277970982
2EE5D203-CC88-1739-E053-CA2BA8C00404,3201,3201033,0307106,148904,Witolub,osada,57.0,54.06053360095106,15.902191657552004
2EE5D203-CC89-1739-E053-CA2BA8C00404,3201,3201022,0303090,113344,Pustkówko,osada,13.0,54.06261098964725,16.012996282257422
299ce9f5-77ee-43bd-bdb0-fd92f8d7ee13,3201,3201043,0313510,24617,Doble,wieś,64.0,53.85372356488042,16.242799632209934
2EE5D203-CC8A-1739-E053-CA2BA8C00404,3201,3201033,0307135,35485,Gościnko,wieś,126.0,53.990544229148824,15.737883274481508
2EE5D203-CC8C-1739-E053-CA2BA8C00404,3201,3201033,0307158,16415,Chotyń,wieś,22.0,54.033839927237985,15.807858644716777
2EE5D203-CC8E-1739-E053-CA2BA8C00404,3201,3201022,0303025,99042,Pękaninko,osada,20.0,54.0396832478259,15.99231229684858
2EE5D203-CC8F-1739-E053-CA2BA8C00404,3201,3201033,0307253,79996,Mierzynek,wieś,33.0,54.098534646361905,15.90035867692233
2EE5D203-CC90-1739-E053-CA2BA8C00404,3201,3201022,0302712,4831,Białogórzynko,osada,18.0,54.09820250057827,16.0807242801397
1c346bed-a4f4-419c-91f2-16a8f28957a4,3201,3201022,0303002,87834,Nosówko,wieś,152.0,54.08610389850308,16.041895378442764
2833a7b9-a82a-4a38-92cb-87f55b40a915,3201,3201043,0313503,19239,Czarnkowo,wieś,62.0,53.91742092994784,16.34012420213148
2EE5D203-CC31-1739-E053-CA2BA8C00404,3201,3201022,0303143,115906,Rogowo,wieś,328.0,53.9632724879105,16.02038263213324
2EE5D203-CC92-1739-E053-CA2BA8C00404,3201,3201043,0313762,62127,Krosinko,wieś,86.0,53.90598142874884,16.233197098104334
2EE5D203-CC2C-1739-E053-CA2BA8C00404,3201,3201033,0307218,184886,Lubiechowo-Przystanek,osada,8.0,54.05795243159048,15.84240770671135
2EE5D203-CC30-1739-E053-CA2BA8C00404,3201,3201043,0313816,118171,Rudno,osada,39.0,53.84170446505924,16.165892475732242
2EE5D203-CC36-1739-E053-CA2BA8C00404,3201,3201043,0313696,145564,Wicewo,osada,161.0,53.88735121202594,16.13279435024056
2EE5D203-CC32-1739-E053-CA2BA8C00404,3201,3201043,0313555,116873,Skarszewice,osada,12.0,53.96621110173476,16.159098348184035
2EE5D203-CC33-1739-E053-CA2BA8C00404,3201,3201043,0313489,9521,Borzysław,wieś,143.0,53.92564494807972,16.204984516150756
2EE5D203-CC35-1739-E053-CA2BA8C00404,3201,3201043,0313851,142028,Tyczewo,wieś,84.0,53.97832804499441,16.30733862283518
2EE5D203-CC93-1739-E053-CA2BA8C00404,3201,3201022,0302758,159353,Zaspy Małe,wieś,52.0,54.03199253773527,16.16713604990467
2EE5D203-CC94-1739-E053-CA2BA8C00404,3201,3201043,0313845,24711,Dobrochy,osada,21.0,53.95542026802245,16.261599068648334
2EE5D203-CC3B-1739-E053-CA2BA8C00404,3201,3201022,0303189,120027,Rzyszczewo,wieś,72.0,53.92926493194376,16.05159928055317
2EE5D203-CC96-1739-E053-CA2BA8C00404,3201,3201022,0303120,115059,Redlino,wieś,263.0,54.02530156566739,15.89498563110788
2EE5D203-CC97-1739-E053-CA2BA8C00404,3201,3201022,0302830,69617,Liskowo,osada,3.0,53.9002514955923,16.06003731122563
2EE5D203-CC37-1739-E053-CA2BA8C00404,3201,3201022,0303203,163632,Żeleźno,wieś,173.0,54.05756129523972,16.057134716029
2EE5D203-CC38-1739-E053-CA2BA8C00404,3201,3201043,0313740,82406,Modrolas,osada,64.0,53.95519345380136,16.160691942274234
2EE5D203-CC39-1739-E053-CA2BA8C00404,3201,3201033,0307187,60148,Kowańcz,wieś,172.0,54.03770325578634,15.838290017437808
2EE5D203-CC3C-1739-E053-CA2BA8C00404,3201,3201022,0302971,82322,Moczyłki,wieś,154.0,53.96796464867335,16.054608886001045
2EE5D203-CC3D-1739-E053-CA2BA8C00404,3201,3201022,0302860,156026,Zagórze,wieś,92.0,53.96589877643345,15.844972074510668
2EE5D203-CC3E-1739-E053-CA2BA8C00404,3201,3201043,0313495,103961,Podborsko,wieś,41.0,53.9405131286416,16.17916846990633
2EE5D203-CC98-1739-E053-CA2BA8C00404,3201,3201033,0307276,79986,Mierzyn,wieś,234.0,54.11662822071,15.890562714606624
2EE5D203-CC44-1739-E053-CA2BA8C00404,3201,3201022,0302735,151596,Wronie Gniazdo,osada,7.0,54.06166612774401,16.11211262303031
2EE5D203-CC99-1739-E053-CA2BA8C00404,3201,3201033,0307098,134151,Syrkowice,wieś,146.0,54.09734695396034,15.863549432092931
2EE5D203-CC9C-1739-E053-CA2BA8C00404,3201,3201022,0302882,59482,Kościernica,wieś,285.0,54.03095575676831,16.020069064505858
2EE5D203-CC3F-1739-E053-CA2BA8C00404,3201,3201043,0313934,13552,Bukówko,wieś,228.0,53.98697489469079,16.1986894482842
2EE5D203-CC40-1739-E053-CA2BA8C00404,3201,3201022,0303226,164587,Żytelkowo,wieś,161.0,53.98409985388171,16.063862046874746
2EE5D203-CC42-1739-E053-CA2BA8C00404,3201,3201022,0302899,66517,Laski,wieś,117.0,53.93386178160741,15.930096146063656
2EE5D203-CC45-1739-E053-CA2BA8C00404,3201,3201011,0949744,173834,Przemiłowo,część miasta,18.0,53.99570452364445,15.982646688596112
2EE5D203-CCA1-1739-E053-CA2BA8C00404,3201,3201022,0302959,72574,Łęczynko,osada,29.0,53.987186858179676,15.953679570798338
2EE5D203-CC9D-1739-E053-CA2BA8C00404,3201,3201043,0313940,124700,Słonino,wieś,187.0,54.00605413864225,16.162948612519926
2EE5D203-CC9E-1739-E053-CA2BA8C00404,3201,3201033,0307075,63853,Krzywopłoty,osada,58.0,54.05640973702122,15.920585395355584
2EE5D203-CCA0-1739-E053-CA2BA8C00404,3201,3201043,0313905,144901,Wełdkówko,osada,34.0,53.9784847221057,16.361339586311793
2EE5D203-CCA2-1739-E053-CA2BA8C00404,3201,3201011,0949721,184873,Połczynek,część miasta,183.0,53.987102744128926,16.01894266917628
2EE5D203-CC4A-1739-E053-CA2BA8C00404,3201,3201022,0303172,122785,Sińce,osada,99.0,53.946681052110755,15.902025872286965
2EE5D203-CC47-1739-E053-CA2BA8C00404,3201,3201043,0313779,69767,Liśnica,osada,66.0,53.907730609892084,16.18409729886015
2EE5D203-CC48-1739-E053-CA2BA8C00404,3201,3201033,0307052,23506,Dębolas,osada,9.0,54.07092425696566,15.909414854238198
2EE5D203-CC49-1739-E053-CA2BA8C00404,3201,3201043,0313532,173836,Dobrówko,część wsi,95.0,53.98320622895591,16.118950231207638
2EE5D203-CC4B-1739-E053-CA2BA8C00404,3201,3201022,0303083,67814,Leśniki,osada,15.0,54.064801725577766,15.999320176220904
2EE5D203-CCA6-1739-E053-CA2BA8C00404,3201,3201022,0302913,70745,Lulewice,wieś,176.0,54.0481586054422,15.941116343947396
2EE5D203-CCA3-1739-E053-CA2BA8C00404,3201,3201043,0313880,32689,Giżałki,osada,10.0,53.96440442782897,16.352928411426614
2EE5D203-CCA4-1739-E053-CA2BA8C00404,3201,3201033,0307046,184884,Brzeźno,osada,11.0,54.067974448447075,15.874326798334458
2EE5D203-CCA5-1739-E053-CA2BA8C00404,3201,3201043,0313839,142011,Tychowo,miasto,2250.0,53.927033567313906,16.262155412891982
2EE5D203-CCA8-1739-E053-CA2BA8C00404,3201,3201033,0307069,50629,Karlinko,osada,67.0,54.07039158989805,15.929775658230916
2EE5D203-CCA9-1739-E053-CA2BA8C00404,3201,3201022,0303137,140945,Trzebiele,osada,113.0,54.02583974609223,15.929313280585143
2EE5D203-CC51-1739-E053-CA2BA8C00404,3201,3201033,0307141,51075,Karścino,wieś,339.0,54.054884924223806,15.788848936559548
2EE5D203-CC4C-1739-E053-CA2BA8C00404,3201,3201022,0303060,107851,Pomianowo,wieś,358.0,54.032103896243456,16.065977554767613
2EE5D203-CC4D-1739-E053-CA2BA8C00404,3201,3201033,0307224,76259,Malonowo,wieś,110.0,54.00345361237983,15.794522844686359
2EE5D203-CC4E-1739-E053-CA2BA8C00404,3201,3201022,0302907,127983,Stanomino,wieś,549.0,53.960986830255585,15.89544212637552
2EE5D203-CCAB-1739-E053-CA2BA8C00404,3201,3201022,0302876,53864,Klępino Białogardzkie,wieś,134.0,54.00093852731281,16.054511063848775
2EE5D203-CCAC-1739-E053-CA2BA8C00404,3201,3201043,0313928,13455,Bukowo,osada,48.0,53.9785197566255,16.237516125576178
2EE5D203-CC4F-1739-E053-CA2BA8C00404,3201,3201022,0302801,21478,Dargikowo,wieś,127.0,54.01440167813311,16.05944651066273
2EE5D203-CC50-1739-E053-CA2BA8C00404,3201,3201022,0302793,173835,Tarpnowo,osada,3.0,53.94222512527489,15.985788622385101
2EE5D203-CC52-1739-E053-CA2BA8C00404,3201,3201022,0302994,39611,Gruszewo,wieś,151.0,53.94291312654997,15.962542686667744
2EE5D203-CC54-1739-E053-CA2BA8C00404,3201,3201043,0313800,88725,Nowe Dębno,osada,4.0,53.85009476179316,16.218748258128745
2EE5D203-CCB0-1739-E053-CA2BA8C00404,3201,3201033,0307260,142422,Ubysławice,wieś,67.0,54.10454117556773,15.919951412587112
2EE5D203-CCAD-1739-E053-CA2BA8C00404,3201,3201043,0313638,159370,Zastawa,osada,1.0,53.873968676612755,16.20518934241186
2EE5D203-CCAE-1739-E053-CA2BA8C00404,3201,3201033,0307164,102856,Pobłocie Wielkie,wieś,213.0,54.04602060303117,15.757491963947881
2EE5D203-CCAF-1739-E053-CA2BA8C00404,3201,3201033,0307193,70154,Lubiechowo,wieś,206.0,54.06491547604705,15.839499949634048
2BE27788-87A9-8432-E053-CC2BA8C03269,3202,3202042,0182308,15503,Chłopowo,wieś,418.0,53.02777676032708,15.516128710463695
2BE27788-872A-8432-E053-CC2BA8C03269,3202,3202053,0185494,113415,Puszczyn,kolonia,7.0,53.08746993495304,15.393949615303615
2BE27788-872C-8432-E053-CC2BA8C03269,3202,3202023,0179358,130461,Stawin,osada,121.0,53.15941965859387,15.357929603798407
2BE27788-8768-8432-E053-CC2BA8C03269,3202,3202033,0180953,33253,Gładysz,osada,3.0,53.18847458748796,15.842065446330636
2BE27788-8769-8432-E053-CC2BA8C03269,3202,3202053,0185459,4106,Będargowiec,osada,77.0,53.018397404557255,15.40482022822919
2BE27788-876F-8432-E053-CC2BA8C03269,3202,3202033,0181102,138134,Święciechów,wieś,449.0,53.25172454750761,15.703847456333186
2BE27788-87AA-8432-E053-CC2BA8C03269,3202,3202023,0179045,124226,Skrzypiec,kolonia,10.0,53.162288374439754,15.466415138668776
2BE27788-87D0-8432-E053-CC2BA8C03269,3202,3202053,0185755,147039,Wierzchno,osada,59.0,53.01874362012704,15.2716707321222
2BE27788-8752-8432-E053-CC2BA8C03269,3202,3202012,0178146,56249,Kolsk,wieś,211.0,52.99373699703442,15.645178390426086
2BE27788-87F3-8432-E053-CC2BA8C03269,3202,3202053,0185749,141235,Trzęsacz,wieś,129.0,53.031215798128976,15.325203288561934
2BE27788-8796-8432-E053-CC2BA8C03269,3202,3202023,0179246,58086,Koplin,kolonia,306.0,53.15535332568473,15.386778354280729
2BE27788-8797-8432-E053-CC2BA8C03269,3202,3202053,0185471,59020,Kosowo,przysiółek,20.0,53.03043265672069,15.354845148303703
2BE27788-8798-8432-E053-CC2BA8C03269,3202,3202012,0178382,152676,Wygon,wieś,231.0,53.10186024040919,15.796295250072658
2BE27788-87AB-8432-E053-CC2BA8C03269,3202,3202012,0178100,65221,Kunica,kolonia,7.0,53.05793500796703,15.713892207021031
2BE27788-872F-8432-E053-CC2BA8C03269,3202,3202053,0185643,86998,Niesporowice,wieś,154.0,52.972141903779324,15.331472753096238
2BE27788-87DF-8432-E053-CC2BA8C03269,3202,3202053,0185608,73980,Ługowo,wieś,76.0,53.01590083756803,15.337858348083548
2BE27788-872D-8432-E053-CC2BA8C03269,3202,3202012,0178413,173837,Zdrójno,osada,12.0,53.12604462323017,15.611472972511255
2BE27788-872E-8432-E053-CC2BA8C03269,3202,3202063,0186393,133428,Sulibórz,osada,129.0,53.318281793058595,15.575283328958298
2BE27788-8730-8432-E053-CC2BA8C03269,3202,3202023,0179163,99183,Piasecznik,wieś,384.0,53.22708930608907,15.293217128451493
2BE27788-8731-8432-E053-CC2BA8C03269,3202,3202042,0182509,90655,Objezierze,wieś,287.0,53.07761985927085,15.550139531282044
2BE27788-87F5-8432-E053-CC2BA8C03269,3202,3202023,0179387,133469,Czernice,kolonia,6.0,53.20429001213613,15.413192087388351
2BE27788-87B8-8432-E053-CC2BA8C03269,3202,3202053,0185637,85450,Nadarzyn,osada,312.0,53.119963717838566,15.317970702526157
2BE27788-87B9-8432-E053-CC2BA8C03269,3202,3202012,0178436,18707,Czapliska,osada,3.0,53.09086963662373,15.714129774493667
2BE27788-87F4-8432-E053-CC2BA8C03269,3202,3202053,0935618,54343,Klukowo,część miasta,10.0,53.04115248321494,15.32123874265088
2BE27788-8748-8432-E053-CC2BA8C03269,3202,3202023,0179074,32756,Gleźno,wieś,137.0,53.14142385134315,15.346485165760358
2BE27788-8775-8432-E053-CC2BA8C03269,3202,3202023,0179128,71470,Łaszewo,osada,29.0,53.163783209217435,15.554464594846715
2BE27788-8719-8432-E053-CC2BA8C03269,3202,3202023,0179370,133467,Sulino,wieś,175.0,53.20774005157852,15.393171537172405
2BE27788-871A-8432-E053-CC2BA8C03269,3202,3202063,0186364,126223,Sokoliniec,wieś,335.0,53.287040898890844,15.498281531586974
2BE27788-871B-8432-E053-CC2BA8C03269,3202,3202042,0182403,63437,Krzęcin,wieś,660.0,53.08040266826515,15.497660984668563
2BE27788-8776-8432-E053-CC2BA8C03269,3202,3202042,0182515,111443,Przybysław,osada,211.0,53.03574677702942,15.453552473764987
2BE27788-8777-8432-E053-CC2BA8C03269,3202,3202042,0182350,38159,Granowo,wieś,480.0,53.07015494336543,15.428456931911873
2BE27788-8778-8432-E053-CC2BA8C03269,3202,3202033,0180947,25856,Dominikowo,wieś,233.0,53.20633520837724,15.855567445664276
2BE27788-8716-8432-E053-CC2BA8C03269,3202,3202053,0185465,4108,Będargowo,wieś,393.0,53.01683739143623,15.367374030508797
2BE27788-87CC-8432-E053-CC2BA8C03269,3202,3202033,0180887,30797,Gack,kolonia,5.0,53.144842741216166,15.71867464767484
2BE27788-87CD-8432-E053-CC2BA8C03269,3202,3202042,0182449,153888,Wyszyna,kolonia,10.0,53.06843916658431,15.523574142176818
2BE27788-87CE-8432-E053-CC2BA8C03269,3202,3202033,0181131,160512,Zdanów,osada,22.0,53.22623308469352,15.712239839358597
2BE27788-873C-8432-E053-CC2BA8C03269,3202,3202063,0186306,114474,Rajsko,wieś,30.0,53.22843795914011,15.557380973232155
2BE27788-8794-8432-E053-CC2BA8C03269,3202,3202053,0185614,74843,Łyskowo,wieś,127.0,53.019637071321974,15.289284055548574
2BE27788-87F6-8432-E053-CC2BA8C03269,3202,3202042,0182410,40087,Grzywacz,kolonia,15.0,53.08176300549332,15.51329151857872
2BE27788-87F7-8432-E053-CC2BA8C03269,3202,3202033,0180924,122260,Sieniawa,osada,41.0,53.222905671085364,15.794446918119458
2BE27788-877A-8432-E053-CC2BA8C03269,3202,3202023,1009523,184902,Rudnisko,osada,3.0,53.21444205645302,15.461654547308218
2BE27788-877B-8432-E053-CC2BA8C03269,3202,3202012,0178347,111832,Przykuna,kolonia,1.0,53.050256537402504,15.602029555356852
2BE27788-871D-8432-E053-CC2BA8C03269,3202,3202053,0185726,140684,Trynno,kolonia,6.0,53.03846491578177,15.4173253562961
2BE27788-8717-8432-E053-CC2BA8C03269,3202,3202053,0185519,11945,Brzyczno,osada,176.0,53.1096427211482,15.286383505491013
2BE27788-871E-8432-E053-CC2BA8C03269,3202,3202012,0178130,53557,Klasztorne,wieś,419.0,53.014195718066745,15.74323850102856
2BE27788-871F-8432-E053-CC2BA8C03269,3202,3202063,0186298,107884,Pomień,wieś,321.0,53.224283443926474,15.501063750695236
2BE27788-8720-8432-E053-CC2BA8C03269,3202,3202053,0185710,110901,Przekolno,wieś,436.0,53.04283782754268,15.390370871979819
2BE27788-87B1-8432-E053-CC2BA8C03269,3202,3202023,0179068,15343,Chełpa,wieś,52.0,53.19661739700667,15.492795684606298
2BE27788-87B2-8432-E053-CC2BA8C03269,3202,3202063,0186246,70183,Lubieniów,wieś,360.0,53.220270013689095,15.613870554491493
2BE27788-87B3-8432-E053-CC2BA8C03269,3202,3202023,0179140,93409,Oraczewice,wieś,223.0,53.18607863257636,15.41387917265198
2BE27788-87AE-8432-E053-CC2BA8C03269,3202,3202033,0991195,80102,Międzybór,osada,3.0,53.15212131223,15.869158002438109
2BE27788-87AF-8432-E053-CC2BA8C03269,3202,3202063,0186275,86267,Nętkowo,osada,371.0,53.26610958220871,15.635336813286031
2BE27788-87B0-8432-E053-CC2BA8C03269,3202,3202023,0179192,114150,Raduń,wieś,223.0,53.13981606955545,15.501940017490051
2BE27788-87E7-8432-E053-CC2BA8C03269,3202,3202053,0185703,133560,Sułkowo,osada,14.0,53.08970299967018,15.253830859660571
2BE27788-87D8-8432-E053-CC2BA8C03269,3202,3202063,0186335,121713,Sicko,wieś,156.0,53.25823463391287,15.501985265131758
2BE27788-8718-8432-E053-CC2BA8C03269,3202,3202012,0178123,43185,Jaglisko,wieś,128.0,53.0238022441397,15.699069320865599
2BE27788-8754-8432-E053-CC2BA8C03269,3202,3202033,1066700,201221,Sówka,osada,9.0,53.15963208102472,15.907093912673647
2BE27788-87D7-8432-E053-CC2BA8C03269,3202,3202053,0185577,173843,Przyłęki,osada leśna,7.0,52.9468614553524,15.345257072535333
2BE27788-87D9-8432-E053-CC2BA8C03269,3202,3202042,0182538,124695,Słonice,wieś,61.0,53.098196766722374,15.516784764953623
2BE27788-87EE-8432-E053-CC2BA8C03269,3202,3202012,0178206,56350,Kołecko,kolonia,3.0,53.02320671967405,15.61527436395022
2BE27788-8745-8432-E053-CC2BA8C03269,3202,3202053,0185695,64896,Kukadło,przysiółek,1.0,53.07617410359789,15.316776764851992
2BE27788-8746-8432-E053-CC2BA8C03269,3202,3202023,0179393,133500,Suliszewo,wieś,340.0,53.18937283744138,15.591682220332125
2BE27788-8747-8432-E053-CC2BA8C03269,3202,3202012,0178459,161150,Zieleniewo,wieś,403.0,53.09790500278237,15.68121359328538
2BE27788-87EB-8432-E053-CC2BA8C03269,3202,3202033,0180692,2864,Barnimie,wieś,247.0,53.161721868787595,15.785844136445988
2BE27788-87E8-8432-E053-CC2BA8C03269,3202,3202033,0935370,184912,Krosnowa,część miasta,486.0,53.21921230930918,15.758056715405694
2BE27788-87E9-8432-E053-CC2BA8C03269,3202,3202033,0180829,44222,Samborz,kolonia,10.0,53.23875451520668,15.725531058280417
2BE27788-87EA-8432-E053-CC2BA8C03269,3202,3202033,0180835,124078,Skrzaty,osada,10.0,53.247845357054025,15.788308005194944
2BE27788-873D-8432-E053-CC2BA8C03269,3202,3202063,0186387,14228,Bytowo,osada,1.0,53.33061988283037,15.53602373640506
2BE27788-873E-8432-E053-CC2BA8C03269,3202,3202053,0935647,130462,Stawin,część miasta,20.0,53.04459298612549,15.28687453134821
2BE27788-87B4-8432-E053-CC2BA8C03269,3202,3202023,0179051,8124,Bonin,wieś,71.0,53.19272469995142,15.360965314744819
2BE27788-871C-8432-E053-CC2BA8C03269,3202,3202033,0181094,116778,Rościn,osada,21.0,53.27081171928738,15.759079659067808
2BE27788-8759-8432-E053-CC2BA8C03269,3202,3202053,0185732,120900,Sarnik,osada,296.0,52.99900279859856,15.309404458077466
2BE27788-87B5-8432-E053-CC2BA8C03269,3202,3202023,0179230,35316,Gostyczyn,kolonia,16.0,53.145017177154955,15.420276951062075
2BE27788-87B6-8432-E053-CC2BA8C03269,3202,3202033,0181125,115952,Rogoźnica,osada,4.0,53.14200595203278,15.932574190161063
2BE27788-8732-8432-E053-CC2BA8C03269,3202,3202042,0182314,173841,Ligwiąca,osada,3.0,53.009556824860546,15.46444743150426
2BE27788-8733-8432-E053-CC2BA8C03269,3202,3202023,0179335,53753,Kleszczewo,kolonia,40.0,53.13288519981227,15.456283009823498
2BE27788-876A-8432-E053-CC2BA8C03269,3202,3202033,0180723,8553,Borki,kolonia,5.0,53.22275529891027,15.725838138631397
2BE27788-876B-8432-E053-CC2BA8C03269,3202,3202033,0181007,52983,Kiełpino,wieś,124.0,53.18072836575137,15.652573251033584
2BE27788-876C-8432-E053-CC2BA8C03269,3202,3202012,0178324,40099,Grzywna,kolonia,15.0,53.0514733417331,15.593287160218006
2BE27788-87D4-8432-E053-CC2BA8C03269,3202,3202012,0178258,54539,Kłodzin,kolonia,8.0,53.076239756265146,15.586055496116288
2BE27788-873F-8432-E053-CC2BA8C03269,3202,3202023,0179186,113888,Radlice,wieś,45.0,53.19151601070304,15.47328679065311
2BE27788-8740-8432-E053-CC2BA8C03269,3202,3202063,0186312,118790,Rybaki,wieś,157.0,53.303778053802596,15.529465111995403
2BE27788-8792-8432-E053-CC2BA8C03269,3202,3202012,0178264,102591,Płoszkowo,wieś,184.0,53.05320633540603,15.6760326181093
2BE27788-879B-8432-E053-CC2BA8C03269,3202,3202063,0186401,145950,Wielgoszcz,wieś,41.0,53.27582640900827,15.566627046474814
2BE27788-879C-8432-E053-CC2BA8C03269,3202,3202012,0178360,130190,Starzyce,wieś,81.0,53.04640081754323,15.635603415712852
2BE27788-87D5-8432-E053-CC2BA8C03269,3202,3202053,0185488,7825,Boguszyny,wieś,373.0,53.084922662189406,15.361300330912893
2BE27788-8734-8432-E053-CC2BA8C03269,3202,3202012,0178175,17077,Chyże,wieś,20.0,53.080432205594114,15.802971345081467
2BE27788-876D-8432-E053-CC2BA8C03269,3202,3202063,0186281,96651,Pamięcin,wieś,112.0,53.20371757388006,15.568209267940805
2BE27788-876E-8432-E053-CC2BA8C03269,3202,3202042,0182521,114578,Rakowo,wieś,263.0,53.10438044841828,15.547985340003828
2BE27788-87E0-8432-E053-CC2BA8C03269,3202,3202023,0179170,113813,Radaczewo,wieś,250.0,53.22759851199155,15.340371429257292
2BE27788-87C4-8432-E053-CC2BA8C03269,3202,3202053,0935624,184934,Pełcz,część miasta,105.0,53.04075503933201,15.305354195755454
2BE27788-87C1-8432-E053-CC2BA8C03269,3202,3202023,0179217,133587,Sułowo,kolonia,19.0,53.191520743826395,15.44016432476605
2BE27788-87C2-8432-E053-CC2BA8C03269,3202,3202012,0178407,99205,Piaseczno,osada leśna,1.0,53.1163166179354,15.809171593676469
2BE27788-87C3-8432-E053-CC2BA8C03269,3202,3202053,0185531,16457,Chrapowo,wieś,317.0,53.04419369183316,15.241513912235893
2BE27788-874E-8432-E053-CC2BA8C03269,3202,3202033,0180717,173838,Żółwinko,osada,1.0,53.1374767746601,15.76960447317665
2BE27788-87BA-8432-E053-CC2BA8C03269,3202,3202033,0180806,112285,Przysiekiercze,kolonia,9.0,53.2441432078335,15.763569232830642
2BE27788-875B-8432-E053-CC2BA8C03269,3202,3202012,0178318,115507,Rębusz,wieś,154.0,53.055956883475965,15.585987301381177
2BE27788-8795-8432-E053-CC2BA8C03269,3202,3202033,0181154,164028,Żółwino,wieś,49.0,53.2780029058653,15.677223601116596
2BE27788-87CA-8432-E053-CC2BA8C03269,3202,3202012,0178399,811,Antoniewko,osada,13.0,53.093528090276635,15.767091756694782
2BE27788-87D6-8432-E053-CC2BA8C03269,3202,3202012,0178181,75973,Malczewo,przysiółek,61.0,53.09174500505465,15.635525550009849
2BE27788-87A5-8432-E053-CC2BA8C03269,3202,3202033,0935392,184917,Zawodzie,część miasta,18.0,53.215115729242676,15.762340353661457
2BE27788-879F-8432-E053-CC2BA8C03269,3202,3202063,0186418,163665,Żeliszewo,wieś,89.0,53.203760084078105,15.541273420821875
2BE27788-87A3-8432-E053-CC2BA8C03269,3202,3202042,0990920,56200,Kolonia IV Chłopowo,kolonia,4.0,53.053910970993925,15.51340690599171
2BE27788-87A4-8432-E053-CC2BA8C03269,3202,3202033,0180769,51422,Kawczyn,kolonia,10.0,53.25186118966074,15.746955830446518
2BE27788-87BE-8432-E053-CC2BA8C03269,3202,3202033,0180858,155298,Zacisze,kolonia,5.0,53.22032486321998,15.730611163958637
2BE27788-87BB-8432-E053-CC2BA8C03269,3202,3202033,0991172,10196,Brodźce,osada,4.0,53.20725141026552,15.88638699309743
2BE27788-87BC-8432-E053-CC2BA8C03269,3202,3202023,0179105,58644,Korytowo,wieś,431.0,53.146572482818854,15.56039801058988
2BE27788-87BD-8432-E053-CC2BA8C03269,3202,3202012,0178420,161039,Zgorzel,kolonia,5.0,53.11446498972327,15.726082569685444
2BE27788-87F8-8432-E053-CC2BA8C03269,3202,3202033,0180960,45819,Jaźwiny,osada,21.0,53.15618506825465,15.897131081870327
2BE27788-87F9-8432-E053-CC2BA8C03269,3202,3202033,0180730,9801,Brac,kolonia,10.0,53.228845638000806,15.737503727809132
2BE27788-87FA-8432-E053-CC2BA8C03269,3202,3202023,0179430,148945,Witoszyn,kolonia,31.0,53.20280252946989,15.456000377868412
2BE27788-875C-8432-E053-CC2BA8C03269,3202,3202063,0186252,67354,Lestnica,kolonia,7.0,53.19979753205506,15.615318687209259
2BE27788-87D1-8432-E053-CC2BA8C03269,3202,3202053,0185548,43298,Jagów,wieś,238.0,53.07117545416566,15.253171769780591
2BE27788-87D2-8432-E053-CC2BA8C03269,3202,3202053,0935601,98793,Pełczyce,miasto,2466.0,53.04595801649165,15.296259564488901
2BE27788-87D3-8432-E053-CC2BA8C03269,3202,3202033,0180812,112707,Pszczewko,kolonia,30.0,53.229346748097434,15.755832850580372
2BE27788-875D-8432-E053-CC2BA8C03269,3202,3202012,0178287,62481,Kruczaj,kolonia,3.0,53.06364045133986,15.667182679542371
2BE27788-8773-8432-E053-CC2BA8C03269,3202,3202033,0991189,54803,Kolonia Kniewo,kolonia,17.0,53.21421298492839,15.725966820476671
2BE27788-87A6-8432-E053-CC2BA8C03269,3202,3202012,0178330,58882,Kosinek,kolonia,1.0,53.06910223568591,15.582025043150683
2BE27788-87A7-8432-E053-CC2BA8C03269,3202,3202023,0179097,56360,Kołki,wieś,307.0,53.14325942848501,15.637393754101208
2BE27788-8772-8432-E053-CC2BA8C03269,3202,3202012,0178293,110663,Przeczno,wieś,92.0,53.049959206210154,15.703305729422697
2BE27788-8774-8432-E053-CC2BA8C03269,3202,3202023,0179447,158074,Zamęcin,wieś,458.0,53.124845898164246,15.376865588538662
2BE27788-8725-8432-E053-CC2BA8C03269,3202,3202042,0182320,102169,Pluskocin,osada,28.0,53.01171832849003,15.483784635606263
2BE27788-87E5-8432-E053-CC2BA8C03269,3202,3202023,0179329,129850,Stary Klukom,wieś,264.0,53.130700029880614,15.44805238171167
2BE27788-87E6-8432-E053-CC2BA8C03269,3202,3202012,0178241,102351,Pławno,wieś,321.0,53.08683673467753,15.600960142070006
2BE27788-8737-8432-E053-CC2BA8C03269,3202,3202033,0181020,57232,Konotop,wieś,147.0,53.15528773311041,15.838963454681899
2BE27788-8738-8432-E053-CC2BA8C03269,3202,3202033,0181160,110254,Prostynia,osada,9.0,53.28871151682717,15.732849685956497
2BE27788-8739-8432-E053-CC2BA8C03269,3202,3202033,0180930,148699,Wiśniewo,kolonia,35.0,53.22259173001847,15.78656265610558
2BE27788-873A-8432-E053-CC2BA8C03269,3202,3202053,0185650,184946,Dolne,kolonia,3.0,52.95923931976862,15.292991291955266
2BE27788-874A-8432-E053-CC2BA8C03269,3202,3202063,0186370,133425,Suliborek,wieś,87.0,53.29053308460085,15.568157214687616
607C2667-7495-4B4F-8E39-CFA9716C1995,3202,3202033,0180746,171297,Dobrojewo,kolonia,4.0,53.225825199248334,15.752171374335243
84EFA766-7756-49E2-8D30-16B518A755E4,3202,3202053,0185620,173844,Dubielewo,kolonia,12.0,53.0171343419975,15.304462776669764
2BE27788-8793-8432-E053-CC2BA8C03269,3202,3202012,0178235,126145,Sojec,osada,7.0,53.0667112031155,15.651098952802275
2BE27788-87BF-8432-E053-CC2BA8C03269,3202,3202033,0180999,50952,Karpinek,osada,9.0,53.163322694820735,15.686629883213193
2BE27788-87C0-8432-E053-CC2BA8C03269,3202,3202033,0180775,52226,Kępa,kolonia,2.0,53.23770155840171,15.734464296158636
2BE27788-874B-8432-E053-CC2BA8C03269,3202,3202023,0179364,131671,Stradzewo,wieś,356.0,53.219253159448215,15.431240067426808
2BE27788-874C-8432-E053-CC2BA8C03269,3202,3202012,0178070,9986,Breń,wieś,526.0,53.048756199445066,15.751208910587252
2BE27788-875E-8432-E053-CC2BA8C03269,3202,3202033,0181119,159553,Zatom,wieś,127.0,53.1393960874686,15.912524323510757
2BE27788-879A-8432-E053-CC2BA8C03269,3202,3202012,0178198,95032,Ostromęcko,kolonia,113.0,53.01222380546004,15.658878020360666
2BE27788-875F-8432-E053-CC2BA8C03269,3202,3202042,0182426,110179,Prokolno,kolonia,15.0,53.07407661879154,15.524882459453297
2BE27788-875A-8432-E053-CC2BA8C03269,3202,3202053,0935630,184937,Starkowiec,część miasta,87.0,53.035628750181864,15.306876607430402
2BE27788-8799-8432-E053-CC2BA8C03269,3202,3202053,0185583,70070,Lubiana,osada,324.0,53.10290619508908,15.335640306625312
2BE27788-8755-8432-E053-CC2BA8C03269,3202,3202023,0179424,144205,Wardyń,wieś,412.0,53.16858819374803,15.494657366568303
2BE27788-8756-8432-E053-CC2BA8C03269,3202,3202042,0182461,7807,Boguszyce,kolonia,5.0,53.05936904171816,15.496241798717122
2BE27788-873B-8432-E053-CC2BA8C03269,3202,3202012,0178229,13245,Bukowie,kolonia,4.0,53.06291187548394,15.661111331171371
2BE27788-878D-8432-E053-CC2BA8C03269,3202,3202023,0179312,125327,Smoleń,osada,272.0,53.14825391311336,15.462271638285483
2BE27788-8726-8432-E053-CC2BA8C03269,3202,3202033,0180798,95269,Ostrożyce,kolonia,10.0,53.232583002003494,15.743594585525935
2BE27788-8727-8432-E053-CC2BA8C03269,3202,3202033,0180752,44024,Janków,kolonia,8.0,53.21837915073173,15.73865770754087
2BE27788-8728-8432-E053-CC2BA8C03269,3202,3202033,0180870,11185,Brzeziny,wieś,397.0,53.14199412644772,15.716509524263055
2BE27788-874D-8432-E053-CC2BA8C03269,3202,3202023,0179039,1642,Baczyn,kolonia,22.0,53.16504192987007,15.45979255900051
2BE27788-878B-8432-E053-CC2BA8C03269,3202,3202023,0179298,119594,Rzeczki,wieś,52.0,53.18695309569227,15.54604759866229
2BE27788-878E-8432-E053-CC2BA8C03269,3202,3202023,0179453,162495,Zwierzyn,wieś,215.0,53.103873032475555,15.409158566595279
2BE27788-878F-8432-E053-CC2BA8C03269,3202,3202042,0182432,125760,Smużyk,kolonia,9.0,53.08095847762165,15.464301223468926
2BE27788-87CB-8432-E053-CC2BA8C03269,3202,3202023,0179275,153639,Wysokie,kolonia,12.0,53.13657894451602,15.399226783194203
2BE27788-8757-8432-E053-CC2BA8C03269,3202,3202023,0179080,34398,Golcza,wieś,12.0,53.133900387163344,15.594064467569691
2BE27788-8758-8432-E053-CC2BA8C03269,3202,3202063,0935653,115023,Recz,miasto,2751.0,53.25360564903558,15.554242342975469
2BE27788-87CF-8432-E053-CC2BA8C03269,3202,3202042,0182395,51277,Kaszewo,osada,225.0,53.12019173459879,15.558699313791397
2BE27788-8724-8432-E053-CC2BA8C03269,3202,3202042,0182372,38164,Potoczna,kolonia,6.0,53.091306155264384,15.402848914391136
2BE27788-8721-8432-E053-CC2BA8C03269,3202,3202053,0185502,8027,Bolewice,wieś,219.0,53.05867947629897,15.33791032645158
2BE27788-8722-8432-E053-CC2BA8C03269,3202,3202012,0178040,5888,Bierzwnik,wieś,1077.0,53.02308780548832,15.678013602010076
2BE27788-8723-8432-E053-CC2BA8C03269,3202,3202012,0178152,63809,Krzywin,kolonia,2.0,53.00140176637754,15.623108984823743
2BE27788-8729-8432-E053-CC2BA8C03269,3202,3202042,0182343,127128,Sowiniec,osada leśna,6.0,53.021629853688594,15.51054473878115
2BE27788-8743-8432-E053-CC2BA8C03269,3202,3202012,0178117,36954,Górzno,wieś,167.0,53.006598289039424,15.585308753581659
2BE27788-8790-8432-E053-CC2BA8C03269,3202,3202033,0181088,105201,Podlesie,wieś,49.0,53.12250742712418,15.705579775224576
2BE27788-8791-8432-E053-CC2BA8C03269,3202,3202033,0181036,86826,Niemieńsko,osada,157.0,53.1787414236567,15.884601309357437
2BE27788-874F-8432-E053-CC2BA8C03269,3202,3202033,0180976,7605,Bogdanka,osada,1.0,53.15125174706363,15.877614669151592
2BE27788-877C-8432-E053-CC2BA8C03269,3202,3202033,0180982,50941,Karpin,osada,5.0,53.17198461074679,15.716123950050495
2BE27788-87C5-8432-E053-CC2BA8C03269,3202,3202042,0182490,90106,Nowy Klukom,wieś,83.0,53.11278996516822,15.498608686471522
2BE27788-87EC-8432-E053-CC2BA8C03269,3202,3202033,0180893,16202,Chomętowo,osada,264.0,53.20859037605801,15.810675246069342
2BE27788-87DD-8432-E053-CC2BA8C03269,3202,3202023,0179306,124385,Sławęcin,wieś,224.0,53.22938617172537,15.380714123993537
2BE27788-87DE-8432-E053-CC2BA8C03269,3202,3202033,0180901,25098,Dolina,kolonia,23.0,53.210595288887134,15.775794514730663
2BE27788-8750-8432-E053-CC2BA8C03269,3202,3202063,0186230,171613,Rybnica,osada leśna,5.0,53.21416790564941,15.663747836727703
2BE27788-8765-8432-E053-CC2BA8C03269,3202,3202042,0182550,145424,Wężnik,osada,17.0,53.09387228656301,15.430621273833045
2BE27788-87A8-8432-E053-CC2BA8C03269,3202,3202033,0181148,61538,Sicienko,osada,1.0,53.2053974383803,15.711553663182706
2BE27788-87AD-8432-E053-CC2BA8C03269,3202,3202033,0181071,26146,Drawnik,osada,9.0,53.20355866973187,15.758523489496367
2BE27788-87ED-8432-E053-CC2BA8C03269,3202,3202042,0182389,125930,Sobieradz,kolonia,21.0,53.06748116373534,15.396691293777328
2BE27788-8741-8432-E053-CC2BA8C03269,3202,3202063,0186200,37471,Grabowiec,osada,110.0,53.24863323308904,15.599134845803148
2BE27788-87A2-8432-E053-CC2BA8C03269,3202,3202053,0185560,63519,Krzynki,wieś,75.0,52.97645444739182,15.376754169425645
2BE27788-8760-8432-E053-CC2BA8C03269,3202,3202012,0178212,102329,Pławienko,kolonia,8.0,53.06215415655131,15.631290306247028
2BE27788-87A0-8432-E053-CC2BA8C03269,3202,3202023,0179134,89268,Nowe Żeńsko,wieś,67.0,53.12739079971618,15.40932918374953
2BE27788-87A1-8432-E053-CC2BA8C03269,3202,3202023,0179223,118136,Rudniki,wieś,40.0,53.14969064120001,15.400314136901187
2BE27788-8787-8432-E053-CC2BA8C03269,3202,3202042,0182484,126027,Sobolewo,kolonia,12.0,53.06256968398801,15.497992993778999
2BE27788-8749-8432-E053-CC2BA8C03269,3202,3202053,0185525,13566,Bukwica,osada,167.0,53.07105862638354,15.373252657497668
2BE27788-8785-8432-E053-CC2BA8C03269,3202,3202063,0186269,148926,Witosław,kolonia,1.0,53.20651435282105,15.610870053735079
2BE27788-8786-8432-E053-CC2BA8C03269,3202,3202012,0178057,9612,Bożejewko,kolonia,3.0,53.01790294559477,15.577942464156592
2BE27788-8788-8432-E053-CC2BA8C03269,3202,3202012,0178270,173839,Budzice,kolonia,5.0,53.05397670516371,15.694857788512564
2BE27788-87E4-8432-E053-CC2BA8C03269,3202,3202023,0179269,134701,Szczepanka,kolonia,6.0,53.15315431748018,15.41743138283711
2BE27788-87E1-8432-E053-CC2BA8C03269,3202,3202033,0181065,184920,Barników,kolonia,3.0,53.196098744036554,15.772490476796273
2BE27788-87E2-8432-E053-CC2BA8C03269,3202,3202042,0182478,122477,Sierosławiec,kolonia,5.0,53.05778191086637,15.493131227747392
2BE27788-87E3-8432-E053-CC2BA8C03269,3202,3202033,0935386,184915,Wiśniewo,część miasta,18.0,53.21606415063799,15.76729661909692
2BE27788-87C6-8432-E053-CC2BA8C03269,3202,3202033,0180841,184929,Śmieszkowo,kolonia,8.0,53.21490759245225,15.732698713298838
2BE27788-87C7-8432-E053-CC2BA8C03269,3202,3202012,0178092,51523,Kawno,kolonia,12.0,53.06270757081649,15.748832864349355
2BE27788-87F2-8432-E053-CC2BA8C03269,3202,3202042,0182544,163689,Żeńsko,wieś,327.0,53.10483589605569,15.449574107405546
2BE27788-87C8-8432-E053-CC2BA8C03269,3202,3202012,0178086,31316,Gajno,kolonia,28.0,53.05617536246527,15.733346891711252
2BE27788-87C9-8432-E053-CC2BA8C03269,3202,3202023,0935297,61007,Zdrojowiec,część miasta,9.0,53.168793672076674,15.456763037536554
2BE27788-87F1-8432-E053-CC2BA8C03269,3202,3202023,0179401,11583,Brzostno,kolonia,10.0,53.17811449552549,15.618826091555132
2BE27788-8761-8432-E053-CC2BA8C03269,3202,3202063,0186217,44591,Jarostowo,wieś,27.0,53.221008947286606,15.580985976947256
2BE27788-8762-8432-E053-CC2BA8C03269,3202,3202023,0179252,145632,Płoki,kolonia,2.0,53.14711617746014,15.401159689585295
2BE27788-878A-8432-E053-CC2BA8C03269,3202,3202033,0935357,26147,Drawno,miasto,2129.0,53.216782992904434,15.754628941541458
2BE27788-879D-8432-E053-CC2BA8C03269,3202,3202053,0185554,44588,Jarosławsko,wieś,488.0,53.00328747991118,15.42573930651571
2BE27788-8763-8432-E053-CC2BA8C03269,3202,3202012,0178353,146387,Smędowa,kolonia,1.0,53.04034150578937,15.592159304260491
2BE27788-8789-8432-E053-CC2BA8C03269,3202,3202023,0179341,133389,Sulechówek,kolonia,3.0,53.146485406646455,15.435784727679485
2BE27788-8771-8432-E053-CC2BA8C03269,3202,3202033,0181059,104271,Podegrodzie,osada,51.0,53.19662529907527,15.788840507955177
2BE27788-8735-8432-E053-CC2BA8C03269,3202,3202023,0179111,63452,Krzowiec,osada,96.0,53.162150250951356,15.605342766029583
2BE27788-8736-8432-E053-CC2BA8C03269,3202,3202012,0178442,25722,Dołżyna,osada,5.0,53.10371666895344,15.74637048685614
2BE27788-8770-8432-E053-CC2BA8C03269,3202,3202023,0179460,162497,Zwierzynek,kolonia,10.0,53.09561608883843,15.402350524063774
2BE27788-8780-8432-E053-CC2BA8C03269,3202,3202063,0186341,184953,Trzebień,kolonia,17.0,53.26393220720843,15.519662859474117
2BE27788-87EF-8432-E053-CC2BA8C03269,3202,3202063,0186223,61537,Kraśnik,osada,3.0,53.240898998036016,15.647747793002436
2BE27788-87F0-8432-E053-CC2BA8C03269,3202,3202063,0186424,173845,Chełpina,osada,8.0,53.208335007765264,15.53996501507194
2BE27788-8744-8432-E053-CC2BA8C03269,3202,3202053,0185590,70075,Lubianka,osada,164.0,53.100647665311364,15.366087560311957
2BE27788-8781-8432-E053-CC2BA8C03269,3202,3202042,0990936,56215,Kolonia V Chłopowo,część wsi,8.0,53.0423128724365,15.501744777075446
2BE27788-8766-8432-E053-CC2BA8C03269,3202,3202012,0178376,132106,Strumienno,kolonia,72.0,53.032422438632,15.711894720251017
2BE27788-87DC-8432-E053-CC2BA8C03269,3202,3202063,0186358,125025,Słutowo,osada,70.0,53.291742875055434,15.610095153292733
2BE27788-87AC-8432-E053-CC2BA8C03269,3202,3202023,0179200,117074,Roztocze,kolonia,38.0,53.18244760894618,15.448126656635369
2BE27788-879E-8432-E053-CC2BA8C03269,3202,3202033,0935363,184909,Kośnik,część miasta,15.0,53.213513248562805,15.765237089870931
2BE27788-87DA-8432-E053-CC2BA8C03269,3202,3202033,0181013,59125,Kostrzewa,kolonia,10.0,53.16877338839915,15.64517214871248
2BE27788-87DB-8432-E053-CC2BA8C03269,3202,3202033,0181042,88023,Nowa Korytnica,osada,6.0,53.20128737487349,15.969126892258723
2BE27788-8767-8432-E053-CC2BA8C03269,3202,3202023,0179281,119576,Rzecko,wieś,397.0,53.172019955850416,15.54632312044601
2BE27788-8753-8432-E053-CC2BA8C03269,3202,3202053,0185689,102607,Płotno,osada,348.0,53.08693467271174,15.301115787211993
2BE27788-8782-8432-E053-CC2BA8C03269,3202,3202033,0180781,75070,Maciejów,kolonia,3.0,53.24031689750775,15.741181946859037
2BE27788-8783-8432-E053-CC2BA8C03269,3202,3202033,0180700,8973,Borowiec,osada,24.0,53.19364191909163,15.751141181130984
2BE27788-8784-8432-E053-CC2BA8C03269,3202,3202063,0935676,184952,Trzebień,część miasta,17.0,53.25180930959836,15.546136872085755
2BE27788-8751-8432-E053-CC2BA8C03269,3202,3202023,0935280,16365,Choszczno,miasto,13861.0,53.16635967276374,15.425005554043183
2CFE0898-10EF-8D39-E053-CC2BA8C06EAC,3203,3203033,0306822,147157,Wierzchucin,osada,8.0,53.353833905519444,15.93338642645211
2BE27788-8764-8432-E053-CC2BA8C03269,3202,3202023,0179157,96394,Pakość,wieś,81.0,53.18314025703957,15.388055393390529
2BE27788-877D-8432-E053-CC2BA8C03269,3202,3202023,1009517,184906,Przywodzie,kolonia,6.0,53.1538076427613,15.432962213574092
2BE27788-877E-8432-E053-CC2BA8C03269,3202,3202012,0178301,173840,Trzebicz,kolonia,2.0,53.058980574799946,15.69900078083399
2BE27788-877F-8432-E053-CC2BA8C03269,3202,3202012,0178169,71443,Łasko,wieś,224.0,53.06888275687017,15.787080157351234
2BE27788-87B7-8432-E053-CC2BA8C03269,3202,3202042,0182455,79775,Mielęcin,osada,310.0,53.053071795002055,15.48120919831227
2BE27788-8742-8432-E053-CC2BA8C03269,3202,3202063,0935660,85874,Namysłowo,część miasta,10.0,53.260642918132156,15.577537018917173
2CFE0898-1181-8D39-E053-CC2BA8C06EAC,3203,3203023,0305840,31265,Gajewo,wieś,13.0,53.564338813803225,15.792865695631663
2CFE0898-10F7-8D39-E053-CC2BA8C06EAC,3203,3203033,0306785,173848,Lipinki,osada,5.0,53.285739371472275,15.906398225567052
2CFE0898-11AB-8D39-E053-CC2BA8C06EAC,3203,3203033,0306874,125638,Smugi,osada,8.0,53.31636322154305,15.924935918114898
2CFE0898-10EB-8D39-E053-CC2BA8C06EAC,3203,3203063,0314313,58989,Kosobudy,wieś,141.0,53.511034760906476,15.95506219802694
2CFE0898-118C-8D39-E053-CC2BA8C06EAC,3203,3203013,0305060,122158,Siemczyno,wieś,359.0,53.55526485038156,16.14306833345064
2CFE0898-1144-8D39-E053-CC2BA8C06EAC,3203,3203023,0305768,86269,Nętno,wieś,171.0,53.61804766185201,15.798185795190724
2CFE0898-11A1-8D39-E053-CC2BA8C06EAC,3203,3203063,0314307,21520,Darskowo,wieś,289.0,53.55384512818726,15.951517416083139
2CFE0898-1199-8D39-E053-CC2BA8C06EAC,3203,3203033,0306928,109604,Poźrzadło Wielkie,wieś,150.0,53.3715233337752,15.859945973576709
2CFE0898-11A4-8D39-E053-CC2BA8C06EAC,3203,3203063,0950374,161883,Złocieniec,miasto,11807.0,53.52702513852644,16.012238463535287
2CFE0898-1149-8D39-E053-CC2BA8C06EAC,3203,3203013,0304728,10026,Broczyno,wieś,394.0,53.527057127407986,16.31700347807482
2CFE0898-1119-8D39-E053-CC2BA8C06EAC,3203,3203023,0305745,150537,Woliczno,wieś,98.0,53.499094643524415,15.740167301134877
2CFE0898-119E-8D39-E053-CC2BA8C06EAC,3203,3203052,0314075,31645,Garbowo,wieś,31.0,53.3969505004179,16.129745738430557
2CFE0898-10FB-8D39-E053-CC2BA8C06EAC,3203,3203013,0304875,74824,Łysinin,wieś,59.0,53.54430417374038,16.35189040169497
2CFE0898-11AD-8D39-E053-CC2BA8C06EAC,3203,3203033,0306905,137070,Ślizno,wieś,84.0,53.32992872898943,15.857704370657403
2CFE0898-115A-8D39-E053-CC2BA8C06EAC,3203,3203013,0304830,71638,Łazice,wieś,22.0,53.556961174892635,16.28255460289034
2CFE0898-1159-8D39-E053-CC2BA8C06EAC,3203,3203013,0304823,56498,Kołomąt,wieś,188.0,53.58822625343181,16.257488247226647
BEFA3A21-F0A7-4CFA-8C55-9E4C3401B9C0,3203,3203063,0950440,185063,Krosin,część miasta,35.0,53.54824199104947,16.03378874690736
2CFE0898-111D-8D39-E053-CC2BA8C06EAC,3203,3203033,0306963,45612,Jaworze,wieś,1.0,53.32715732797068,15.705007561762207
2CFE0898-1131-8D39-E053-CC2BA8C06EAC,3203,3203013,0304935,184956,Turze,osada,4.0,53.47727530237611,16.359164333611577
2CFE0898-11AC-8D39-E053-CC2BA8C06EAC,3203,3203013,0305047,132637,Studniczka,osada,2.0,53.48512658085987,16.229870629236398
2CFE0898-110C-8D39-E053-CC2BA8C06EAC,3203,3203013,0304740,24923,Dobrzyca Mała,osada,10.0,53.524169791872865,16.353054709337425
2CFE0898-116F-8D39-E053-CC2BA8C06EAC,3203,3203013,0305194,129042,Stare Kaleńsko,osada,1.0,53.524854819039426,16.17512924734668
2CFE0898-1130-8D39-E053-CC2BA8C06EAC,3203,3203013,0304912,88232,Nowa Wieś,osada,11.0,53.45196185833575,16.39311331917227
2CFE0898-1162-8D39-E053-CC2BA8C06EAC,3203,3203063,0314425,76906,Małobór,osada,54.0,53.61409440647233,16.13275789172699
2CFE0898-1182-8D39-E053-CC2BA8C06EAC,3203,3203023,0305805,21280,Dalewo,wieś,105.0,53.55787824506931,15.888949340578709
2CFE0898-117C-8D39-E053-CC2BA8C06EAC,3203,3203013,0304846,51029,Karsno,osada,86.0,53.56894222720324,16.2867696213322
2CFE0898-119C-8D39-E053-CC2BA8C06EAC,3203,3203033,0307000,128431,Stara Studnica,wieś,87.0,53.386919583067765,15.957687901617481
2CFE0898-112A-8D39-E053-CC2BA8C06EAC,3203,3203023,0305863,158876,Zarańsko,wieś,469.0,53.572589354202464,15.84574545958983
2CFE0898-10F4-8D39-E053-CC2BA8C06EAC,3203,3203052,0314187,145886,Wielboki,wieś,59.0,53.43139526463656,16.32675929427818
2CFE0898-10F3-8D39-E053-CC2BA8C06EAC,3203,3203052,0314158,137902,Świerczyna,wieś,670.0,53.44975319251543,16.278164680632052
2CFE0898-1138-8D39-E053-CC2BA8C06EAC,3203,3203052,0314218,162957,Żabin,wieś,505.0,53.42792795724215,16.113615882186018
2CFE0898-1168-8D39-E053-CC2BA8C06EAC,3203,3203013,0305082,122644,Sikory,wieś,282.0,53.60709811253041,16.257931484770637
2CFE0898-11A0-8D39-E053-CC2BA8C06EAC,3203,3203033,0306970,122278,Sienica,wieś,107.0,53.40990108628885,15.98106723584293
2CFE0898-1147-8D39-E053-CC2BA8C06EAC,3203,3203063,0308577,50031,Kania Górka,osada,5.0,53.65675623246213,16.131342426973156
2CFE0898-1197-8D39-E053-CC2BA8C06EAC,3203,3203063,0308494,39163,Gronowo,wieś,50.0,53.58726524946022,15.969278336458009
2CFE0898-1164-8D39-E053-CC2BA8C06EAC,3203,3203033,0306897,107887,Pomierzyn,wieś,318.0,53.33232617870328,15.899982896635663
2CFE0898-1122-8D39-E053-CC2BA8C06EAC,3203,3203013,0305165,49217,Kamienna Góra,osada,55.0,53.48992226280932,16.31867978274415
2CFE0898-10F9-8D39-E053-CC2BA8C06EAC,3203,3203013,0304906,83770,Motarzewo,wieś,48.0,53.49825828178684,16.405689350720056
2CFE0898-1152-8D39-E053-CC2BA8C06EAC,3203,3203063,0308560,37252,Grabinek,osada,4.0,53.65671060796461,16.14794139706383
2CFE0898-1102-8D39-E053-CC2BA8C06EAC,3203,3203063,0308519,184969,Śródlesie,osada,5.0,53.61711352682481,15.965674710693001
2CFE0898-1142-8D39-E053-CC2BA8C06EAC,3203,3203023,0308637,50990,Karpno,osada,7.0,53.647288588998194,15.8835380365838
2CFE0898-1171-8D39-E053-CC2BA8C06EAC,3203,3203013,0949827,159664,Zawada,część miasta,18.0,53.53898278441651,16.21188346115906
2CFE0898-10ED-8D39-E053-CC2BA8C06EAC,3203,3203023,0308666,139515,Tęczyn,osada,2.0,53.63167434805236,15.861526730068402
2CFE0898-1112-8D39-E053-CC2BA8C06EAC,3203,3203023,0308608,25904,Donatowo,wieś,36.0,53.65490941944163,15.937666365089427
2CFE0898-10E8-8D39-E053-CC2BA8C06EAC,3203,3203023,0305700,68339,Linowno,wieś,292.0,53.48552732762518,15.910068530688672
2CFE0898-113A-8D39-E053-CC2BA8C06EAC,3203,3203033,0307023,45081,Jasnopole,wieś,27.0,53.31069459448285,15.878061881781482
2CFE0898-1136-8D39-E053-CC2BA8C06EAC,3203,3203023,0305739,92380,Oleszno,wieś,127.0,53.45367470724427,15.749865950589585
2CFE0898-1174-8D39-E053-CC2BA8C06EAC,3203,3203023,0305834,31256,Gajewko,wieś,49.0,53.54787548454738,15.764096368139201
2CFE0898-1107-8D39-E053-CC2BA8C06EAC,3203,3203063,0308614,102444,Płocie,wieś,42.0,53.65570128535561,16.044941195299504
2CFE0898-1143-8D39-E053-CC2BA8C06EAC,3203,3203023,0305774,66694,Lasocin,wieś,41.0,53.630477182959616,15.784130537991306
2CFE0898-1190-8D39-E053-CC2BA8C06EAC,3203,3203033,0306986,128205,Stara Korytnica,wieś,113.0,53.295529946148875,16.034841953170847
2CFE0898-1148-8D39-E053-CC2BA8C06EAC,3203,3203063,0308672,121768,Siecino,wieś,125.0,53.61404935515267,15.999474040967675
2CFE0898-119D-8D39-E053-CC2BA8C06EAC,3203,3203052,0314224,163690,Żeńsko,wieś,109.0,53.40677900864755,16.05702952282147
2CFE0898-1150-8D39-E053-CC2BA8C06EAC,3203,3203063,0308554,173851,Bolegorzyn,osada,238.0,53.65521744651418,16.153563032662074
2CFE0898-10F5-8D39-E053-CC2BA8C06EAC,3203,3203023,0949879,173846,Jankowo,część miasta,24.0,53.51839127298423,15.78110767870517
2CFE0898-114A-8D39-E053-CC2BA8C06EAC,3203,3203063,0950428,184976,Grotniki,część miasta,429.0,53.52425666852535,15.993203995122316
2CFE0898-114E-8D39-E053-CC2BA8C06EAC,3203,3203013,0305076,151848,Wrześnica,osada,20.0,53.551472815705715,16.178426197617682
2CFE0898-10FC-8D39-E053-CC2BA8C06EAC,3203,3203013,0304770,162752,Zdziersko,osada,1.0,53.56722700820469,16.32624781650633
2CFE0898-10F8-8D39-E053-CC2BA8C06EAC,3203,3203013,0304881,74960,Machliny,wieś,157.0,53.4618462846794,16.375673449548625
2CFE0898-10FE-8D39-E053-CC2BA8C06EAC,3203,3203013,0305136,128998,Stare Gonne,wieś,35.0,53.67577358615136,16.22156193667782
2CFE0898-112F-8D39-E053-CC2BA8C06EAC,3203,3203013,0304757,80733,Miłkowo,osada,147.0,53.507810289902125,16.34117186726307
2CFE0898-112C-8D39-E053-CC2BA8C06EAC,3203,3203023,0305930,65191,Kumki,wieś,37.0,53.53975910677229,15.73171281678771
2CFE0898-116B-8D39-E053-CC2BA8C06EAC,3203,3203023,0305828,155911,Zagozd,wieś,212.0,53.57359301750885,15.756772143638779
2CFE0898-117A-8D39-E053-CC2BA8C06EAC,3203,3203023,0305722,79752,Mielenko Drawskie,wieś,202.0,53.49583141710733,15.792024255000785
2CFE0898-1134-8D39-E053-CC2BA8C06EAC,3203,3203033,0307017,133174,Suchowo,wieś,233.0,53.31717825500083,15.824098483264068
2CFE0898-115E-8D39-E053-CC2BA8C06EAC,3203,3203023,0305797,133501,Suliszewo,wieś,521.0,53.52185368448607,15.897567929642364
2CFE0898-1160-8D39-E053-CC2BA8C06EAC,3203,3203052,0314247,114002,Radomyśl,osada,81.0,53.458932241816015,16.03040321996417
2CFE0898-10FD-8D39-E053-CC2BA8C06EAC,3203,3203013,0304786,19133,Czarne Wielkie,wieś,239.0,53.644752878932444,16.270898113874352
2CFE0898-1193-8D39-E053-CC2BA8C06EAC,3203,3203013,0949810,18679,Czaplinek,miasto,6508.0,53.55422396424127,16.23048981011463
2CFE0898-1155-8D39-E053-CC2BA8C06EAC,3203,3203023,0949862,26161,Drawsko Pomorskie,miasto,10680.0,53.53495668860396,15.812587764933065
2CFE0898-1186-8D39-E053-CC2BA8C06EAC,3203,3203063,0314402,144283,Warniłęg,wieś,99.0,53.61816671750945,16.127818393098313
2CFE0898-1103-8D39-E053-CC2BA8C06EAC,3203,3203023,0308650,184970,Przystanek,osada,3.0,53.629697185999866,15.907566763262361
2CFE0898-10FF-8D39-E053-CC2BA8C06EAC,3203,3203023,0308488,173849,Węglin,osada,7.0,53.605153591884104,15.862683961806987
2CFE0898-112D-8D39-E053-CC2BA8C06EAC,3203,3203063,0314359,6537,Błędno,osada,3.0,53.46189611749464,15.918489801558538
2CFE0898-115D-8D39-E053-CC2BA8C06EAC,3203,3203063,0314276,144761,Wąsosz,osada,19.0,53.50090270739298,16.090731814036335
2CFE0898-1104-8D39-E053-CC2BA8C06EAC,3203,3203013,0304817,11091,Brzezinka,wieś,1.0,53.67519616424474,16.17736258926845
2CFE0898-1184-8D39-E053-CC2BA8C06EAC,3203,3203063,0314282,17711,Cieszyno,wieś,178.0,53.59064311083121,16.038430443486746
2CFE0898-1137-8D39-E053-CC2BA8C06EAC,3203,3203033,0306880,98845,Pepłówek,wieś,120.0,53.37755652452283,15.927970021702386
2CFE0898-1113-8D39-E053-CC2BA8C06EAC,3203,3203023,0305716,70946,Łabędzie,wieś,337.0,53.65478809000822,15.822789063364025
2CFE0898-10F0-8D39-E053-CC2BA8C06EAC,3203,3203023,0305952,164002,Żółte,wieś,91.0,53.59182001470989,15.842135122689546
2CFE0898-113C-8D39-E053-CC2BA8C06EAC,3203,3203023,0305662,40161,Gudowo,wieś,373.0,53.495406772889844,15.847468992028293
2CFE0898-1111-8D39-E053-CC2BA8C06EAC,3203,3203023,0308525,46135,Jelenino,wieś,122.0,53.662919994617866,15.969648280516049
2CFE0898-1179-8D39-E053-CC2BA8C06EAC,3203,3203063,0308548,89224,Nowe Worowo,wieś,475.0,53.653608613028446,16.101098341600462
2CFE0898-11A2-8D39-E053-CC2BA8C06EAC,3203,3203023,0305691,163928,Żołędowo,wieś,49.0,53.414590899558256,15.894868935739947
2CFE0898-1170-8D39-E053-CC2BA8C06EAC,3203,3203013,0304869,144920,Wełnica,osada,46.0,53.54863108652041,16.271680209452946
2CFE0898-114B-8D39-E053-CC2BA8C06EAC,3203,3203052,0314230,162964,Żabinek,wieś,268.0,53.4464069937322,16.03713537146563
2CFE0898-11A7-8D39-E053-CC2BA8C06EAC,3203,3203063,0314253,7259,Bobrowo,wieś,274.0,53.512201783003896,16.092992395469587
2CFE0898-114C-8D39-E053-CC2BA8C06EAC,3203,3203063,0308436,15411,Chlebowo,wieś,180.0,53.63368690477094,16.043057054056685
2CFE0898-1101-8D39-E053-CC2BA8C06EAC,3203,3203023,0949885,184958,Koleśno,część miasta,3.0,53.51312805644331,15.7900218890695
2CFE0898-1180-8D39-E053-CC2BA8C06EAC,3203,3203063,0950457,114583,Rakowo,część miasta,12.0,53.52089634781446,16.040618481393718
2CFE0898-1140-8D39-E053-CC2BA8C06EAC,3203,3203063,0990155,136467,Szymalów,osada,1.0,53.59844553871891,16.13152633121411
2CFE0898-10F2-8D39-E053-CC2BA8C06EAC,3203,3203052,0314112,95875,Otrzep,wieś,58.0,53.41265747977224,16.238270916899783
2CFE0898-1185-8D39-E053-CC2BA8C06EAC,3203,3203063,0314388,129419,Stare Worowo,wieś,202.0,53.623977354011636,16.080925682795083
2CFE0898-1189-8D39-E053-CC2BA8C06EAC,3203,3203013,0304792,33366,Głęboczek,wieś,46.0,53.56529444362549,16.084284796414583
2CFE0898-1153-8D39-E053-CC2BA8C06EAC,3203,3203023,0305969,92195,Olchowiec,wieś,1.0,53.59306668436423,15.787446854858436
2CFE0898-110F-8D39-E053-CC2BA8C06EAC,3203,3203063,0308703,134982,Szczycienko,wieś,18.0,53.65056819893112,16.005647764782008
2CFE0898-118A-8D39-E053-CC2BA8C06EAC,3203,3203013,0304987,99211,Piaseczno,wieś,79.0,53.580709136432176,16.139610301161092
2CFE0898-1139-8D39-E053-CC2BA8C06EAC,3203,3203023,0308620,112427,Przytoń,wieś,141.0,53.63083159627933,15.878468773129116
2CFE0898-117D-8D39-E053-CC2BA8C06EAC,3203,3203013,0304958,72186,Łąka,osada,107.0,53.53876486019477,16.198708067984107
2CFE0898-1183-8D39-E053-CC2BA8C06EAC,3203,3203063,0308583,137125,Śmidzięcino,wieś,1.0,53.66228898561231,16.150692997638476
2CFE0898-1100-8D39-E053-CC2BA8C06EAC,3203,3203023,0308643,173850,Kiełpin,osada,1.0,53.62102934917541,15.908067237147534
2CFE0898-119F-8D39-E053-CC2BA8C06EAC,3203,3203063,0308502,26597,Drzeńsko,osada,3.0,53.589485199482205,16.000577785404158
2CFE0898-114F-8D39-E053-CC2BA8C06EAC,3203,3203013,1009629,15573,Chmielewo,osada,20.0,53.560798251299964,16.174140003404524
2CFE0898-1114-8D39-E053-CC2BA8C06EAC,3203,3203023,0308465,39980,Grzybno,wieś,14.0,53.58780364387268,15.872307513719242
2CFE0898-1178-8D39-E053-CC2BA8C06EAC,3203,3203013,0305202,163704,Żerdno,wieś,46.0,53.619644533222306,16.237926939866853
2CFE0898-1173-8D39-E053-CC2BA8C06EAC,3203,3203023,0305917,43989,Jankowo,wieś,455.0,53.52204446841406,15.75436960187553
2CFE0898-1175-8D39-E053-CC2BA8C06EAC,3203,3203013,0305107,128967,Stare Drawsko,wieś,118.0,53.60072109888914,16.177995307845965
2CFE0898-1158-8D39-E053-CC2BA8C06EAC,3203,3203013,0304800,54296,Kluczewo,wieś,284.0,53.652891284518006,16.18464104104018
2CFE0898-110A-8D39-E053-CC2BA8C06EAC,3203,3203052,0314170,23400,Dębniewice,osada,17.0,53.47434989821272,16.320135760496534
2CFE0898-110B-8D39-E053-CC2BA8C06EAC,3203,3203033,0306791,23792,Łowno,osada,4.0,53.23016937625208,15.818064245336187
2CFE0898-1117-8D39-E053-CC2BA8C06EAC,3203,3203023,0305900,17094,Cianowo,wieś,11.0,53.56493343358402,15.721244259133313
2CFE0898-1195-8D39-E053-CC2BA8C06EAC,3203,3203063,0314320,58994,Jarosław,osada,8.0,53.49470350789926,15.97587055238533
2CFE0898-115C-8D39-E053-CC2BA8C06EAC,3203,3203013,0304993,102353,Pławno,wieś,165.0,53.508829895849814,16.18881721656137
2CFE0898-1135-8D39-E053-CC2BA8C06EAC,3203,3203023,0949891,92067,Okrze,część miasta,19.0,53.511717408878674,15.822600527163981
2CFE0898-1198-8D39-E053-CC2BA8C06EAC,3203,3203033,0306911,107888,Tarnice,osada,28.0,53.3526491754734,15.907051180358936
2CFE0898-1157-8D39-E053-CC2BA8C06EAC,3203,3203013,0304763,19112,Czarne Małe,wieś,167.0,53.557992425311156,16.32984612010733
2CFE0898-1127-8D39-E053-CC2BA8C06EAC,3203,3203023,0308420,55992,Kolno,osada,7.0,53.64219480991572,15.947252444858632
2CFE0898-1151-8D39-E053-CC2BA8C06EAC,3203,3203063,0314419,185075,Jadwiżyn,osada,33.0,53.629360334322776,16.137779180807083
2CFE0898-1172-8D39-E053-CC2BA8C06EAC,3203,3203013,0305188,17205,Cichorzecze,osada,18.0,53.52863198019022,16.198101020378775
2CFE0898-118E-8D39-E053-CC2BA8C06EAC,3203,3203013,0304929,106292,Podstrzesze,osada,1.0,53.50544452081548,16.38438990976545
2CFE0898-118D-8D39-E053-CC2BA8C06EAC,3203,3203033,0306845,102800,Pniewy,osada,1.0,53.32465880761022,15.92040775984871
2CFE0898-11A9-8D39-E053-CC2BA8C06EAC,3203,3203033,0306868,122036,Siekiercze,osada,1.0,53.321909131789084,15.930740619444586
2CFE0898-1123-8D39-E053-CC2BA8C06EAC,3203,3203033,0306992,51114,Karwiagać,osada,3.0,53.28074382871558,16.03089150202035
2CFE0898-1106-8D39-E053-CC2BA8C06EAC,3203,3203063,0308442,17417,Cieminko,wieś,64.0,53.67230807117043,16.056596068818354
2CFE0898-1191-8D39-E053-CC2BA8C06EAC,3203,3203033,0306851,110451,Pruszcz,wieś,4.0,53.30309758425649,15.994982527935644
2CFE0898-1133-8D39-E053-CC2BA8C06EAC,3203,3203013,0305099,65749,Kuszewo,osada,18.0,53.623029014043546,16.27142978419715
2CFE0898-10EC-8D39-E053-CC2BA8C06EAC,3203,3203063,0314336,58985,Kosobudki,osada,18.0,53.50037205448186,15.936997737774773
2CFE0898-10EE-8D39-E053-CC2BA8C06EAC,3203,3203013,0305159,14193,Byszkowo,osada,105.0,53.50139612000112,16.2816186247297
2CFE0898-1146-8D39-E053-CC2BA8C06EAC,3203,3203063,0308689,24784,Dobrosław,osada,19.0,53.63719599906512,16.010312909105018
2CFE0898-110D-8D39-E053-CC2BA8C06EAC,3203,3203023,0308459,25449,Dołgie,wieś,120.0,53.6014936286869,15.904699961587655
2CFE0898-1194-8D39-E053-CC2BA8C06EAC,3203,3203063,0314365,159559,Zatonie,osada,5.0,53.432286538647325,15.975868882035522
2CFE0898-1109-8D39-E053-CC2BA8C06EAC,3203,3203052,0314164,21446,Danowice,osada,1.0,53.459845497174776,16.310944329915383
2CFE0898-113F-8D39-E053-CC2BA8C06EAC,3203,3203013,0305120,133427,Sulibórz,osada,2.0,53.63214231507202,16.170607717278155
2CFE0898-1132-8D39-E053-CC2BA8C06EAC,3203,3203052,0314141,62248,Króle,osada,5.0,53.43827935912674,16.23305776009809
2CFE0898-1125-8D39-E053-CC2BA8C06EAC,3203,3203052,0314135,54819,Knowie,osada,1.0,53.45869543271485,16.21813450485765
2CFE0898-112B-8D39-E053-CC2BA8C06EAC,3203,3203023,0305870,34307,Gogółczyn,wieś,1.0,53.549973491798774,15.823488483225093
2CFE0898-11A5-8D39-E053-CC2BA8C06EAC,3203,3203052,0314098,94317,Osiek Drawski,wieś,332.0,53.48000417501944,16.04382166986081
2CFE0898-119B-8D39-E053-CC2BA8C06EAC,3203,3203023,0305886,117095,Roztoki,wieś,7.0,53.578872069830446,15.804849643381418
2CFE0898-10F6-8D39-E053-CC2BA8C06EAC,3203,3203023,0305975,173847,Żółcin,osada,17.0,53.591760170776524,15.817483111660614
2CFE0898-1124-8D39-E053-CC2BA8C06EAC,3203,3203023,0305685,51124,Karwice,wieś,19.0,53.45144159022096,15.871103709040943
2CFE0898-1141-8D39-E053-CC2BA8C06EAC,3203,3203063,0314448,143059,Uraz,osada,9.0,53.63940417944123,16.150605066318565
2CFE0898-118B-8D39-E053-CC2BA8C06EAC,3203,3203013,0305053,119839,Rzepowo,wieś,200.0,53.59660945432667,16.101063305474202
2CFE0898-1187-8D39-E053-CC2BA8C06EAC,3203,3203063,0950380,12416,Budów,część miasta,75.0,53.53879464467471,16.050681473212546
2CFE0898-1118-8D39-E053-CC2BA8C06EAC,3203,3203023,0305892,160420,Zbrojewo,wieś,6.0,53.541197462883126,15.719792083564766
2CFE0898-117E-8D39-E053-CC2BA8C06EAC,3203,3203013,0305171,163655,Żelisławie,wieś,85.0,53.5326933976331,16.168526409289196
2CFE0898-1188-8D39-E053-CC2BA8C06EAC,3203,3203063,0314260,133583,Sułoszyn,osada,4.0,53.511455068481936,16.050246888759816
2CFE0898-11AA-8D39-E053-CC2BA8C06EAC,3203,3203033,0306816,123862,Skotniki,osada,10.0,53.31368231287833,15.981776228710821
2CFE0898-115B-8D39-E053-CC2BA8C06EAC,3203,3203013,0304852,100150,Piekary,wieś,59.0,53.54260109198106,16.262939157596463
2CFE0898-112E-8D39-E053-CC2BA8C06EAC,3203,3203013,0304898,74963,Kosin,osada,23.0,53.47457886769561,16.360563939287402
2CFE0898-10EA-8D39-E053-CC2BA8C06EAC,3203,3203063,0950434,59041,Kosowo,część miasta,3.0,53.50806474573889,16.013894498641278
2CFE0898-1105-8D39-E053-CC2BA8C06EAC,3203,3203063,0308695,125471,Smołdzęcino,wieś,52.0,53.684037120773404,16.08440089812537
2CFE0898-1128-8D39-E053-CC2BA8C06EAC,3203,3203023,0305923,63520,Krzynno,osada,13.0,53.53595675601235,15.73143183546496
2CFE0898-110E-8D39-E053-CC2BA8C06EAC,3203,3203023,0305857,34524,Golina,osada,10.0,53.56918615173823,15.762408695047936
2CFE0898-1196-8D39-E053-CC2BA8C06EAC,3203,3203063,0950411,50138,Gaje,część miasta,3.0,53.50509393272307,15.986813611997302
2CFE0898-10F1-8D39-E053-CC2BA8C06EAC,3203,3203052,0314081,88899,Nowe Laski,wieś,100.0,53.3994518420023,16.17193371255165
2CFE0898-11A3-8D39-E053-CC2BA8C06EAC,3203,3203052,0314201,147152,Wierzchówko,osada,58.0,53.462819613220745,16.13289729541566
2CFE0898-111E-8D39-E053-CC2BA8C06EAC,3203,3203033,0306934,110253,Prostynia,wieś,57.0,53.32207694725013,15.77195088036495
2CFE0898-1121-8D39-E053-CC2BA8C06EAC,3203,3203033,0306756,9822,Bralin,wieś,185.0,53.24734664420183,15.989529448387897
2CFE0898-1165-8D39-E053-CC2BA8C06EAC,3203,3203033,0306839,61982,Krężno,wieś,34.0,53.30680235600806,15.949289354187737
2CFE0898-1163-8D39-E053-CC2BA8C06EAC,3203,3203063,0314431,78982,Męcidół,kolonia,8.0,53.60576099030159,16.14473944295526
2CFE0898-1145-8D39-E053-CC2BA8C06EAC,3203,3203023,0308407,8832,Borne,wieś,79.0,53.631612291483165,15.930114617759418
2CFE0898-113D-8D39-E053-CC2BA8C06EAC,3203,3203023,0308590,95077,Ostrowice,wieś,432.0,53.63561541057674,15.973112747938874
2CFE0898-116E-8D39-E053-CC2BA8C06EAC,3203,3203013,0304964,88737,Nowe Drawsko,wieś,47.0,53.60264551559787,16.229386053868872
2CFE0898-1110-8D39-E053-CC2BA8C06EAC,3203,3203023,0308531,135057,Szczytniki,osada,28.0,53.66010838882613,15.993990058293663
2CFE0898-117F-8D39-E053-CC2BA8C06EAC,3203,3203013,0304941,87416,Niwka,wieś,128.0,53.54721668552586,16.20361023721321
2CFE0898-113B-8D39-E053-CC2BA8C06EAC,3203,3203023,0305811,155974,Zagórki,wieś,48.0,53.52400060062411,15.85130888833548
2CFE0898-1166-8D39-E053-CC2BA8C06EAC,3203,3203013,0305018,65899,Kuźnica Drawska,wieś,12.0,53.62489078234635,16.217119822424095
2CFE0898-1161-8D39-E053-CC2BA8C06EAC,3203,3203063,0314371,119930,Rzęśnica,wieś,199.0,53.53267393917529,15.940336241135498
2CFE0898-1192-8D39-E053-CC2BA8C06EAC,3203,3203033,0306800,32713,Giżyno,wieś,323.0,53.33802584431274,15.959839033236518
2CFE0898-111B-8D39-E053-CC2BA8C06EAC,3203,3203033,0306940,9116,Borowo,wieś,21.0,53.379878355056334,15.697506437086965
2CFE0898-111C-8D39-E053-CC2BA8C06EAC,3203,3203033,0306957,33519,Głębokie,wieś,33.0,53.312490059158435,15.642228800111068
2CFE0898-111F-8D39-E053-CC2BA8C06EAC,3203,3203033,0306779,23791,Dębsko,wieś,194.0,53.25156156313305,15.865827948199076
2CFE0898-1120-8D39-E053-CC2BA8C06EAC,3203,3203033,0306740,5045,Biały Zdrój,wieś,271.0,53.252043587652224,15.945127626429912
2CFE0898-10FA-8D39-E053-CC2BA8C06EAC,3203,3203013,0304970,95048,Ostroróg,wieś,63.0,53.54043228159567,16.387745890982362
2CFE0898-114D-8D39-E053-CC2BA8C06EAC,3203,3203052,0314193,147143,Wierzchowo,wieś,1390.0,53.46271354546521,16.135364086377237
2CFE0898-1154-8D39-E053-CC2BA8C06EAC,3203,3203033,0949916,48617,Kalisz Pomorski,miasto,3959.0,53.292409270113396,15.907281347016411
2CFE0898-1156-8D39-E053-CC2BA8C06EAC,3203,3203033,0306762,18197,Cybowo,wieś,330.0,53.286004552691374,15.823259512189264
2CFE0898-1108-8D39-E053-CC2BA8C06EAC,3203,3203023,0308413,184972,Jutrosin,osada,31.0,53.64036851028208,15.916626111729938
2CFE0898-115F-8D39-E053-CC2BA8C06EAC,3203,3203063,0314394,130754,Stawno,wieś,137.0,53.481208449317535,15.970260909099427
2CFE0898-113E-8D39-E053-CC2BA8C06EAC,3203,3203063,0314299,123489,Skąpe,osada,14.0,53.60666176618817,16.065796410326897
2CFE0898-11A6-8D39-E053-CC2BA8C06EAC,3203,3203052,0314106,8127,Bonin,wieś,14.0,53.47900753968147,16.01376403219539
2CFE0898-11A8-8D39-E053-CC2BA8C06EAC,3203,3203023,0305780,119157,Rydzewo,wieś,259.0,53.61798159998206,15.835549171388653
2CFE0898-1129-8D39-E053-CC2BA8C06EAC,3203,3203052,0314129,126970,Sośnica,wieś,185.0,53.46222452757929,16.20175831420624
2CFE0898-1115-8D39-E053-CC2BA8C06EAC,3203,3203052,0314069,4133,Będlino,wieś,199.0,53.43026690674164,16.160176607428834
2CFE0898-119A-8D39-E053-CC2BA8C06EAC,3203,3203013,0305001,110227,Prosinko,wieś,108.0,53.63970540627493,16.229385361695982
2CFE0898-116D-8D39-E053-CC2BA8C06EAC,3203,3203023,0305679,57235,Konotop,wieś,133.0,53.43959675965949,15.804148319500399
2CFE0898-1167-8D39-E053-CC2BA8C06EAC,3203,3203013,0305030,112621,Psie Głowy,wieś,69.0,53.4941010202335,16.251824922585637
2CFE0898-1177-8D39-E053-CC2BA8C06EAC,3203,3203013,0305142,140823,Trzciniec,wieś,144.0,53.49522606353952,16.298755837346395
2CFE0898-1176-8D39-E053-CC2BA8C06EAC,3203,3203013,0305113,26098,Drahimek,osada,88.0,53.61856564470967,16.188775914732428
2CFE0898-118F-8D39-E053-CC2BA8C06EAC,3203,3203013,0305024,110229,Prosino,wieś,41.0,53.65365605891538,16.213171386330938
2CFE0898-111A-8D39-E053-CC2BA8C06EAC,3203,3203023,0305751,161582,Ziemsko,wieś,36.0,53.45379907534893,15.69977459271316
2CFE0898-116A-8D39-E053-CC2BA8C06EAC,3203,3203023,0305946,143240,Ustok,wieś,16.0,53.55016624024506,15.738548029272039
fea2595e-c3ef-42f1-bc4a-9df8dd14c72e,3204,3204043,0780162,173857,Bromierz,kolonia,2.0,53.593087994751905,15.184918970742698
25f33d85-87e7-4318-a53d-a0ba9baf53db,3203,3203063,0314342,70216,Lubieszewo,wieś,268.0,53.45380452455793,15.94480026503219
2BE0D8A7-15EB-74C1-E053-CA2BA8C0EAAB,3204,3204023,0775340,42523,Inoujście,wieś,4.0,53.53038782735541,14.643591823643519
2BE0D8A7-161A-74C1-E053-CA2BA8C0EAAB,3204,3204023,0775586,171380,Kamieniska,osada,6.0,53.54190427406133,14.645817226286537
2BE0D8A7-1685-74C1-E053-CA2BA8C0EAAB,3204,3204033,0779093,131299,Stodólska,osada,27.0,53.51836791410711,15.096833518287475
2BE0D8A7-1635-74C1-E053-CA2BA8C0EAAB,3204,3204043,0780044,95864,Otręby,osada,27.0,53.69407389384635,15.108671201258389
2BE0D8A7-1684-74C1-E053-CA2BA8C0EAAB,3204,3204043,0979410,114035,Radosław,część miasta,,53.66764797295753,15.152145822748128
2BE0D8A7-15FD-74C1-E053-CA2BA8C0EAAB,3204,3204033,0779006,82745,Mokre,wieś,191.0,53.52917391097276,15.207763002492603
2BE0D8A7-160A-74C1-E053-CA2BA8C0EAAB,3204,3204033,0778975,58645,Korytowo,wieś,167.0,53.59485803140315,15.153237151840688
2BE0D8A7-1643-74C1-E053-CA2BA8C0EAAB,3204,3204043,0779897,129513,Starogoszcz,kolonia,3.0,53.615356026142244,15.13441583464485
2BE0D8A7-16B3-74C1-E053-CA2BA8C0EAAB,3204,3204043,0779928,173858,Ogary,przysiółek,2.0,53.77154699683087,15.039008624091466
2BE0D8A7-15F7-74C1-E053-CA2BA8C0EAAB,3204,3204043,0780140,5732,Bieniczki,osada,50.0,53.64188016299248,15.281179184125028
2BE0D8A7-16A2-74C1-E053-CA2BA8C0EAAB,3204,3204023,0979047,185092,Zarosty,część miasta,570.0,53.57438148420994,14.822464750298737
2BE0D8A7-15E1-74C1-E053-CA2BA8C0EAAB,3204,3204062,1063445,201203,Przełęg,osada,,53.76967360831938,14.722976330899575
e5840e60-2786-43e4-9a3b-06e51dc287fd,3204,3204033,0778923,24789,Dobrosławiec,wieś,117.0,53.51289227506081,14.986280114078056
2BE0D8A7-16BF-74C1-E053-CA2BA8C0EAAB,3204,3204023,0775505,112901,Pucice,wieś,751.0,53.472928608955804,14.732183537993034
2BE0D8A7-1666-74C1-E053-CA2BA8C0EAAB,3204,3204023,0775280,83621,Mosty-Osiedle,osada,141.0,53.57007046544445,14.944421641021208
2BE0D8A7-15EE-74C1-E053-CA2BA8C0EAAB,3204,3204033,0979188,78330,Maszewo,miasto,3096.0,53.495546293721624,15.062979483041822
2BE0D8A7-1632-74C1-E053-CA2BA8C0EAAB,3204,3204023,0775623,147058,Wierzchosław,wieś,223.0,53.64043839751437,14.78868458615278
2BE0D8A7-15DC-74C1-E053-CA2BA8C0EAAB,3204,3204043,0780340,153863,Wyszomierz,wieś,236.0,53.62237768431532,15.069672670636693
2BE0D8A7-1661-74C1-E053-CA2BA8C0EAAB,3204,3204043,0780274,141090,Trzechel,wieś,199.0,53.72793200255145,14.977679756874311
2BE0D8A7-169D-74C1-E053-CA2BA8C0EAAB,3204,3204043,0780050,91394,Ogorzele,osada,27.0,53.71599380448351,15.038384623655789
2BE0D8A7-1663-74C1-E053-CA2BA8C0EAAB,3204,3204043,0780067,92235,Olszyca,przysiółek,9.0,53.71549861916176,15.034861599510226
2BE0D8A7-163D-74C1-E053-CA2BA8C0EAAB,3204,3204062,0781575,13092,Buk,osada,39.0,53.76515439147837,14.94528073525343
2BE0D8A7-15F9-74C1-E053-CA2BA8C0EAAB,3204,3204043,0779791,185111,Miodne,przysiółek,5.0,53.72750673903465,15.024784393509115
15866d40-e974-4fbb-bef0-0b7350a83ecc,3204,3204043,0780156,95619,Ostrzyca,wieś,273.0,53.61251605632331,15.189579441056182
2BE0D8A7-166D-74C1-E053-CA2BA8C0EAAB,3204,3204023,0978941,185082,Budzisław,część miasta,72.0,53.56702049615813,14.854574658105099
2BE0D8A7-15F5-74C1-E053-CA2BA8C0EAAB,3204,3204023,0979030,185091,Wygonki,część miasta,22.0,53.57329314202776,14.851403845306761
2BE0D8A7-16C1-74C1-E053-CA2BA8C0EAAB,3204,3204043,0780370,129426,Stare Wyszomierki,kolonia,60.0,53.613991458447806,15.060489834208798
2BE0D8A7-1626-74C1-E053-CA2BA8C0EAAB,3204,3204043,0779957,144289,Warnkowo,przysiółek,109.0,53.68260091790506,15.09339317222269
2BE0D8A7-16A5-74C1-E053-CA2BA8C0EAAB,3204,3204062,0781724,116134,Rokita,osada,217.0,53.77003794200517,14.834629370371925
2BE0D8A7-16C0-74C1-E053-CA2BA8C0EAAB,3204,3204062,0781782,154791,Zabierzewo,wieś,144.0,53.759928475232186,14.75509427630258
2BE0D8A7-1665-74C1-E053-CA2BA8C0EAAB,3204,3204062,0781718,126812,Sosnowice,kolonia,46.0,53.72854033863512,14.796011796150124
2BE0D8A7-162F-74C1-E053-CA2BA8C0EAAB,3204,3204062,0781701,111332,Przybiernów,wieś,1551.0,53.7577812615337,14.790856937727506
2BE0D8A7-1660-74C1-E053-CA2BA8C0EAAB,3204,3204043,0779762,7051,Błotno,wieś,261.0,53.759715188868896,15.019134999256762
2BE0D8A7-169A-74C1-E053-CA2BA8C0EAAB,3204,3204073,0783812,57972,Kopice,wieś,122.0,53.701267649944505,14.56003789443064
2BE0D8A7-1602-74C1-E053-CA2BA8C0EAAB,3204,3204043,0780363,89234,Nowe Wyszomierki,kolonia,10.0,53.606771535354916,15.083521225491932
2BE0D8A7-1607-74C1-E053-CA2BA8C0EAAB,3204,3204033,0779070,126244,Sokolniki,wieś,230.0,53.48647034504957,15.146419855160575
2BE0D8A7-1652-74C1-E053-CA2BA8C0EAAB,3204,3204023,0775652,157855,Załom,wieś,1297.0,53.43843342154871,14.722138813557047
2BE0D8A7-166B-74C1-E053-CA2BA8C0EAAB,3204,3204023,0775238,18889,Czarna Łąka,wieś,425.0,53.45746777252258,14.717984930623329
2BE0D8A7-165E-74C1-E053-CA2BA8C0EAAB,3204,3204043,0780311,150756,Wołowiec,wieś,244.0,53.765146619188194,15.15192568755528
2BE0D8A7-16BA-74C1-E053-CA2BA8C0EAAB,3204,3204033,0778930,34203,Godowo,wieś,135.0,53.55533680342209,15.087305447750467
2BE0D8A7-16A1-74C1-E053-CA2BA8C0EAAB,3204,3204062,0781753,125962,Sobieszewo,wieś,32.0,53.67560117165001,14.860204930213662
2BE0D8A7-15EA-74C1-E053-CA2BA8C0EAAB,3204,3204023,0775149,4910,Białuń,wieś,793.0,53.61338918974233,14.848685490385835
2BE0D8A7-15E2-74C1-E053-CA2BA8C0EAAB,3204,3204043,0779970,61428,Krasnołęka,wieś,102.0,53.60127298613907,15.106887588856546
2BE0D8A7-1645-74C1-E053-CA2BA8C0EAAB,3204,3204033,0779029,86068,Kłodniki,kolonia,,53.491703913967676,15.190903704682604
2BE0D8A7-169B-74C1-E053-CA2BA8C0EAAB,3204,3204043,0780127,93806,Orzesze,wieś,57.0,53.742421839919075,15.147527392580292
2BE0D8A7-1646-74C1-E053-CA2BA8C0EAAB,3204,3204043,0989420,185108,Lestkówko,część wsi,,53.74690628556592,15.169031641223567
2BE0D8A7-1614-74C1-E053-CA2BA8C0EAAB,3204,3204062,1063250,5103,Biebrówek,osada,,53.691483191270876,14.92782337773715
2BE0D8A7-1620-74C1-E053-CA2BA8C0EAAB,3204,3204043,0779940,51019,Karsk,wieś,337.0,53.6930749897396,15.079826629101548
2BE0D8A7-16AD-74C1-E053-CA2BA8C0EAAB,3204,3204073,0783918,147057,Borowice,osada,,53.66039595734221,14.758355252050988
2BE0D8A7-1640-74C1-E053-CA2BA8C0EAAB,3204,3204073,0783953,163294,Żarnowo,wieś,342.0,53.72389157258309,14.64358700679787
2BE0D8A7-15E9-74C1-E053-CA2BA8C0EAAB,3204,3204043,0780328,131968,Struga,wieś,2.0,53.77875604088814,15.138205669245757
2BE0D8A7-15ED-74C1-E053-CA2BA8C0EAAB,3204,3204043,0780400,163102,Żabowo,wieś,192.0,53.7238476764749,15.183923305602988
2BE0D8A7-1672-74C1-E053-CA2BA8C0EAAB,3204,3204023,1009641,178281,Krzewno,osada,199.0,53.53298263769443,14.841484561636376
2BE0D8A7-1694-74C1-E053-CA2BA8C0EAAB,3204,3204023,0775400,77973,Marszewo,wieś,472.0,53.57115776344428,14.886815371722081
2BE0D8A7-1664-74C1-E053-CA2BA8C0EAAB,3204,3204073,0783960,163321,Żarnówko,wieś,78.0,53.716122642513675,14.660365302252979
2BE0D8A7-166A-74C1-E053-CA2BA8C0EAAB,3204,3204062,0781807,95937,Owczarnia,osada,,53.74471006670723,14.761363802016662
2BE0D8A7-165D-74C1-E053-CA2BA8C0EAAB,3204,3204073,0783893,131095,Stepniczka,wieś,209.0,53.665292977127216,14.618837809059752
2BE0D8A7-1630-74C1-E053-CA2BA8C0EAAB,3204,3204062,0989442,185113,Bratonie,część wsi,,53.764313566668655,14.810483740724896
2BE0D8A7-15F1-74C1-E053-CA2BA8C0EAAB,3204,3204062,0781730,51078,Kartlewko,osada,,53.7931513245507,14.828236306845554
2BE0D8A7-1621-74C1-E053-CA2BA8C0EAAB,3204,3204023,0775563,130753,Stawno,wieś,154.0,53.49825720550847,14.899926909294857
2BE0D8A7-1675-74C1-E053-CA2BA8C0EAAB,3204,3204073,0783829,80855,Miłowo,wieś,116.0,53.68539985559179,14.623090834140562
2BE0D8A7-168B-74C1-E053-CA2BA8C0EAAB,3204,3204073,0783798,32082,Gąsierzyno,wieś,173.0,53.67860104445037,14.57296806455685
2BE0D8A7-169C-74C1-E053-CA2BA8C0EAAB,3204,3204073,0783858,72185,Łąka,część wsi,332.0,53.75123024613308,14.659108348697778
2BE0D8A7-164A-74C1-E053-CA2BA8C0EAAB,3204,3204043,0779851,20061,Czermnica,wieś,212.0,53.690542762167006,14.96161810654342
2BE0D8A7-160D-74C1-E053-CA2BA8C0EAAB,3204,3204043,0780216,132403,Strzelewo,wieś,300.0,53.69284191142585,15.004188385587392
2BE0D8A7-1639-74C1-E053-CA2BA8C0EAAB,3204,3204033,0779035,106844,Pogrzymie,wieś,109.0,53.53604729841892,14.980383675497302
2BE0D8A7-1637-74C1-E053-CA2BA8C0EAAB,3204,3204073,0783781,19253,Czarnocin,osada,237.0,53.727398980668106,14.58105557957875
2BE0D8A7-1667-74C1-E053-CA2BA8C0EAAB,3204,3204043,0779845,11721,Brzozowo,wieś,199.0,53.737252076645674,15.18534781003053
2BE0D8A7-162B-74C1-E053-CA2BA8C0EAAB,3204,3204062,0781760,138323,Świętoszewo,osada,75.0,53.73351160952647,14.899170758282517
2BE0D8A7-1682-74C1-E053-CA2BA8C0EAAB,3204,3204043,0780073,99324,Wierzchęcino,kolonia,20.0,53.73010595569552,15.036545301350946
2BE0D8A7-15D7-74C1-E053-CA2BA8C0EAAB,3204,3204023,1064545,178284,Żółwia,przysiółek,72.0,53.55521192262918,14.866908117827695
2BE0D8A7-161F-74C1-E053-CA2BA8C0EAAB,3204,3204062,0781581,19268,Czarnogłowy,wieś,706.0,53.761944673985134,14.89775750384525
2BE0D8A7-1613-74C1-E053-CA2BA8C0EAAB,3204,3204073,0783841,113700,Racimierz,wieś,170.0,53.74780672220988,14.627241634775759
2BE0D8A7-1693-74C1-E053-CA2BA8C0EAAB,3204,3204043,0780245,135056,Szczytniki,wieś,111.0,53.77792475355198,15.083860012882162
2BE0D8A7-1699-74C1-E053-CA2BA8C0EAAB,3204,3204073,0783775,12764,Budzień,osada,84.0,53.6200636622208,14.688193988692928
2BE0D8A7-1625-74C1-E053-CA2BA8C0EAAB,3204,3204073,0783947,161322,Zielonczyn,wieś,62.0,53.70187127312716,14.679188116644154
2BE0D8A7-163A-74C1-E053-CA2BA8C0EAAB,3204,3204043,0780297,147171,Wierzchy,osada,71.0,53.76383270867489,15.118872844969475
2BE0D8A7-1669-74C1-E053-CA2BA8C0EAAB,3204,3204023,0775570,138162,Święta,wieś,229.0,53.57047406876676,14.63305097540084
2BE0D8A7-16AC-74C1-E053-CA2BA8C0EAAB,3204,3204023,0775630,155072,Zabród,osada,89.0,53.52167060877029,14.8495807277048
2BE0D8A7-16B4-74C1-E053-CA2BA8C0EAAB,3204,3204023,0775646,178280,Krzewno,osada,199.0,53.52448203996777,14.85538457406815
2BE0D8A7-1662-74C1-E053-CA2BA8C0EAAB,3204,3204023,0775617,178283,Tarnówko,osada,157.0,53.514903439131075,14.894327206886082
2BE0D8A7-165C-74C1-E053-CA2BA8C0EAAB,3204,3204023,0978958,185083,Chochołki,część miasta,258.0,53.55013399155395,14.844998062521967
2BE0D8A7-16B9-74C1-E053-CA2BA8C0EAAB,3204,3204043,0779992,121113,Sąpole,osada,6.0,53.661842008262866,15.164872373074694
993f3847-a5a6-4c4e-9bb8-2312b646cae7,3204,3204033,0979194,185093,Urwite,część miasta,,53.48224375451571,15.063528365788695
2BE0D8A7-15DD-74C1-E053-CA2BA8C0EAAB,3204,3204043,0780251,42510,Zagórz,osada,2.0,53.79231038192073,15.083142046267906
2BE0D8A7-1692-74C1-E053-CA2BA8C0EAAB,3204,3204033,0778946,44586,Jarosławki,wieś,78.0,53.53001693290344,15.029631397203348
2BE0D8A7-1608-74C1-E053-CA2BA8C0EAAB,3204,3204043,0979426,173856,Smużyny,część miasta,,53.6653652033739,15.084267761538168
2BE0D8A7-1691-74C1-E053-CA2BA8C0EAAB,3204,3204043,0979389,89675,Nowogard,miasto,14562.0,53.669667355586746,15.117932001830752
2BE0D8A7-1647-74C1-E053-CA2BA8C0EAAB,3204,3204033,0778870,12767,Budzieszowce,wieś,92.0,53.52453958037176,15.00378921555189
2BE0D8A7-168D-74C1-E053-CA2BA8C0EAAB,3204,3204033,0779041,110978,Przemocze,wieś,423.0,53.467834589656555,14.932564021964145
2BE0D8A7-1611-74C1-E053-CA2BA8C0EAAB,3204,3204033,0778917,22961,Dębice,wieś,647.0,53.5314199108796,15.136004551112071
2BE0D8A7-1674-74C1-E053-CA2BA8C0EAAB,3204,3204033,0778886,21530,Darż,wieś,357.0,53.474160277894256,15.025543704383534
2BE0D8A7-1636-74C1-E053-CA2BA8C0EAAB,3204,3204043,0779911,37153,Grabin,wieś,134.0,53.75855575154209,15.047994897179796
2BE0D8A7-1655-74C1-E053-CA2BA8C0EAAB,3204,3204043,0779905,32769,Glicko,wieś,48.0,53.73715359652354,15.102437471196195
2BE0D8A7-166F-74C1-E053-CA2BA8C0EAAB,3204,3204043,0979403,113090,Pustać,część miasta,,53.67642846618029,15.137832047335811
2BE0D8A7-1634-74C1-E053-CA2BA8C0EAAB,3204,3204023,0775379,70044,Lubczyna,wieś,594.0,53.50623778066599,14.737916777928175
2BE0D8A7-16A9-74C1-E053-CA2BA8C0EAAB,3204,3204043,0780009,67353,Lestkowo,wieś,77.0,53.72271735078268,15.148871944343082
2BE0D8A7-165F-74C1-E053-CA2BA8C0EAAB,3204,3204023,0775161,3392,Bącznik,osada,24.0,53.4973916797138,14.87482168029609
2BE0D8A7-15FA-74C1-E053-CA2BA8C0EAAB,3204,3204023,0978993,185085,Mikorzyn,część miasta,180.0,53.57287670202715,14.811544055167614
2BE0D8A7-16A0-74C1-E053-CA2BA8C0EAAB,3204,3204062,0781612,29192,Dzisna,wieś,96.0,53.68534531068793,14.84844224362208
2BE0D8A7-1650-74C1-E053-CA2BA8C0EAAB,3204,3204062,0781569,12766,Budzieszewice,wieś,123.0,53.704489831257035,14.841798998030354
2BE0D8A7-16AF-74C1-E053-CA2BA8C0EAAB,3204,3204023,0775333,56585,Komarowo,wieś,515.0,53.5352861997014,14.715972237722221
2BE0D8A7-1698-74C1-E053-CA2BA8C0EAAB,3204,3204043,1009693,185112,Radziszewo,przysiółek,,53.728970436830934,15.058490961789651
2BE0D8A7-163F-74C1-E053-CA2BA8C0EAAB,3204,3204043,0779756,5766,Bieńczyce,osada,53.0,53.629687709787774,15.30513070779571
2BE0D8A7-164C-74C1-E053-CA2BA8C0EAAB,3204,3204023,0775244,14058,Bystra,osada,,53.46257251630627,14.71651630183723
2BE0D8A7-161E-74C1-E053-CA2BA8C0EAAB,3204,3204062,0781693,22849,Derkacz,przysiółek,3.0,53.781513001421146,14.86026376914237
2BE0D8A7-1642-74C1-E053-CA2BA8C0EAAB,3204,3204043,0779822,112816,Ptaszkowo,kolonia,10.0,53.74342948924149,15.051083732993165
2BE0D8A7-16A4-74C1-E053-CA2BA8C0EAAB,3204,3204043,0779816,7353,Bochlin,wieś,16.0,53.74180409707062,15.059850554120581
2BE0D8A7-1610-74C1-E053-CA2BA8C0EAAB,3204,3204073,0783901,145774,Widzieńsko,osada,95.0,53.65804789922291,14.75336838883887
2BE0D8A7-16BB-74C1-E053-CA2BA8C0EAAB,3204,3204033,0779118,139013,Tarnowo,osada,176.0,53.503069806293524,14.946756940716758
2BE0D8A7-15F4-74C1-E053-CA2BA8C0EAAB,3204,3204073,0783806,44658,Jarszewko,wieś,54.0,53.767045171102176,14.638394383814575
2BE0D8A7-1668-74C1-E053-CA2BA8C0EAAB,3204,3204062,0781747,120021,Rzystnowo,wieś,149.0,53.76851426527149,14.705920301374464
2BE0D8A7-168E-74C1-E053-CA2BA8C0EAAB,3204,3204033,0778981,75033,Maciejewo,osada,154.0,53.5578904864855,15.017069561183717
2BE0D8A7-1623-74C1-E053-CA2BA8C0EAAB,3204,3204033,0779058,114214,Radzanek,wieś,313.0,53.500124437873474,15.012681329311949
2BE0D8A7-15DE-74C1-E053-CA2BA8C0EAAB,3204,3204062,0781606,28929,Dzieszkowo,wieś,75.0,53.673279878800216,14.83881632862294
2BE0D8A7-1616-74C1-E053-CA2BA8C0EAAB,3204,3204023,0978970,201683,Jawornik,część miasta,758.0,53.57420288191914,14.837243927411707
2BE0D8A7-15F8-74C1-E053-CA2BA8C0EAAB,3204,3204023,0775362,173854,Twarogi,osada,,53.607633419808394,14.793718328760404
2BE0D8A7-15D9-74C1-E053-CA2BA8C0EAAB,3204,3204023,0775480,87082,Niewiadowo,wieś,63.0,53.65719774205205,14.872194949907026
2BE0D8A7-167B-74C1-E053-CA2BA8C0EAAB,3204,3204043,0780185,121758,Sieciechowo,przysiółek,101.0,53.64936653196064,15.12816232166657
2BE0D8A7-15DB-74C1-E053-CA2BA8C0EAAB,3204,3204052,0780446,59531,Kościuszki,wieś,362.0,53.65513616275107,15.026784999564313
2BE0D8A7-160C-74C1-E053-CA2BA8C0EAAB,3204,3204062,0989494,9014,Borowik,osada,6.0,53.69348131231128,14.759768217949656
2BE0D8A7-1678-74C1-E053-CA2BA8C0EAAB,3204,3204062,0781530,1411,Babigoszcz,wieś,100.0,53.693733231476024,14.787432315462302
8334c41b-2a37-46f0-9ece-6f9d8aaeabf5,3204,3204073,0783870,7754,Bogusławie,część miasta,195.0,53.648090666548356,14.652751183580278
2BE0D8A7-160F-74C1-E053-CA2BA8C0EAAB,3204,3204073,0783835,99650,Piaski Małe,wieś,34.0,53.661383516242346,14.588289313509954
2BE0D8A7-163B-74C1-E053-CA2BA8C0EAAB,3204,3204043,0780096,31704,Gardna,kolonia,30.0,53.65447552206341,15.0940215474611
2BE0D8A7-1641-74C1-E053-CA2BA8C0EAAB,3204,3204043,0779839,7808,Boguszyce,wieś,111.0,53.74616072275447,15.171880191726231
2BE0D8A7-1612-74C1-E053-CA2BA8C0EAAB,3204,3204062,0781664,80928,Miodowice,wieś,94.0,53.74352947065499,14.72848339790763
2BE0D8A7-1658-74C1-E053-CA2BA8C0EAAB,3204,3204033,0779124,148560,Wisławie,osada,258.0,53.52424987898543,15.066605175581993
2BE0D8A7-1690-74C1-E053-CA2BA8C0EAAB,3204,3204033,0779147,155954,Zagórce,wieś,56.0,53.48866162861092,14.935650781011342
2BE0D8A7-168C-74C1-E053-CA2BA8C0EAAB,3204,3204033,0778998,78327,Maszewko,wieś,58.0,53.53651385806397,15.09176698916678
2BE0D8A7-1680-74C1-E053-CA2BA8C0EAAB,3204,3204033,1009670,200540,Maszewo,osada,,53.527587441611246,15.063105696084769
2BE0D8A7-1651-74C1-E053-CA2BA8C0EAAB,3204,3204043,0779963,56906,Konarzewo,osada,150.0,53.69986470278378,15.233308891744914
2BE0D8A7-1619-74C1-E053-CA2BA8C0EAAB,3204,3204033,0778863,5579,Bielice,wieś,220.0,53.50270116141827,15.119189151254309
2BE0D8A7-16A6-74C1-E053-CA2BA8C0EAAB,3204,3204023,0978929,34446,Goleniów,miasto,19643.0,53.563507224398634,14.837526731353817
2BE0D8A7-15FE-74C1-E053-CA2BA8C0EAAB,3204,3204052,0780529,145328,Węgorzyce,osada,222.0,53.5916517351884,15.04858295330636
2BE0D8A7-161D-74C1-E053-CA2BA8C0EAAB,3204,3204052,0780469,94403,Osina,wieś,790.0,53.59963353540811,15.010967420380407
2BE0D8A7-16B5-74C1-E053-CA2BA8C0EAAB,3204,3204043,0780080,92210,Olchowo,wieś,226.0,53.65218786174855,15.074988579791029
2BE0D8A7-1687-74C1-E053-CA2BA8C0EAAB,3204,3204052,0780430,53313,Kikorze,wieś,273.0,53.63162665197343,15.0233194921059
2BE0D8A7-15F2-74C1-E053-CA2BA8C0EAAB,3204,3204052,0780506,115070,Redostowo,wieś,140.0,53.63622160421758,14.984847886959317
2BE0D8A7-1631-74C1-E053-CA2BA8C0EAAB,3204,3204062,0781629,51079,Kartlewo,wieś,219.0,53.79290371617952,14.794383072813254
2BE0D8A7-15E4-74C1-E053-CA2BA8C0EAAB,3204,3204062,0781799,25748,Domanie,osada,,53.765814112316306,14.743044327223961
2BE0D8A7-1673-74C1-E053-CA2BA8C0EAAB,3204,3204023,0775209,12400,Budno,wieś,323.0,53.54967879889275,14.898426840583364
2BE0D8A7-1676-74C1-E053-CA2BA8C0EAAB,3204,3204043,0779934,44484,Jarchlino,wieś,233.0,53.681621908655586,15.223960759057043
2BE0D8A7-15EF-74C1-E053-CA2BA8C0EAAB,3204,3204043,0780191,122587,Sikorki,wieś,179.0,53.75384471752688,15.089617894683213
2BE0D8A7-161C-74C1-E053-CA2BA8C0EAAB,3204,3204033,0778892,133950,Swojcino,osada,10.0,53.4645599259999,14.996467899154439
2BE0D8A7-166E-74C1-E053-CA2BA8C0EAAB,3204,3204023,0775385,71254,Łaniewo,wieś,199.0,53.58686490159448,14.753491855981014
2BE0D8A7-168A-74C1-E053-CA2BA8C0EAAB,3204,3204023,0978987,185084,Kępki,część miasta,,53.54198962182323,14.873030043770582
2BE0D8A7-1627-74C1-E053-CA2BA8C0EAAB,3204,3204023,0775681,178279,Grabina,osada,,53.61030648421463,14.872136070646112
2BE0D8A7-15DF-74C1-E053-CA2BA8C0EAAB,3204,3204023,0775304,54082,Kliniska Wielkie,wieś,1506.0,53.44427448862527,14.804712123412886
2BE0D8A7-16AB-74C1-E053-CA2BA8C0EAAB,3204,3204033,0778857,1772,Bagna,wieś,259.0,53.543416121088335,15.168958507573533
2BE0D8A7-167A-74C1-E053-CA2BA8C0EAAB,3204,3204043,0780305,149570,Wojcieszyn,wieś,224.0,53.686161326398306,15.147961679264588
2BE0D8A7-1622-74C1-E053-CA2BA8C0EAAB,3204,3204023,0775250,21448,Danowo,wieś,220.0,53.52430077313575,14.948716275151334
2BE0D8A7-15E8-74C1-E053-CA2BA8C0EAAB,3204,3204062,0781641,73580,Łoźnica,wieś,320.0,53.69797484810549,14.889288301842518
2BE0D8A7-15DA-74C1-E053-CA2BA8C0EAAB,3204,3204052,0780481,112194,Kałużna,kolonia,15.0,53.58900048412652,14.974387323479895
2BE0D8A7-1606-74C1-E053-CA2BA8C0EAAB,3204,3204043,0780133,94710,Osowo,osada,370.0,53.64263256041834,15.270944035794896
2BE0D8A7-165A-74C1-E053-CA2BA8C0EAAB,3204,3204043,0780280,146925,Wierzbięcin,wieś,461.0,53.64024832548994,15.22692356598792
2BE0D8A7-1654-74C1-E053-CA2BA8C0EAAB,3204,3204023,0775273,42511,Imno,wieś,83.0,53.562003931568476,14.93806628737007
2BE0D8A7-1689-74C1-E053-CA2BA8C0EAAB,3204,3204033,0779087,143900,Wałkno,osada,125.0,53.48873636763862,15.165409158044362
2BE0D8A7-15E5-74C1-E053-CA2BA8C0EAAB,3204,3204023,0775592,139000,Tarnowiec,wieś,57.0,53.4904290756744,14.913195211272074
2BE0D8A7-1686-74C1-E053-CA2BA8C0EAAB,3204,3204062,0781635,67418,Leszczno,osada,54.0,53.79762780582633,14.880119124489797
2BE0D8A7-1696-74C1-E053-CA2BA8C0EAAB,3204,3204023,0775451,178278,Domastryjewo,osada,9.0,53.57073222995949,14.790660545193766
2BE0D8A7-15D8-74C1-E053-CA2BA8C0EAAB,3204,3204023,0775184,9524,Borzysławiec,wieś,140.0,53.5195339261647,14.71569049811481
2BE0D8A7-16A7-74C1-E053-CA2BA8C0EAAB,3204,3204033,0779130,78332,Maszewo-Kolonia,część osady,,53.50985465487349,15.07051258890815
2BE0D8A7-15F6-74C1-E053-CA2BA8C0EAAB,3204,3204033,0779160,78335,Kolonia Maszewo,kolonia,55.0,53.489874260754625,15.09786740255051
2BE0D8A7-16BE-74C1-E053-CA2BA8C0EAAB,3204,3204062,0781670,74998,Machowica,osada,12.0,53.744987416771174,14.689148999027761
2BE0D8A7-15FC-74C1-E053-CA2BA8C0EAAB,3204,3204023,0775557,118470,Rurka,osada,4.0,53.49389013711747,14.795168710653813
2BE0D8A7-16BC-74C1-E053-CA2BA8C0EAAB,3204,3204033,0778900,22224,Dąbrowica,wieś,80.0,53.46631473781268,14.974629138575098
2BE0D8A7-1681-74C1-E053-CA2BA8C0EAAB,3204,3204073,0783924,62056,Krokorzyce,osada,14.0,53.684892624704396,14.717458138416434
2BE0D8A7-15F3-74C1-E053-CA2BA8C0EAAB,3204,3204023,0775310,112902,Pucie,osada,7.0,53.46681395340773,14.788602695549416
2BE0D8A7-161B-74C1-E053-CA2BA8C0EAAB,3204,3204043,0780200,124362,Słajsino,wieś,178.0,53.66520796535307,15.259008146802685
2BE0D8A7-16B8-74C1-E053-CA2BA8C0EAAB,3204,3204023,0775497,103858,Podańsko,wieś,557.0,53.527275509830815,14.881469518557536
2BE0D8A7-1604-74C1-E053-CA2BA8C0EAAB,3204,3204043,0780110,93747,Orzechowo,wieś,138.0,53.74296905875286,15.130421152610001
2BE0D8A7-16B7-74C1-E053-CA2BA8C0EAAB,3204,3204062,0781598,138322,Świętoszewko,osada,83.0,53.76027553487643,14.890186848025015
2BE0D8A7-16AA-74C1-E053-CA2BA8C0EAAB,3204,3204043,0779779,7056,Błotny Młyn,przysiółek,33.0,53.73845959999489,15.0208337576533
2BE0D8A7-1671-74C1-E053-CA2BA8C0EAAB,3204,3204023,0775296,51888,Kąty,wieś,227.0,53.616082102174545,14.748806926493364
2BE0D8A7-1638-74C1-E053-CA2BA8C0EAAB,3204,3204062,0781687,83017,Moracz,wieś,202.0,53.77564217322606,14.87540264731992
2BE0D8A7-1609-74C1-E053-CA2BA8C0EAAB,3204,3204023,0775439,82450,Modrzewie,wieś,374.0,53.57190009451611,14.761393378010464
2BE0D8A7-1617-74C1-E053-CA2BA8C0EAAB,3204,3204052,0780498,115062,Redło,wieś,199.0,53.5783067692281,15.084262732916802
2BE0D8A7-16AE-74C1-E053-CA2BA8C0EAAB,3204,3204023,0775356,61940,Krępsko,wieś,530.0,53.59839199932918,14.757774425639383
2BE0D8A7-167D-74C1-E053-CA2BA8C0EAAB,3204,3204023,0775391,73549,Łozienica,wieś,55.0,53.52303590808584,14.802974243524899
2BE0D8A7-1653-74C1-E053-CA2BA8C0EAAB,3204,3204023,0978964,17269,Ciechno,część miasta,32.0,53.54834336142096,14.86219878179843
2BE0D8A7-162E-74C1-E053-CA2BA8C0EAAB,3204,3204023,0979001,185086,Piskorze,część miasta,15.0,53.55233783263226,14.855102710349676
2BE0D8A7-16BD-74C1-E053-CA2BA8C0EAAB,3204,3204023,0775534,178277,Dobroszyn,część wsi,,53.50924583980273,14.78268302479217
2BE0D8A7-164B-74C1-E053-CA2BA8C0EAAB,3204,3204023,0775327,132094,Pucko,osada,,53.45896450352108,14.791235632831562
2BE0D8A7-16B2-74C1-E053-CA2BA8C0EAAB,3204,3204023,0775528,118479,Rurzyca,wieś,1021.0,53.49294368005863,14.782475957392336
2BE0D8A7-15EC-74C1-E053-CA2BA8C0EAAB,3204,3204052,0780423,7533,Bodzęcin,wieś,221.0,53.63456168533025,14.943068819522109
2BE0D8A7-160E-74C1-E053-CA2BA8C0EAAB,3204,3204052,0780512,145314,Węgorza,wieś,309.0,53.661709204283746,14.952338394523586
2BE0D8A7-1601-74C1-E053-CA2BA8C0EAAB,3204,3204023,0775221,13724,Burowo,wieś,108.0,53.57178944066493,14.96711636284208
2BE0D8A7-1695-74C1-E053-CA2BA8C0EAAB,3204,3204043,0779874,24222,Długołęka,wieś,333.0,53.62812910342393,15.116289741081841
2BE0D8A7-1679-74C1-E053-CA2BA8C0EAAB,3204,3204023,1009658,178282,Niedamierz,osada,2.0,53.63392262645849,14.877966054002208
2BE0D8A7-1600-74C1-E053-CA2BA8C0EAAB,3204,3204043,0780015,72772,Łęgno,wieś,86.0,53.75977435858157,14.982717620483845
2BE0D8A7-1656-74C1-E053-CA2BA8C0EAAB,3204,3204043,0779800,156921,Zakłodzie,przysiółek,12.0,53.72932065100931,15.023881079776537
2BE0D8A7-1670-74C1-E053-CA2BA8C0EAAB,3204,3204023,0979018,185087,Skórnica,część miasta,2.0,53.5486454546278,14.83485935990758
2BE0D8A7-16A8-74C1-E053-CA2BA8C0EAAB,3204,3204043,0780357,173860,Miękkie,kolonia,2.0,53.62772645206767,15.052184273737456
2BE0D8A7-167E-74C1-E053-CA2BA8C0EAAB,3204,3204023,0979024,185088,Strzałkowo,część miasta,130.0,53.55875107044722,14.848607949222938
2BE0D8A7-1657-74C1-E053-CA2BA8C0EAAB,3204,3204023,0775540,144189,Warcisławiec,część wsi,,53.5004260643088,14.782284981674161
2BE0D8A7-16B0-74C1-E053-CA2BA8C0EAAB,3204,3204023,0775178,72910,Łęsko,osada,6.0,53.48945012402281,14.865031210171711
2BE0D8A7-1633-74C1-E053-CA2BA8C0EAAB,3204,3204043,0979395,185095,Plewniak,część miasta,,53.67949154158038,15.105092760936245
2BE0D8A7-15F0-74C1-E053-CA2BA8C0EAAB,3204,3204043,0780334,159529,Zatocze,kolonia,1.0,53.78232384447143,15.136432886831614
2BE0D8A7-15FB-74C1-E053-CA2BA8C0EAAB,3204,3204023,0775468,173855,Ininka,osada,30.0,53.56152687210957,14.757521366787637
2BE0D8A7-15E6-74C1-E053-CA2BA8C0EAAB,3204,3204043,0780222,102603,Płotkowo,osada,4.0,53.71298136122868,14.982755220415704
2BE0D8A7-164E-74C1-E053-CA2BA8C0EAAB,3204,3204043,0780179,121114,Sąpolnica,wieś,79.0,53.619552627865566,15.151708271052433
2BE0D8A7-168F-74C1-E053-CA2BA8C0EAAB,3204,3204023,0775416,80272,Miękowo,wieś,267.0,53.61768728634498,14.81972633685735
2BE0D8A7-165B-74C1-E053-CA2BA8C0EAAB,3204,3204062,0989436,185114,Przybkowo,część wsi,,53.67576078379676,14.824208085188753
2BE0D8A7-1628-74C1-E053-CA2BA8C0EAAB,3204,3204033,0778952,46289,Jenikowo,wieś,213.0,53.57161121087383,15.1295817712064
2BE0D8A7-1677-74C1-E053-CA2BA8C0EAAB,3204,3204043,0780239,133230,Suchy Las,osada,6.0,53.706696992345776,14.983946651894387
2BE0D8A7-167F-74C1-E053-CA2BA8C0EAAB,3204,3204043,0779785,92787,Dobroszyn,kolonia,2.0,53.73193274648108,15.023319470397876
2BE0D8A7-15E3-74C1-E053-CA2BA8C0EAAB,3204,3204023,0775422,34011,Gniazdowo,osada,14.0,53.61453652036763,14.807891078143273
2BE0D8A7-1697-74C1-E053-CA2BA8C0EAAB,3204,3204023,0775190,52624,Kępy Lubczyńskie,osada,38.0,53.5139458878141,14.728853376744308
2BE0D8A7-163C-74C1-E053-CA2BA8C0EAAB,3204,3204033,0779101,67472,Leszczynka,osada,22.0,53.5217762043294,15.114844451994207
2BE0D8A7-1615-74C1-E053-CA2BA8C0EAAB,3204,3204033,0778969,4102,Bęczno,osada,84.0,53.55210981955498,15.129123486415155
2BE0D8A7-162A-74C1-E053-CA2BA8C0EAAB,3204,3204073,0783887,178274,Czerwonak,część miasta,,53.65060486978588,14.63720821764456
770e1bda-4a22-48eb-b759-12c88ee419e4,3204,3204062,1067383,164407,Żychlikowo,osada,9.0,53.711753170219495,14.90866250773177
2BE0D8A7-2689-75C2-E054-CA4BA5C0EAAB,3204,3204033,0779012,86067,Nastazin,wieś,150.0,53.50560474206552,15.187844904465887
2BE0D8A7-1659-74C1-E053-CA2BA8C0EAAB,3204,3204043,0779868,22164,Dąbrowa Nowogardzka,wieś,253.0,53.719908095520445,15.062042463711581
2BE0D8A7-162C-74C1-E053-CA2BA8C0EAAB,3204,3204043,0780038,80291,Miętno,osada,181.0,53.71138312572399,15.11238495662036
2BE0D8A7-164F-74C1-E053-CA2BA8C0EAAB,3204,3204043,0780268,137871,Świerczewo,wieś,221.0,53.68031409552247,15.046827210195207
14274107-931f-4823-b4b8-2cb3a7c2c220,3204,3204052,0780452,63772,Krzywice,wieś,216.0,53.60698119907151,14.963760865081573
2BE0D8A7-164D-74C1-E053-CA2BA8C0EAAB,3204,3204052,0780475,112192,Przypólsko,wieś,62.0,53.58332092283811,14.97764971168708
2BE0D8A7-15E0-74C1-E053-CA2BA8C0EAAB,3204,3204023,0775600,139090,Tarnówko,wieś,164.0,53.50772607956206,14.91517153304435
2BE0D8A7-160B-74C1-E053-CA2BA8C0EAAB,3204,3204023,0775675,164014,Żółwia Błoć,wieś,403.0,53.59960329287229,14.86795731473505
2BE0D8A7-15E7-74C1-E053-CA2BA8C0EAAB,3204,3204043,0779880,113910,Radłowo,przysiółek,2.0,53.63889310974779,15.112303062010389
2BE0D8A7-167C-74C1-E053-CA2BA8C0EAAB,3204,3204073,0783864,131090,Stepnica,miasto,2352.0,53.6515843426704,14.637781398699364
2BE0D8A7-15FF-74C1-E053-CA2BA8C0EAAB,3204,3204023,0775445,7970,Bolesławice,osada,4.0,53.57827969991971,14.689366551248508
2BE0D8A7-166C-74C1-E053-CA2BA8C0EAAB,3204,3204033,0779064,117238,Rożnowo Nowogardzkie,wieś,255.0,53.482340630314944,14.968729321301216
2BE0D8A7-1683-74C1-E053-CA2BA8C0EAAB,3204,3204023,0978935,185076,Białomącze,część miasta,5.0,53.553705294876956,14.853489629098183
2BE0D8A7-1605-74C1-E053-CA2BA8C0EAAB,3204,3204043,0780021,78351,Maszkowo,wieś,159.0,53.70172136177768,15.174469104869484
2BE0D8A7-1649-74C1-E053-CA2BA8C0EAAB,3204,3204023,0775669,163398,Żdżary,wieś,294.0,53.585905242783554,14.810830334268468
2BE0D8A7-163E-74C1-E053-CA2BA8C0EAAB,3204,3204023,0775155,7935,Bolechowo,wieś,228.0,53.482006503683216,14.883105516391124
2BE0D8A7-16B6-74C1-E053-CA2BA8C0EAAB,3204,3204023,0775474,83611,Mosty,wieś,1141.0,53.54889806541379,14.954121570060574
2BE0D8A7-1624-74C1-E053-CA2BA8C0EAAB,3204,3204043,0779986,65050,Kulice,wieś,298.0,53.65308673731264,15.16876771957373
2BE0D8A7-1688-74C1-E053-CA2BA8C0EAAB,3204,3204062,0781776,149221,Włodzisław,wieś,111.0,53.790030476640794,14.918785206731378
2BE0D8A7-1644-74C1-E053-CA2BA8C0EAAB,3204,3204043,0780417,163118,Żabówko,wieś,101.0,53.718870073407125,15.208853233513846
2BE0D8A7-162D-74C1-E053-CA2BA8C0EAAB,3204,3204062,0781546,11720,Brzozowo,wieś,197.0,53.793146876850734,14.750415804029654
2BE0D8A7-1603-74C1-E053-CA2BA8C0EAAB,3204,3204023,0775267,32752,Glewice,wieś,95.0,53.599191779561416,14.911504935684052
2BE0D6A7-1664-76C1-E063-CA6BA8C0EAAB,3204,3204033,0779153,80040,Mieszkowo,osada,71.0,53.47536869259864,15.083990174443558
1F759F3A-45C4-77D8-E053-CA2BA8C0B8B7,3205,3205032,0777295,18665,Czaplice,osada,31.0,54.04394710338166,15.12290329382841
1F759F3A-45FD-77D8-E053-CA2BA8C0B8B7,3205,3205012,0772984,38243,Grąd,osada,38.0,53.94926127420458,15.427085806393517
1F759F3A-4605-77D8-E053-CA2BA8C0B8B7,3205,3205023,0775913,95818,Otok,wieś,249.0,53.98013773425865,15.20266999794806
1F759F3A-45F4-77D8-E053-CA2BA8C0B8B7,3205,3205043,0780630,35330,Gostyń Łobeski,wieś,90.0,53.829004121082576,15.323494078107728
1F759F3A-4591-77D8-E053-CA2BA8C0B8B7,3205,3205023,0775824,56497,Kołomąć,wieś,151.0,53.86323894538588,15.123212258556986
1F759F3A-45E1-77D8-E053-CA2BA8C0B8B7,3205,3205012,0773021,82959,Mołstówko,osada,15.0,53.98585213763793,15.364231329521283
1F759F3A-45BF-77D8-E053-CA2BA8C0B8B7,3205,3205012,0773009,113677,Raciborów,przysiółek,8.0,53.92934720225455,15.429039566671381
1F759F3A-45C3-77D8-E053-CA2BA8C0B8B7,3205,3205012,0773073,125197,Smokęcino,wieś,91.0,53.93402127410127,15.448751650562834
1F759F3A-45AA-77D8-E053-CA2BA8C0B8B7,3205,3205012,0773044,17694,Cieszyce,osada,47.0,53.96745917429939,15.358455091988002
1F759F3A-45A5-77D8-E053-CA2BA8C0B8B7,3205,3205023,0775818,44765,Jasiel,wieś,87.0,53.841336569194745,15.088873129187341
1F759F3A-45B5-77D8-E053-CA2BA8C0B8B7,3205,3205072,0782847,102842,Pobierowo,wieś,935.0,54.05259642160171,14.932295251250117
1F759F3A-45D9-77D8-E053-CA2BA8C0B8B7,3205,3205043,0780558,19006,Czarne,wieś,169.0,53.77926875361597,15.322530945431023
1F759F3A-45A7-77D8-E053-CA2BA8C0B8B7,3205,3205032,0777438,82354,Modlimowo,wieś,68.0,53.97538708364316,15.076551947515709
1F759F3A-45DA-77D8-E053-CA2BA8C0B8B7,3205,3205023,0775770,28017,Dziadowo,wieś,99.0,53.95406322834195,15.236133552756954
1F759F3A-45D1-77D8-E053-CA2BA8C0B8B7,3205,3205012,0772978,21533,Darżewo,wieś,141.0,54.011622414225755,15.34786419274032
1F759F3A-4580-77D8-E053-CA2BA8C0B8B7,3205,3205023,0775965,123927,Skowrony,przysiółek,31.0,53.910252498925644,15.2861248476124
1F759F3A-45EA-77D8-E053-CA2BA8C0B8B7,3205,3205083,0784639,35238,Gosław,wieś,248.0,54.047967925418035,15.406050596723293
1F759F3A-4608-77D8-E053-CA2BA8C0B8B7,3205,3205083,0784668,54506,Kłodkowo,wieś,198.0,54.02000795693085,15.2248307223978
1F759F3A-45B7-77D8-E053-CA2BA8C0B8B7,3205,3205072,0782860,113333,Pustkowo,wieś,120.0,54.06670466137376,14.970183529516301
1F759F3A-45D6-77D8-E053-CA2BA8C0B8B7,3205,3205043,0780914,145615,Wicimice,wieś,363.0,53.8730053244852,15.403451349853203
1F759F3A-45CD-77D8-E053-CA2BA8C0B8B7,3205,3205012,0773110,142952,Uniestowo,osada,62.0,54.02359727114529,15.398554886560241
1F759F3A-45E5-77D8-E053-CA2BA8C0B8B7,3205,3205043,0780794,86115,Natolewice,wieś,207.0,53.9088967762352,15.371363856265916
1F759F3A-45E2-77D8-E053-CA2BA8C0B8B7,3205,3205012,0772961,21493,Dargosław,osada,265.0,53.99989365280582,15.3949989544605
1F759F3A-4613-77D8-E053-CA2BA8C0B8B7,3205,3205072,0782818,86402,Niechorze,wieś,903.0,54.08887540141411,15.079362233299468
1F759F3A-459A-77D8-E053-CA2BA8C0B8B7,3205,3205043,0780699,61962,Krężel,wieś,16.0,53.81970443918508,15.23304544875609
1F759F3A-4562-77D8-E053-CA2BA8C0B8B7,3205,3205012,0773050,110450,Pruszcz,wieś,142.0,53.96588453357372,15.294266864773155
1F759F3A-458B-77D8-E053-CA2BA8C0B8B7,3205,3205023,0775920,110388,Prusinowo,osada,418.0,53.95491519224866,15.177631442470108
1F759F3A-45AD-77D8-E053-CA2BA8C0B8B7,3205,3205032,0777421,68017,Lędzin,wieś,129.0,54.067701344845226,15.08275162521929
1F759F3A-45F5-77D8-E053-CA2BA8C0B8B7,3205,3205023,0775787,36964,Górzyca,wieś,243.0,53.97705481541326,15.238418818209658
1F759F3A-45BD-77D8-E053-CA2BA8C0B8B7,3205,3205012,0773015,71496,Łatno,osada,48.0,53.97789360751677,15.37126722489584
1F759F3A-45AC-77D8-E053-CA2BA8C0B8B7,3205,3205083,0784674,67926,Lewice,wieś,179.0,54.02458759812898,15.318824752508293
