LOKALNYID,TERYT,IDTERC,IDSIMC,IDPRNG,NAZWA,RODZAJ,LICZ_MIESZ,lat,lon
24862EC4-FCC0-B3BD-E053-CA2BA8C0159A,0601,0601152,0020110,75149,Zamoczuły,część wsi,,51.74583187299826,23.322053736059075
24862EC4-FC6F-B3BD-E053-CA2BA8C0159A,0601,0601122,0018520,192980,Boblowska,część wsi,,52.167003823437256,23.391219030648188
24862EC4-FC70-B3BD-E053-CA2BA8C0159A,0601,0601122,0018490,193037,Koniec,część wsi,,52.16686545806865,23.395533243041285
24862EC4-FC84-B3BD-E053-CA2BA8C0159A,0601,0601072,1021895,180500,Kowalszczyzna,część wsi,,52.19467520003987,23.03851068187275
24862EC4-FC85-B3BD-E053-CA2BA8C0159A,0601,0601072,1021955,180505,Pod Lasem,część wsi,,52.22290489603736,23.05044825712912
24862EC4-FCA6-B3BD-E053-CA2BA8C0159A,0601,0601142,0019672,174074,Szklarowe,część wsi,,51.78189173514374,23.478947844277698
24862EC4-FD07-B3BD-E053-CA2BA8C0159A,0601,0601182,0022042,176894,Piszczanica,część wsi,,51.769775246051076,23.24140980782752
24862EC4-FC49-B3BD-E053-CA2BA8C0159A,0601,0601172,1024818,193270,Zaogrodzie,część wsi,,51.88097661505382,23.426842069718138
24862EC4-FC4A-B3BD-E053-CA2BA8C0159A,0601,0601172,1024847,193272,Zgniły Lasek,część wsi,,51.88947480261329,23.454818321075088
24862EC4-FCF0-B3BD-E053-CA2BA8C0159A,0601,0601172,0021284,141476,Kolonia Bokińska,część wsi,,51.895379586118196,23.413506211718143
24862EC4-FD4E-B3BD-E053-CA2BA8C0159A,0601,0601122,0018431,193053,Wierzchołek,część wsi,,52.17157645908159,23.442205110406444
24862EC4-FD4F-B3BD-E053-CA2BA8C0159A,0601,0601042,0011819,180457,Sachalin,część wsi,,51.91500949787266,22.819956165861772
24862EC4-FC88-B3BD-E053-CA2BA8C0159A,0601,0601072,1021910,192827,Ławki,część wsi,,52.218656181035215,23.05309831622394
24862EC4-FC89-B3BD-E053-CA2BA8C0159A,0601,0601192,1025031,193308,Podsętków,część wsi,,52.02160467376421,23.393628451497182
24862EC4-FD49-B3BD-E053-CA2BA8C0159A,0601,0601152,0020178,155597,Zady,część wsi,,51.79912668921413,23.26251005367551
24862EC4-FC74-B3BD-E053-CA2BA8C0159A,0601,0601042,0011966,180450,Piszczanka,część wsi,,51.94149365370346,22.82000037762686
24862EC4-FD72-B3BD-E053-CA2BA8C0159A,0601,0601172,1024698,122134,Sieleckie,część wsi,,51.88429415773505,23.37537155979798
24862EC4-FD2C-B3BD-E053-CA2BA8C0159A,0601,0601082,1022140,107759,Połoniec,część wsi,,52.17164689304015,23.051192947372645
24862EC4-FD2D-B3BD-E053-CA2BA8C0159A,0601,0601092,0015183,45584,Jaworówka,kolonia,,51.90124285184743,23.036473633747708
24862EC4-FD7D-B3BD-E053-CA2BA8C0159A,0601,0601182,0021841,133530,Sulniawa,część wsi,,51.78504190375203,23.044883458354402
24862EC4-FD19-B3BD-E053-CA2BA8C0159A,0601,0601052,0012983,48264,Kajetanka,kolonia,,52.16587916041881,23.281820436559947
24862EC4-FC35-B3BD-E053-CA2BA8C0159A,0601,0601102,0016076,26712,Dubicz,część wsi,,52.025439241916914,22.828465231826154
24862EC4-FCB6-B3BD-E053-CA2BA8C0159A,0601,0601042,0011742,180458,Stara Wieś,część wsi,,51.88684367748756,22.86026019365651
24862EC4-FCB7-B3BD-E053-CA2BA8C0159A,0601,0601042,0012010,180449,Ozercy,część wsi,,51.94410897288437,22.932796773417895
24862EC4-FD1A-B3BD-E053-CA2BA8C0159A,0601,0601072,1021926,80186,Międzylesie,kolonia,,52.16061352130972,23.078488412186687
24862EC4-FD95-B3BD-E053-CA2BA8C0159A,0601,0601082,1022073,180709,Koryk,część wsi,,52.15445094531672,23.002893129155794
e9158090-3c1e-11ee-9805-480fcf3c9bd7,0601,0601122,1067503,17369,Cieleśnica-Pałac,wieś,208.0,52.14977446188448,23.355516014739745
e9158092-3c1e-11ee-87a6-480fcf3c9bd7,0601,0601092,0015272,159462,Stroniec,kolonia,,51.900099994233514,23.25959011316654
ee0b7dc1-3c1e-11ee-90c3-480fcf3c9bd7,0601,0601092,0015160,58263,Korczówka,wieś,189.0,51.906291248372256,23.039412829060133
24862EC4-FC3A-B3BD-E053-CA2BA8C0159A,0601,0601132,1023925,156270,Zagrobla,kolonia,,51.850968875762376,23.100086551196604
24862EC4-FD4D-B3BD-E053-CA2BA8C0159A,0601,0601182,0021870,193282,Bychanie,część wsi,,51.805562204290965,23.110940783305455
24862EC4-FC5B-B3BD-E053-CA2BA8C0159A,0601,0601032,1019800,180371,Dębiny,część wsi,,51.97555804762463,23.219815720107864
24862EC4-FC37-B3BD-E053-CA2BA8C0159A,0601,0601102,0015875,88294,Nowa Wieś,część wsi,,52.03878972712378,22.833857592866742
24862EC4-FD73-B3BD-E053-CA2BA8C0159A,0601,0601172,1024758,193265,Wieś,część wsi,,51.90238361168334,23.3691946804048
24862EC4-FD74-B3BD-E053-CA2BA8C0159A,0601,0601122,0018460,193047,Starynki,część wsi,,52.120178823630354,23.3001471858276
24862EC4-FC5C-B3BD-E053-CA2BA8C0159A,0601,0601032,1019964,180385,Klepaczowo,część wsi,,51.987469050048276,23.203815588905766
24862EC4-FD1D-B3BD-E053-CA2BA8C0159A,0601,0601082,0014798,58280,Korczyska,część wsi,,52.13013975323226,23.100784794628563
24862EC4-FD16-B3BD-E053-CA2BA8C0159A,0601,0601132,0018632,127137,Sowinne,część wsi,,51.86532584054571,23.09646986240328
24862EC4-FD30-B3BD-E053-CA2BA8C0159A,0601,0601092,0015220,131086,Stepki,kolonia,,51.92204966436325,23.044462887573395
24862EC4-FD1C-B3BD-E053-CA2BA8C0159A,0601,0601042,0011908,157013,Zakożuch,część wsi,,51.9371807798664,22.98514713449115
24862EC4-FC36-B3BD-E053-CA2BA8C0159A,0601,0601102,0016082,39496,Grudy,część wsi,,52.03971383383077,22.858821598739667
ad270cb0-3cec-11ee-803d-480fcf3c9bd7,0601,0601152,0020072,15601,Chmielita,część wsi,,51.73883089506737,23.344084570857717
24862EC4-FD58-B3BD-E053-CA2BA8C0159A,0601,0601092,0015310,104044,Podbrzezina,kolonia,,51.89114546092962,23.04231208969795
24862EC4-FD10-B3BD-E053-CA2BA8C0159A,0601,0601102,0015929,180756,Kąt,część wsi,,51.94968376699291,22.69605974117406
24862EC4-FD68-B3BD-E053-CA2BA8C0159A,0601,0601182,0021835,92752,Olszówka,część wsi,,51.79549725573592,23.03370203535692
24862EC4-FF2D-B3BD-E053-CA2BA8C0159A,0601,0601162,0020965,59001,Kosomina,przysiółek,,52.09065967417077,23.58014941942068
24862EC4-FF2E-B3BD-E053-CA2BA8C0159A,0601,0601092,1022469,135170,Szenejki,przysiółek,,51.93056751324957,23.20197379153808
24862EC4-FCA1-B3BD-E053-CA2BA8C0159A,0601,0601092,1022506,180749,Wierzchy,część wsi,,51.88999166677706,23.14675729318242
24862EC4-FEDD-B3BD-E053-CA2BA8C0159A,0601,0601192,0022705,3846,Ogródki,część wsi,,52.1134349209974,23.440402330552033
24862EC4-FC82-B3BD-E053-CA2BA8C0159A,0601,0601072,1021949,86685,Niedźwiedź,część wsi,,52.17709607727434,23.082090276971087
24862EC4-FCA0-B3BD-E053-CA2BA8C0159A,0601,0601092,1022481,180747,Ścianka,część wsi,,51.891091476574914,23.139352892833664
24862EC4-FCA2-B3BD-E053-CA2BA8C0159A,0601,0601102,0015830,180755,Gonciarnia,część wsi,,52.088362648231346,22.735080892936647
24862EC4-FDFC-B3BD-E053-CA2BA8C0159A,0601,0601113,0017271,108087,Popiel,wieś,79.0,52.002415926458305,23.443320089499966
24862EC4-FC58-B3BD-E053-CA2BA8C0159A,0601,0601132,0018649,158323,Zamoście,kolonia,,51.83894023901259,23.083471278997777
24862EC4-FD4B-B3BD-E053-CA2BA8C0159A,0601,0601152,0020209,164160,Żuława,część wsi,,51.8104248445164,23.303170568953316
24862EC4-FD4C-B3BD-E053-CA2BA8C0159A,0601,0601152,0019933,193141,Serafina,część wsi,,51.68707951287128,23.322468133334393
24862EC4-FDFA-B3BD-E053-CA2BA8C0159A,0601,0601182,1061601,178007,Polubicze Wiejskie Drugie,wieś,263.0,51.7863921082596,23.09506629854728
24862EC4-FDFB-B3BD-E053-CA2BA8C0159A,0601,0601182,1061593,107646,Polubicze Wiejskie Pierwsze,wieś,269.0,51.77145308587852,23.10880087555839
24862EC4-FDFD-B3BD-E053-CA2BA8C0159A,0601,0601102,0015970,109090,Pościsze,wieś,362.0,52.00082885176937,22.676915537406554
24862EC4-FCEE-B3BD-E053-CA2BA8C0159A,0601,0601092,0014858,95472,Ostrówek,kolonia,,51.92195282588672,23.122604381178245
24862EC4-FD6A-B3BD-E053-CA2BA8C0159A,0601,0601132,0018595,110791,Przedmoście,kolonia,,51.841470493472585,23.10988163146707
24862EC4-FD6B-B3BD-E053-CA2BA8C0159A,0601,0601122,1023428,192977,Aleksandrów,część wsi,,52.114824009201165,23.39609200642576
24862EC4-FC8A-B3BD-E053-CA2BA8C0159A,0601,0601092,1022200,180727,Budzyń,część wsi,,51.906762771334,23.18639915511703
24862EC4-FD11-B3BD-E053-CA2BA8C0159A,0601,0601102,0015941,180761,Parszczyska,część wsi,,51.95877613694897,22.67402877364223
24862EC4-FD12-B3BD-E053-CA2BA8C0159A,0601,0601102,1022676,192849,Poprzyce,część wsi,,51.963003242526284,22.6968687974888
24862EC4-FD36-B3BD-E053-CA2BA8C0159A,0601,0601192,0023060,86488,Niedosiew,część wsi,,52.02613982285673,23.364653907019225
24862EC4-FCE8-B3BD-E053-CA2BA8C0159A,0601,0601152,0019850,193116,Czetwertyny,część wsi,,51.77737787334241,23.378143857812102
24862EC4-FCE9-B3BD-E053-CA2BA8C0159A,0601,0601172,1024712,193260,Sieliszcze,część wsi,,51.841224322967186,23.36210829758357
30f4063f-6905-46ee-8c11-b6ea044a1b07,0601,0601172,0021195,193251,Pola,część wsi,,51.853088624624085,23.474457911342636
796b48a5-c86e-4a37-a34d-91bf4c6c8dc5,0601,0601152,0019956,198633,Płoski,część wsi,,51.80847163319155,23.361808544299247
c029ab63-1fea-43c1-897e-fd04c313a6f1,0601,0601122,1023569,235383,Załuże,część wsi,,52.12712275432977,23.39414183129175
85016ebd-e3fd-4f77-973e-d0ae8435b5b3,0601,0601172,1024238,235388,Błoto,część wsi,,51.85755064720969,23.397381190757304
3bca3980-29ea-4983-ab17-66794cd15f1f,0601,0601192,0022697,235401,Malówka,część wsi,,52.10443928970314,23.46665207540572
24862EC4-FD37-B3BD-E053-CA2BA8C0159A,0601,0601142,0019614,193099,Ośrodek,część wsi,,51.787374884317515,23.60839867978462
24862EC4-FCC6-B3BD-E053-CA2BA8C0159A,0601,0601072,1021814,180484,Czerwony Dwór,część wsi,,52.210908455783866,23.078976966013144
24862EC4-FC9B-B3BD-E053-CA2BA8C0159A,0601,0601092,0015303,95471,Ostrówek,część wsi,,51.89753119796668,23.079205523492313
24862EC4-FC9C-B3BD-E053-CA2BA8C0159A,0601,0601113,1022908,75079,Maciejówka,część wsi,,51.95210544490812,23.320703383863133
24862EC4-FD5E-B3BD-E053-CA2BA8C0159A,0601,0601102,0016018,180758,Nowa Wieś,część wsi,,51.94815193337747,22.662423279986314
24862EC4-FCC7-B3BD-E053-CA2BA8C0159A,0601,0601122,1023530,193042,Ornowszczyzna,część wsi,,52.11847512853822,23.420971894000974
24862EC4-FDFE-B3BD-E053-CA2BA8C0159A,0601,0601042,0011593,427,Aleksandrówka,wieś,73.0,51.83124965639229,22.759415547229363
c8acdb71-48f6-4365-80eb-2a8ada35bcc0,0601,0601113,1066870,101734,Piszczac Trzeci,wieś,112.0,51.963759642215855,23.40886978195567
24862EC4-FE19-B3BD-E053-CA2BA8C0159A,0601,0601102,0016001,111498,Przychody,wieś,501.0,51.94786127992336,22.670673360467596
24862EC4-FE49-B3BD-E053-CA2BA8C0159A,0601,0601092,0014864,13742,Burwin,wieś,60.0,51.935788049388705,23.06766609895793
24862EC4-FCF8-B3BD-E053-CA2BA8C0159A,0601,0601122,0018342,193057,Zagórze,część wsi,,52.09479013639033,23.31587577817659
24862EC4-FD13-B3BD-E053-CA2BA8C0159A,0601,0601132,0018626,16220,Chominna,część wsi,,51.891066825813624,23.09943495019194
24862EC4-FD15-B3BD-E053-CA2BA8C0159A,0601,0601132,1023782,49440,Kamień,część wsi,,51.86108184450817,23.066214506257026
24862EC4-FCF7-B3BD-E053-CA2BA8C0159A,0601,0601122,0018320,193045,Stara Wieś,część wsi,,52.105181659851375,23.319359942334934
24862EC4-FCF9-B3BD-E053-CA2BA8C0159A,0601,0601142,0019703,193110,Wydymka,część wsi,,51.772939332910425,23.56257167926041
24862EC4-FCFA-B3BD-E053-CA2BA8C0159A,0601,0601192,0022987,193314,Trety,część wsi,,52.10082507399601,23.472451261168327
24862EC4-FD38-B3BD-E053-CA2BA8C0159A,0601,0601142,0019620,193114,Zaprużyta,część wsi,,51.79214435356087,23.61566781436259
cf763668-6309-486e-b8a6-4eaa5cbaf1ff,0601,0601192,0022898,235404,Polna,część wsi,,52.08184942328998,23.395852532895823
24862EC4-FCE5-B3BD-E053-CA2BA8C0159A,0601,0601142,0019548,193113,Zaogrodzie,część wsi,,51.81150122485445,23.514024534463374
24862EC4-FCE6-B3BD-E053-CA2BA8C0159A,0601,0601082,1022080,180711,Kurniki,część wsi,,52.133160357242566,23.028946941987737
24862EC4-FD8C-B3BD-E053-CA2BA8C0159A,0601,0601102,0016248,192876,Zagościniec,część wsi,,51.99295241753324,22.652472968932667
24862EC4-FCE7-B3BD-E053-CA2BA8C0159A,0601,0601082,1022162,180720,Wojciechowo,część wsi,,52.134405106166376,23.03045961549613
24862EC4-FD3B-B3BD-E053-CA2BA8C0159A,0601,0601113,1023090,192953,Rynek,część miasta,,51.98142139379264,23.375756735059554
24862EC4-FD3C-B3BD-E053-CA2BA8C0159A,0601,0601113,1023115,192954,Szewele,część miasta,,51.98364052180889,23.37818102275174
24862EC4-FD8D-B3BD-E053-CA2BA8C0159A,0601,0601032,1021317,180398,Parcela,część wsi,,52.03336765346473,23.004737535597734
24862EC4-FD8E-B3BD-E053-CA2BA8C0159A,0601,0601032,1021346,180404,Pod Gajem,część wsi,,52.02661701834038,22.985759408075353
24862EC4-FC9E-B3BD-E053-CA2BA8C0159A,0601,0601092,1022334,180745,Rynek,część wsi,,51.90409706500494,23.175123782122892
24862EC4-FE2F-B3BD-E053-CA2BA8C0159A,0601,0601102,0015763,150416,Kolonia Wolańska,wieś,1.0,52.01592561547965,22.664027685013842
24862EC4-FDF0-B3BD-E053-CA2BA8C0159A,0601,0601011,0922171,180759,Nowe Miasto,część miasta,,51.98158572520328,22.774810950308503
24862EC4-FE76-B3BD-E053-CA2BA8C0159A,0601,0601062,0013959,61005,Kożanówka,wieś,35.0,51.99254140740769,23.562463300981406
24862EC4-FEA5-B3BD-E053-CA2BA8C0159A,0601,0601102,0016320,151282,Wólka Krzymowska,wieś,135.0,52.02660358904327,22.65225226445011
24862EC4-FF3A-B3BD-E053-CA2BA8C0159A,0601,0601113,0017199,192960,Za Torem,część wsi,,51.99897603736396,23.397778331730564
24862EC4-FCF4-B3BD-E053-CA2BA8C0159A,0601,0601152,1024161,193136,Pieńki,część wsi,,51.77318717694157,23.410690066445426
24862EC4-FDAA-B3BD-E053-CA2BA8C0159A,0601,0601082,0014692,87829,Nosów-Kolonia,wieś,77.0,52.163598227632086,23.044050786016356
24862EC4-FDDE-B3BD-E053-CA2BA8C0159A,0601,0601132,1023807,116481,Mogiłki,część wsi,,51.828689658241565,23.07174574928436
24862EC4-FDDF-B3BD-E053-CA2BA8C0159A,0601,0601132,0018750,193062,Kątek,część wsi,,51.85795668917613,23.14307884184877
24862EC4-FCF2-B3BD-E053-CA2BA8C0159A,0601,0601102,0016283,105589,Podleś,część wsi,,52.044815834301325,22.722200284669285
24862EC4-FCF3-B3BD-E053-CA2BA8C0159A,0601,0601152,1024132,193129,Lipiny,część wsi,,51.785906165553,23.392914706476393
24862EC4-FCF5-B3BD-E053-CA2BA8C0159A,0601,0601152,1024190,193153,Zabagnie,część wsi,,51.79080438017766,23.407039613186924
24862EC4-FCFB-B3BD-E053-CA2BA8C0159A,0601,0601102,1022630,12490,Budy,część wsi,,52.054546455728484,22.777537791365827
24862EC4-FCFC-B3BD-E053-CA2BA8C0159A,0601,0601032,1019763,428,Aleksandrówka,część wsi,,51.953842385100906,23.08911974597952
24862EC4-FCFD-B3BD-E053-CA2BA8C0159A,0601,0601102,0015935,68621,Lipinki,część wsi,,51.956490232533945,22.69681649654228
24862EC4-FC51-B3BD-E053-CA2BA8C0159A,0601,0601113,1022966,192926,Ogrodziska,część wsi,,51.94877306165712,23.344491046521206
24862EC4-FD09-B3BD-E053-CA2BA8C0159A,0601,0601042,0011883,57397,Końce,część wsi,,51.92137495546501,23.013119881359554
24862EC4-FC9F-B3BD-E053-CA2BA8C0159A,0601,0601092,1022512,180750,Wygon,część wsi,,51.89944508885842,23.16383203991986
24862EC4-FD03-B3BD-E053-CA2BA8C0159A,0601,0601092,0015020,37614,Grabowszczyzna,kolonia,,51.90867670783786,23.340369468914822
24862EC4-FD08-B3BD-E053-CA2BA8C0159A,0601,0601182,0022071,176891,Za Szosą,część wsi,,51.77799876560683,23.241182022682864
24862EC4-FD0A-B3BD-E053-CA2BA8C0159A,0601,0601102,0015881,192860,Stara Wieś,część wsi,,52.046354371819966,22.798441951108753
24862EC4-FD0B-B3BD-E053-CA2BA8C0159A,0601,0601172,0021150,193266,Zadroże,część wsi,,51.81968898599104,23.460436464933032
24862EC4-FDE1-B3BD-E053-CA2BA8C0159A,0601,0601152,1024184,193150,Wypas,część wsi,,51.749113649241814,23.322379236163307
24862EC4-FD44-B3BD-E053-CA2BA8C0159A,0601,0601092,0015266,112864,Puchaczówka,kolonia,,51.91199520733004,23.289126239688187
24862EC4-FD45-B3BD-E053-CA2BA8C0159A,0601,0601092,0015250,85499,Naddatki,kolonia,,51.89567707965665,23.300146554863712
24862EC4-FD46-B3BD-E053-CA2BA8C0159A,0601,0601102,1022699,121383,Serwitut,część wsi,,52.07289403112971,22.746857497091348
24862EC4-FDAB-B3BD-E053-CA2BA8C0159A,0601,0601032,0010808,91442,Ogrodniki,wieś,91.0,51.99557926539432,23.25859546543792
24862EC4-FDE0-B3BD-E053-CA2BA8C0159A,0601,0601132,1023871,193073,Rynek,część wsi,,51.86293159790577,23.143031161317918
24862EC4-FDE2-B3BD-E053-CA2BA8C0159A,0601,0601162,0020913,193190,Majątek,przysiółek,,52.12625921627273,23.51515157795532
24862EC4-FEF6-B3BD-E053-CA2BA8C0159A,0601,0601052,0013126,150840,Woroblin,wieś,93.0,52.19213920111103,23.36264158734051
24862EC4-FEF7-B3BD-E053-CA2BA8C0159A,0601,0601032,0011021,150847,Woroniec,wieś,298.0,52.04230273164563,22.933789684791208
24862EC4-FEF8-B3BD-E053-CA2BA8C0159A,0601,0601042,0011914,150864,Worsy,wieś,375.0,51.85352527469076,22.7606831654947
24862EC4-FF34-B3BD-E053-CA2BA8C0159A,0601,0601102,0016142,119645,Rzeczyca,wieś,1070.0,51.95556676127645,22.748784240239214
24862EC4-FF36-B3BD-E053-CA2BA8C0159A,0601,0601102,0015792,63384,Krzewica,wieś,351.0,52.05235410547335,22.68951381047151
24862EC4-FF37-B3BD-E053-CA2BA8C0159A,0601,0601082,0014574,26272,Droblin,wieś,370.0,52.131860728810786,22.964597842673005
24862EC4-FC52-B3BD-E053-CA2BA8C0159A,0601,0601113,1022995,192932,Podlutynie,część wsi,,51.95017429677271,23.343639498565576
24862EC4-FC57-B3BD-E053-CA2BA8C0159A,0601,0601152,0020149,193134,Pieńki,część wsi,,51.75865360113621,23.43237394486391
24862EC4-FC53-B3BD-E053-CA2BA8C0159A,0601,0601113,1023049,192936,Przy Rzece,część wsi,,51.95567567519593,23.345290932706316
24862EC4-FC54-B3BD-E053-CA2BA8C0159A,0601,0601113,0017319,192955,Szwedy,część wsi,,51.95475314587991,23.356533920568868
24862EC4-FC56-B3BD-E053-CA2BA8C0159A,0601,0601152,0020132,193131,Pańskie,część wsi,,51.750668874399494,23.400134920614533
e908af50-3c1e-11ee-8cc8-480fcf3c9bd7,0601,0601122,1023546,235379,Tamożnia,część wsi,,52.156007424125534,23.35021022832507
e90af941-3c1e-11ee-9204-480fcf3c9bd7,0601,0601172,1024327,268990,Grobelka,część wsi,,51.873079150469266,23.44269757493351
e90af943-3c1e-11ee-9e9e-480fcf3c9bd7,0601,0601122,1023552,235382,Za Wodą,część wsi,,52.13613840937844,23.370408936981573
24862EC4-FD04-B3BD-E053-CA2BA8C0159A,0601,0601092,0015059,158426,Nowa Zienkowizna,kolonia,,51.90164086419787,23.3544364201887
24862EC4-FD3D-B3BD-E053-CA2BA8C0159A,0601,0601113,1023291,192972,Zamoście,część miasta,,51.979807677246136,23.36929090857909
24862EC4-FD3E-B3BD-E053-CA2BA8C0159A,0601,0601113,1023138,192956,Średnia,część miasta,,51.980210518026894,23.382724421999278
24862EC4-FD8B-B3BD-E053-CA2BA8C0159A,0601,0601102,0016231,192875,Trzebieska Droga,część wsi,,51.98674167274502,22.636494287510587
24862EC4-FD6D-B3BD-E053-CA2BA8C0159A,0601,0601122,1023463,192983,Dreny,część wsi,,52.11899772502566,23.407998287975918
24862EC4-FCC5-B3BD-E053-CA2BA8C0159A,0601,0601072,1021866,180493,Kolonia Pierwsza,część wsi,,52.165696941449276,23.098601541710288
24862EC4-FCEA-B3BD-E053-CA2BA8C0159A,0601,0601122,0018365,89366,Nowinki,część wsi,,52.083215285310395,23.313673024661558
24862EC4-FD42-B3BD-E053-CA2BA8C0159A,0601,0601172,0021226,91449,Ogrodniki Małe,część wsi,,51.85770563553209,23.441335086310286
24862EC4-FCC4-B3BD-E053-CA2BA8C0159A,0601,0601072,1021843,180486,Kolonia Druga,część wsi,,52.17147894260247,23.101071345543016
24862EC4-FD02-B3BD-E053-CA2BA8C0159A,0601,0601102,0015711,40621,Cegielnia,kolonia,,52.02712964822447,22.758242231851032
24862EC4-FCA4-B3BD-E053-CA2BA8C0159A,0601,0601102,0015846,192862,Starowieś,część wsi,,52.08018832754971,22.729712868881933
24862EC4-FC46-B3BD-E053-CA2BA8C0159A,0601,0601042,1021636,180464,Tryb,część wsi,,51.99693048024807,22.897200522868076
24862EC4-FC47-B3BD-E053-CA2BA8C0159A,0601,0601142,0019695,193103,Rynek,część wsi,,51.76163445824763,23.55391250802585
24862EC4-FD53-B3BD-E053-CA2BA8C0159A,0601,0601062,0013988,72724,Ług,część wsi,,51.94061144056578,23.62712921479191
24862EC4-FEB9-B3BD-E053-CA2BA8C0159A,0601,0601032,0010760,74089,Łukowce,wieś,179.0,52.07682090249194,23.014854987853607
24862EC4-FCEB-B3BD-E053-CA2BA8C0159A,0601,0601122,0018371,130170,Starynki,część wsi,,52.093726758062104,23.30950595989505
24862EC4-FEBA-B3BD-E053-CA2BA8C0159A,0601,0601102,0015823,74102,Łukowisko,wieś,211.0,52.08185072561627,22.730801735698698
24862EC4-FEBB-B3BD-E053-CA2BA8C0159A,0601,0601032,0010961,133977,Swory,wieś,431.0,52.0760791390706,22.929013220768113
ee075f10-3c1e-11ee-9347-480fcf3c9bd7,0601,0601032,0010790,90299,Sławacinek Nowy,wieś,308.0,52.03539504948929,23.031703837716375
24862EC4-FE6A-B3BD-E053-CA2BA8C0159A,0601,0601162,1003880,56542,Kołpin-Ogrodniki,wieś,24.0,52.007680419468585,23.63803642652771
24862EC4-FE6B-B3BD-E053-CA2BA8C0159A,0601,0601132,0018572,61004,Kożanówka,wieś,296.0,51.82958249948937,23.11926126379626
24862EC4-FCD1-B3BD-E053-CA2BA8C0159A,0601,0601152,0019873,162231,Zofijówka,część wsi,,51.7884039712904,23.427164406803243
24862EC4-FD94-B3BD-E053-CA2BA8C0159A,0601,0601182,0021806,121485,Sewerynówka,kolonia,,51.75402229653561,23.246977707057933
24862EC4-FC8B-B3BD-E053-CA2BA8C0159A,0601,0601092,0015384,180738,Kozłowska Ława,część wsi,,51.89870394147866,23.1486933082744
24862EC4-FCD0-B3BD-E053-CA2BA8C0159A,0601,0601152,0019867,93146,Omszana,część wsi,,51.776197593341564,23.441841200697052
24862EC4-FE2A-B3BD-E053-CA2BA8C0159A,0601,0601052,0012925,11988,Bubel-Granna,wieś,78.0,52.23012351806694,23.159414437885992
24862EC4-FE18-B3BD-E053-CA2BA8C0159A,0601,0601062,0013735,51941,Kąty,wieś,70.0,51.938313031148475,23.546570631933456
24862EC4-FE67-B3BD-E053-CA2BA8C0159A,0601,0601152,0019809,19977,Czeputka,wieś,115.0,51.71831946718459,23.383879234021194
24862EC4-FECE-B3BD-E053-CA2BA8C0159A,0601,0601113,0017288,140474,Trojanów,wieś,118.0,51.94383187823669,23.469068754726685
24862EC4-FE6C-B3BD-E053-CA2BA8C0159A,0601,0601162,0020876,79223,Michalków,wieś,94.0,52.042918298137636,23.640655388847847
24862EC4-FE6D-B3BD-E053-CA2BA8C0159A,0601,0601102,0015906,81094,Misie,wieś,759.0,51.96144274276113,22.67714299363657
24862EC4-FCD2-B3BD-E053-CA2BA8C0159A,0601,0601192,0022970,76267,Malówka,część wsi,,52.098133305575324,23.496807140365178
24862EC4-FCD3-B3BD-E053-CA2BA8C0159A,0601,0601172,1024451,100536,Pieńki,część wsi,,51.81408631412112,23.487876727426364
24862EC4-FD0C-B3BD-E053-CA2BA8C0159A,0601,0601172,1024824,193271,Zawolskie,część wsi,,51.808888081587355,23.458636654972885
24862EC4-FC99-B3BD-E053-CA2BA8C0159A,0601,0601092,0015148,39290,Grotówka,część wsi,,51.83685931939456,23.275684825330163
24862EC4-FCD5-B3BD-E053-CA2BA8C0159A,0601,0601113,1023026,198631,Połód,część wsi,,52.00758968960706,23.467675522938542
24862EC4-FD05-B3BD-E053-CA2BA8C0159A,0601,0601172,0021338,105223,Podlesie,część wsi,,51.84486918946098,23.372879653876453
24862EC4-FD5A-B3BD-E053-CA2BA8C0159A,0601,0601032,1019970,132857,Kolonia Styrzyniecka,część wsi,,52.036763122011486,23.008873354634723
24862EC4-FD47-B3BD-E053-CA2BA8C0159A,0601,0601042,0011736,90746,Obnowy,część wsi,,51.889548520573044,22.89143388105673
24862EC4-FCC8-B3BD-E053-CA2BA8C0159A,0601,0601132,1023693,193059,Bychanie,część wsi,,51.82072163114931,23.10728247996543
24862EC4-FC9D-B3BD-E053-CA2BA8C0159A,0601,0601092,0015390,180744,Rossowska Ława,część wsi,,51.89437943027355,23.16782190466268
24862EC4-FCA3-B3BD-E053-CA2BA8C0159A,0601,0601102,1022660,180766,Poprzeczki,część wsi,,52.0914046016188,22.742721862368036
24862EC4-FD2E-B3BD-E053-CA2BA8C0159A,0601,0601092,0015190,57396,Końce,kolonia,,51.91597864445796,23.03570705976925
24862EC4-FD90-B3BD-E053-CA2BA8C0159A,0601,0601102,0015993,89088,Nowa Wieś,część wsi,,52.0086494518292,22.670825593454833
24862EC4-FD5F-B3BD-E053-CA2BA8C0159A,0601,0601102,0016024,180763,Podekrze,część wsi,,51.94188069100517,22.68023522191607
24862EC4-FD60-B3BD-E053-CA2BA8C0159A,0601,0601102,0016030,192850,Porębiszcza,część wsi,,51.94630141854458,22.693774264625443
24862EC4-FE48-B3BD-E053-CA2BA8C0159A,0601,0601132,0018721,116680,Rossosz,wieś,943.0,51.86862274457052,23.128738927656595
24862EC4-FDF5-B3BD-E053-CA2BA8C0159A,0601,0601192,0022792,41464,Horbów,wieś,97.0,52.05294576135929,23.342740837570638
24862EC4-FE71-B3BD-E053-CA2BA8C0159A,0601,0601032,0010910,122895,Sitnik,wieś,391.0,52.059570408567275,23.01674775684216
24862EC4-FE72-B3BD-E053-CA2BA8C0159A,0601,0601102,0016171,122927,Sitno,wieś,306.0,51.996049752196406,22.863862208854524
24862EC4-FD2F-B3BD-E053-CA2BA8C0159A,0601,0601092,0015208,80135,Międzydróże,kolonia,,51.914501030556444,23.06101873790229
24862EC4-FD20-B3BD-E053-CA2BA8C0159A,0601,0601102,0015958,192865,Starowieś,część wsi,,51.96221418998693,22.685441710300893
24862EC4-FC95-B3BD-E053-CA2BA8C0159A,0601,0601102,0015757,192877,Zanowinna,część wsi,,51.9658026534589,22.705870237994624
24862EC4-FD06-B3BD-E053-CA2BA8C0159A,0601,0601182,0022036,41545,Horyce,część wsi,,51.81365912811407,23.199660601593767
24862EC4-FD21-B3BD-E053-CA2BA8C0159A,0601,0601172,1024623,193254,Przeciwsiole,część wsi,,51.839720487192075,23.483615176444914
24862EC4-FD1E-B3BD-E053-CA2BA8C0159A,0601,0601082,0014806,97709,Pasieka,część wsi,,52.13773713197798,23.09022141239212
24862EC4-FC96-B3BD-E053-CA2BA8C0159A,0601,0601192,0022830,193297,Nowinka,część wsi,,52.07270490252239,23.35430303583175
24862EC4-FC97-B3BD-E053-CA2BA8C0159A,0601,0601192,0022846,193313,Starzynka,część wsi,,52.069591012922395,23.36928316503873
24862EC4-FCD6-B3BD-E053-CA2BA8C0159A,0601,0601092,0015154,180752,Zakrzyk,część wsi,,51.846462271434014,23.289767243795897
24862EC4-FCD7-B3BD-E053-CA2BA8C0159A,0601,0601042,0011759,143379,Uśnieże,część wsi,,51.89283373677857,22.936114417659798
24862EC4-FC94-B3BD-E053-CA2BA8C0159A,0601,0601072,1021961,180506,Podgórze,część wsi,,52.27490834242458,23.141844436557776
24862EC4-FC98-B3BD-E053-CA2BA8C0159A,0601,0601192,0022875,193285,Dworszczyzna,część wsi,,52.07333469702234,23.40325018040935
24862EC4-FCA5-B3BD-E053-CA2BA8C0159A,0601,0601102,1022713,192863,Starowieś,część wsi,,52.081347316275924,22.684308882706155
24862EC4-FD9A-B3BD-E053-CA2BA8C0159A,0601,0601172,1024296,193204,Dworszczyzna,część wsi,,51.92061660799903,23.40440023052948
24862EC4-FD01-B3BD-E053-CA2BA8C0159A,0601,0601082,0014611,26275,Kolonia Poprzeczna,kolonia,,52.13893785208921,22.961993508892913
24862EC4-FD54-B3BD-E053-CA2BA8C0159A,0601,0601042,0011788,1915,Bagno,część wsi,,51.9344401593558,22.93835912606893
24862EC4-FD99-B3BD-E053-CA2BA8C0159A,0601,0601032,1021292,180395,Osina,część wsi,,52.10406160506335,22.900434260825477
24862EC4-FD9B-B3BD-E053-CA2BA8C0159A,0601,0601172,0021083,193205,Folwark,część wsi,,51.90892848260396,23.454649523314018
24862EC4-FD9C-B3BD-E053-CA2BA8C0159A,0601,0601172,1024310,193206,Grabina,część wsi,,51.9239215659352,23.437329571853287
24862EC4-FD76-B3BD-E053-CA2BA8C0159A,0601,0601132,0018709,193069,Nadrossowska,część wsi,,51.81979083411905,23.04827571264215
24862EC4-FF3F-B3BD-E053-CA2BA8C0159A,0601,0601092,0014976,180734,Kamienie,kolonia,,51.88384212601343,23.29726495529503
24862EC4-FEBC-B3BD-E053-CA2BA8C0159A,0601,0601032,0010978,134051,Sycyna,wieś,154.0,52.03165670725669,22.961146885507215
24862EC4-FD29-B3BD-E053-CA2BA8C0159A,0601,0601142,0019590,50862,Karoliny,część wsi,,51.76254233927879,23.57897008090908
24862EC4-FD2A-B3BD-E053-CA2BA8C0159A,0601,0601032,1021560,161871,Złamany Most,część wsi,,51.95728062893206,23.08689386638758
24862EC4-FD75-B3BD-E053-CA2BA8C0159A,0601,0601132,0018690,193066,Nadpolubicka,część wsi,,51.82713039488729,23.053401759254427
24862EC4-FD77-B3BD-E053-CA2BA8C0159A,0601,0601132,1023836,193070,Peczyska,część wsi,,51.823435022046404,23.07733789977135
24862EC4-FD78-B3BD-E053-CA2BA8C0159A,0601,0601132,1023948,193081,Zagumienie,część wsi,,51.822444106148474,23.056766439913893
24862EC4-FD79-B3BD-E053-CA2BA8C0159A,0601,0601132,1023960,193082,Zajudźcowe,część wsi,,51.82044447053332,23.054438593654638
24862EC4-FD7A-B3BD-E053-CA2BA8C0159A,0601,0601152,1024215,193186,Zmysły,część wsi,,51.77648965723461,23.351038082330657
24862EC4-FD7B-B3BD-E053-CA2BA8C0159A,0601,0601102,0016202,180764,Podkarpina,część wsi,,51.9804298716022,22.657722110300174
24862EC4-FCFF-B3BD-E053-CA2BA8C0159A,0601,0601102,0015964,155177,Zabuże,część wsi,,51.960892349081234,22.65315224568936
24862EC4-FD22-B3BD-E053-CA2BA8C0159A,0601,0601172,1024770,193267,Zagumienie,część wsi,,51.83755991723492,23.46788829653729
24862EC4-FC9A-B3BD-E053-CA2BA8C0159A,0601,0601092,0015125,58171,Cypel,część wsi,,51.83894344567,23.291977200651754
24862EC4-FCFE-B3BD-E053-CA2BA8C0159A,0601,0601102,0016159,110585,Przeciętka,część wsi,,51.945474208406104,22.75904229966062
24862EC4-FC45-B3BD-E053-CA2BA8C0159A,0601,0601032,1020000,180392,Kupczanie,część wsi,,52.077414285149274,22.923567461344135
24862EC4-FCA7-B3BD-E053-CA2BA8C0159A,0601,0601152,0019790,375,Aleksandrów,część wsi,,51.78486916845451,23.350037850103078
24862EC4-FCC1-B3BD-E053-CA2BA8C0159A,0601,0601082,0014752,59307,Koszelówka,część wsi,,52.127200431891836,23.00321035025552
24862EC4-FCDB-B3BD-E053-CA2BA8C0159A,0601,0601032,1019830,31069,Gaj,część wsi,,52.02078187818945,22.97504134060659
24862EC4-FE57-B3BD-E053-CA2BA8C0159A,0601,0601172,0021249,116887,Rozbitówka,wieś,71.0,51.83709552766364,23.506521545275127
24862EC4-FE58-B3BD-E053-CA2BA8C0159A,0601,0601152,0020008,117166,Rozwadówka,wieś,311.0,51.749720011275485,23.29342981833062
24862EC4-FE59-B3BD-E053-CA2BA8C0159A,0601,0601152,0020043,117167,Rozwadówka-Folwark,wieś,80.0,51.75926861947283,23.263792457057004
24862EC4-FED5-B3BD-E053-CA2BA8C0159A,0601,0601072,0014485,143998,Wandopol,wieś,111.0,52.22143796874521,23.0779358171523
24862EC4-FED6-B3BD-E053-CA2BA8C0159A,0601,0601052,0013110,144966,Werchliś,wieś,202.0,52.18390408173819,23.2744656703313
24862EC4-FED8-B3BD-E053-CA2BA8C0159A,0601,0601113,0017259,89085,Połoski Nowe,wieś,79.0,51.95703954723594,23.42856976304224
24862EC4-FE42-B3BD-E053-CA2BA8C0159A,0601,0601082,0014657,70694,Ludwinów,wieś,118.0,52.11123082198368,23.028582751624885
24862EC4-FDD0-B3BD-E053-CA2BA8C0159A,0601,0601072,1022044,180512,Zamieście,część wsi,,52.21311440776667,23.07322057429522
ee087083-3c1e-11ee-a509-480fcf3c9bd7,0601,0601113,0017087,93724,Ortel Królewski Drugi,wieś,210.0,51.944388584925946,23.26311916998303
24862EC4-FD7C-B3BD-E053-CA2BA8C0159A,0601,0601182,0021858,162899,Żabiec,część wsi,,51.80006122380791,23.048897923746118
24862EC4-FC66-B3BD-E053-CA2BA8C0159A,0601,0601082,1022050,180705,Dwór,część wsi,,52.10177772585601,23.075715768301052
24862EC4-FE3C-B3BD-E053-CA2BA8C0159A,0601,0601072,0014440,56582,Komarno-Kolonia,wieś,241.0,52.17225668850605,23.096847051412972
24862EC4-FE43-B3BD-E053-CA2BA8C0159A,0601,0601192,0022964,76261,Malowa Góra,wieś,117.0,52.098044202746756,23.48358220755724
24862EC4-FE44-B3BD-E053-CA2BA8C0159A,0601,0601102,0015869,77290,Manie,wieś,219.0,52.048378614069655,22.7972917055011
24862EC4-FE45-B3BD-E053-CA2BA8C0159A,0601,0601152,0019844,68625,Lipinki,wieś,163.0,51.77922717989314,23.412580201494976
24862EC4-FE46-B3BD-E053-CA2BA8C0159A,0601,0601122,0018307,68837,Lipnica,wieś,385.0,52.096824538245905,23.335381453287173
24862EC4-FE47-B3BD-E053-CA2BA8C0159A,0601,0601132,0018678,116480,Romaszki,wieś,358.0,51.82072528047374,23.06413963204679
24862EC4-FCC2-B3BD-E053-CA2BA8C0159A,0601,0601102,0016194,2483,Barani Kąt,część wsi,,51.982714405786034,22.63601560121659
24862EC4-FCC3-B3BD-E053-CA2BA8C0159A,0601,0601102,0016254,157308,Zalasek,część wsi,,51.97125680873589,22.642803533811488
24862EC4-FD5B-B3BD-E053-CA2BA8C0159A,0601,0601042,0011765,76263,Zagońce,część wsi,,51.87480558361829,22.866068404940087
24862EC4-FD00-B3BD-E053-CA2BA8C0159A,0601,0601102,0015912,26442,Drucówki,część wsi,,51.950731305220216,22.713203761455777
24862EC4-FD56-B3BD-E053-CA2BA8C0159A,0601,0601092,0015289,159082,Zarówka,kolonia,,51.89672806212863,23.277436508202154
24862EC4-FD57-B3BD-E053-CA2BA8C0159A,0601,0601092,1022541,159502,Zaścianek,kolonia,,51.89110081541397,23.053530695012082
24862EC4-FD61-B3BD-E053-CA2BA8C0159A,0601,0601102,1022707,192857,Stara Droga,część wsi,,51.9919711987052,22.66367162915915
24862EC4-FD97-B3BD-E053-CA2BA8C0159A,0601,0601092,1022535,180751,Zadnie,część wsi,,51.94277610055547,23.08673757906324
24862EC4-FD62-B3BD-E053-CA2BA8C0159A,0601,0601102,0016053,180760,Okolonia,część wsi,,52.005077187423915,22.89392543068218
24862EC4-FD63-B3BD-E053-CA2BA8C0159A,0601,0601122,0018454,193040,Nowinki,część wsi,,52.12097326165366,23.27935338501442
24862EC4-FD96-B3BD-E053-CA2BA8C0159A,0601,0601082,1022110,180715,Nad Wygonem,część wsi,,52.14911912502436,23.02184848140497
24862EC4-FD98-B3BD-E053-CA2BA8C0159A,0601,0601092,1022498,180748,Średnie,część wsi,,51.94270475586379,23.07627703832137
24862EC4-FC5A-B3BD-E053-CA2BA8C0159A,0601,0601113,0017118,97079,Parcela,kolonia,,51.947982236557436,23.284988915502545
24862EC4-FC59-B3BD-E053-CA2BA8C0159A,0601,0601113,0017101,91444,Ogrodniki,kolonia,,51.93168306204021,23.27502467797117
24862EC4-FF2C-B3BD-E053-CA2BA8C0159A,0601,0601032,0011080,150887,Woskrzenice Małe,kolonia,,52.04900571558543,23.292201147784127
24862EC4-FF96-B3BD-E053-CA2BA8C0159A,0601,0601032,0011044,30581,Franopol,osada,,52.064253811824095,22.975390073029264
24862EC4-FF97-B3BD-E053-CA2BA8C0159A,0601,0601052,1021702,99406,Piaski,osada,,52.203763591890635,23.328317262602518
24862EC4-FE89-B3BD-E053-CA2BA8C0159A,0601,0601172,0021114,150655,Wołczycha,część wsi,,51.91129495381508,23.397757957584382
24862EC4-FF93-B3BD-E053-CA2BA8C0159A,0601,0601092,0014953,180746,Smolne Piece,część wsi,,51.96045384161731,23.180358630438093
24862EC4-FF94-B3BD-E053-CA2BA8C0159A,0601,0601092,0014947,180742,Nalewajki,część wsi,,51.957218311871465,23.18359281835751
24862EC4-FCCE-B3BD-E053-CA2BA8C0159A,0601,0601142,0019494,75446,Majdany,część wsi,,51.823639987294484,23.54725885657223
24862EC4-FC67-B3BD-E053-CA2BA8C0159A,0601,0601032,1021406,180417,Resztówka,część wsi,,52.04184686951719,23.278766374385473
24862EC4-FC65-B3BD-E053-CA2BA8C0159A,0601,0601072,1021984,180508,Przyszosie,część wsi,,52.20805324611896,23.115825044560154
24862EC4-FC68-B3BD-E053-CA2BA8C0159A,0601,0601113,1022788,192897,Hurbatka,część wsi,,51.940396706089444,23.356314980813913
24862EC4-FDD3-B3BD-E053-CA2BA8C0159A,0601,0601122,0018402,106917,Pokinianka,wieś,68.0,52.12508296973228,23.335346516674033
24862EC4-FC3D-B3BD-E053-CA2BA8C0159A,0601,0601172,1024280,193201,Dubrowskie,część wsi,,51.92422346704818,23.40015443098783
24862EC4-FD5C-B3BD-E053-CA2BA8C0159A,0601,0601152,0020190,100541,Pieńki,część wsi,,51.77686101995243,23.267161345369967
24862EC4-FC3B-B3BD-E053-CA2BA8C0159A,0601,0601172,1024793,193268,Zalaski,część wsi,,51.90526836349976,23.465088379821673
24862EC4-FC3C-B3BD-E053-CA2BA8C0159A,0601,0601172,1024735,193262,Widły,część wsi,,51.89994467374509,23.46786303286458
24862EC4-FC3E-B3BD-E053-CA2BA8C0159A,0601,0601122,0018201,193043,Salusie,część wsi,,52.14634319829085,23.29067175236195
24862EC4-FC5D-B3BD-E053-CA2BA8C0159A,0601,0601032,1019912,180382,Kąty,część wsi,,51.970390808001056,23.224133803647916
24862EC4-FC5E-B3BD-E053-CA2BA8C0159A,0601,0601032,1021470,180421,Za Ługiem,część wsi,,51.97381434015777,23.206905481390745
24862EC4-FC3F-B3BD-E053-CA2BA8C0159A,0601,0601122,1023500,193036,Kadłub,część wsi,,52.17130801550833,23.37764371736626
24862EC4-FC5F-B3BD-E053-CA2BA8C0159A,0601,0601032,1021518,180431,Zarośle,część wsi,,51.99151650045201,23.21374197614575
24862EC4-FC60-B3BD-E053-CA2BA8C0159A,0601,0601032,1019817,180372,Dubowska,część wsi,,51.96008433805248,23.2145363889675
24862EC4-FC61-B3BD-E053-CA2BA8C0159A,0601,0601032,1019875,180376,Gumna,część wsi,,51.95774620548032,23.218296900740658
24862EC4-FC62-B3BD-E053-CA2BA8C0159A,0601,0601032,1021300,180396,Ostrów,część wsi,,51.94940312528942,23.201428593065124
24862EC4-FC63-B3BD-E053-CA2BA8C0159A,0601,0601032,1021429,180418,Siedlisko,część wsi,,51.95125116555245,23.217257255377206
24862EC4-FCBE-B3BD-E053-CA2BA8C0159A,0601,0601122,0018537,193038,Nowina,część wsi,,52.14956055591845,23.404198586882977
24862EC4-FCBC-B3BD-E053-CA2BA8C0159A,0601,0601122,1023470,192984,Gajki,część wsi,,52.131949552561366,23.41528846725275
24862EC4-FCBD-B3BD-E053-CA2BA8C0159A,0601,0601113,1022883,192917,Lutnia,część wsi,,51.930816191905855,23.287837794060554
24862EC4-FCBB-B3BD-E053-CA2BA8C0159A,0601,0601113,1022802,192903,Kolonia Wolańska,część wsi,,51.93214915006588,23.323429424886857
24862EC4-FCA9-B3BD-E053-CA2BA8C0159A,0601,0601152,0020089,21927,Dąbrowa,część wsi,,51.77160177205061,23.338824058031303
24862EC4-FCBA-B3BD-E053-CA2BA8C0159A,0601,0601042,0012026,180452,Przymiarki,część wsi,,51.95233175446741,22.9109110419789
24862EC4-FCAA-B3BD-E053-CA2BA8C0159A,0601,0601192,0022881,193306,Podrzeczna,część wsi,,52.06778099682761,23.39515815959933
24862EC4-FCAB-B3BD-E053-CA2BA8C0159A,0601,0601052,1021731,180474,Serwin,część wsi,,52.14107951119481,23.17765858427683
24862EC4-FD0E-B3BD-E053-CA2BA8C0159A,0601,0601172,1024675,193259,Sad,część wsi,,51.8290846271311,23.38839745325788
24862EC4-FD0F-B3BD-E053-CA2BA8C0159A,0601,0601032,1021553,180435,Złamany Most,część wsi,,51.952758287431976,23.085924731854814
24862EC4-FC4B-B3BD-E053-CA2BA8C0159A,0601,0601102,0016308,180754,Dalekie,część wsi,,51.992914883340895,22.711128351297866
24862EC4-FD26-B3BD-E053-CA2BA8C0159A,0601,0601152,0019896,193117,Dwór,część wsi,,51.71865270580128,23.336386400361512
24862EC4-FF95-B3BD-E053-CA2BA8C0159A,0601,0601032,1021286,90777,Oborożek,część wsi,,51.96206898625901,23.116276709784596
24862EC4-FD28-B3BD-E053-CA2BA8C0159A,0601,0601152,0019904,193124,Komarówka,część wsi,,51.71982010706156,23.332914839052943
24862EC4-FD25-B3BD-E053-CA2BA8C0159A,0601,0601192,0023030,193288,Dwór,część wsi,,52.10893224994198,23.472100435566396
24862EC4-FD27-B3BD-E053-CA2BA8C0159A,0601,0601152,0020095,193118,Góra,część wsi,,51.737843528167524,23.337763335843555
24862EC4-FC80-B3BD-E053-CA2BA8C0159A,0601,0601062,0013853,107360,Polemcy,część wsi,,51.88524347168747,23.57743031386113
24862EC4-FC81-B3BD-E053-CA2BA8C0159A,0601,0601062,0013830,72726,Łęgi,część wsi,,51.892713041691984,23.624049619603873
24862EC4-FEA8-B3BD-E053-CA2BA8C0159A,0601,0601113,0017348,157745,Zalutyń,wieś,311.0,51.98728689205859,23.32385004849289
24862EC4-FDD4-B3BD-E053-CA2BA8C0159A,0601,0601113,0017160,192930,Piszczac Drugi,wieś,179.0,51.98265320300988,23.426148085209633
24862EC4-FED1-B3BD-E053-CA2BA8C0159A,0601,0601113,0017331,156633,Zahorów,wieś,220.0,51.92286077531774,23.50732154536544
24862EC4-FEA7-B3BD-E053-CA2BA8C0159A,0601,0601032,0010955,133700,Surmacze,wieś,44.0,52.01122629843239,22.992974326295013
24862EC4-FEA9-B3BD-E053-CA2BA8C0159A,0601,0601102,0016343,159290,Zasiadki,wieś,188.0,52.06963202025801,22.820075326179865
24862EC4-FED2-B3BD-E053-CA2BA8C0159A,0601,0601102,0016290,141516,Tuliłów,wieś,477.0,51.99299593060852,22.72513189510527
24862EC4-FED3-B3BD-E053-CA2BA8C0159A,0601,0601102,0016260,139610,Tłuściec,wieś,455.0,52.035463387549896,22.70686197048166
24862EC4-FED4-B3BD-E053-CA2BA8C0159A,0601,0601102,0016314,143411,Utrówka,wieś,92.0,51.966155993528005,22.87002940900262
24862EC4-FF84-B3BD-E053-CA2BA8C0159A,0601,0601192,0022852,168121,Kijowiec,osada,186.0,52.08335831880576,23.38324487123627
24862EC4-FD41-B3BD-E053-CA2BA8C0159A,0601,0601172,0021210,91446,Ogrodniki Duże,część wsi,,51.840129812906724,23.41620003424018
24862EC4-FC64-B3BD-E053-CA2BA8C0159A,0601,0601072,1021889,180499,Kolonia Trzecia,część wsi,,52.22390235704169,23.123466145940696
24862EC4-FD3F-B3BD-E053-CA2BA8C0159A,0601,0601152,0019927,193120,Hrada,część wsi,,51.70232845514666,23.381318857962732
24862EC4-FD40-B3BD-E053-CA2BA8C0159A,0601,0601052,1021694,88680,Nowe Buczyce,część wsi,,52.21762722854179,23.155242832648856
24862EC4-FC8E-B3BD-E053-CA2BA8C0159A,0601,0601132,1023776,48120,Kaczy Kąt,część wsi,,51.80734284527399,23.06970081792888
24862EC4-FD17-B3BD-E053-CA2BA8C0159A,0601,0601113,0017041,112883,Puhary A,kolonia,,51.916208873083725,23.319248246002406
24862EC4-FD31-B3BD-E053-CA2BA8C0159A,0601,0601092,0015214,104908,Pod Kozłami,kolonia,,51.90244980825914,23.060950745658957
24862EC4-FF29-B3BD-E053-CA2BA8C0159A,0601,0601152,0020037,69419,Lisica,przysiółek,,51.757409469459795,23.298249759304394
24862EC4-FF2A-B3BD-E053-CA2BA8C0159A,0601,0601082,0014775,40544,Haczki,kolonia,,52.123226245855086,23.063772832925316
9595727e-0a9a-4e50-a204-227ba2d786e9,0601,0601092,0015378,15038,Gały,część wsi,,51.91933332031785,23.16234418581926
24862EC4-FD65-B3BD-E053-CA2BA8C0159A,0601,0601052,1021671,21904,Dąbrowa,część wsi,,52.164094315229896,23.14820457518235
24862EC4-FD8F-B3BD-E053-CA2BA8C0159A,0601,0601032,1019869,180374,Grzybowce,część wsi,,52.07393606600601,22.943437166168945
24862EC4-FD39-B3BD-E053-CA2BA8C0159A,0601,0601122,1023492,192985,Górska Wieś,część wsi,,52.12497238384008,23.382136773503774
24862EC4-FD3A-B3BD-E053-CA2BA8C0159A,0601,0601113,1022742,192884,Długa,część miasta,,51.9794255681055,23.382560612353064
24862EC4-FD66-B3BD-E053-CA2BA8C0159A,0601,0601052,1021688,78535,Mauryki,część wsi,,52.150223805854594,23.167347089935774
24862EC4-FD67-B3BD-E053-CA2BA8C0159A,0601,0601182,0021829,79977,Mierzwinek,część wsi,,51.80315963056203,23.099569512120404
24862EC4-FF5B-B3BD-E053-CA2BA8C0159A,0601,0601032,1020016,77472,Marcinów,część wsi,,52.07582750620003,23.185247642682825
24862EC4-FF33-B3BD-E053-CA2BA8C0159A,0601,0601092,0015042,62929,Krymki,kolonia,,51.891074281486645,23.322439133612498
24862EC4-FDD2-B3BD-E053-CA2BA8C0159A,0601,0601113,1022825,192912,Kościeniewicze-Kolonia,część wsi,,51.97139765630278,23.32647871882023
24862EC4-FF5A-B3BD-E053-CA2BA8C0159A,0601,0601082,1027171,180708,Góry,kolonia,,52.11775337252456,23.123220234233887
24862EC4-FF5C-B3BD-E053-CA2BA8C0159A,0601,0601032,1021412,116853,Rowy,część wsi,,51.98074029120981,23.1528403107408
24862EC4-FCB0-B3BD-E053-CA2BA8C0159A,0601,0601062,1021790,192826,Zalewsze,część wsi,,51.862308372950366,23.60476399102131
24862EC4-FCB1-B3BD-E053-CA2BA8C0159A,0601,0601102,1022653,180762,Pieńki,część wsi,,52.01465890899103,22.651076037211567
24862EC4-FC8F-B3BD-E053-CA2BA8C0159A,0601,0601132,1023983,158431,Zaochoże,część wsi,,51.81456522632483,23.064240916791398
24862EC4-FC41-B3BD-E053-CA2BA8C0159A,0601,0601113,1023233,192963,Zaleszczyk,część wsi,,52.002167431343395,23.471955005432342
24862EC4-FC90-B3BD-E053-CA2BA8C0159A,0601,0601132,0018715,85661,Nadworoniecka,część wsi,,51.819097574990714,23.043866592329394
24862EC4-FCF1-B3BD-E053-CA2BA8C0159A,0601,0601102,0016277,104002,Podbór,część wsi,,52.02367508118759,22.69506028503493
24862EC4-FC40-B3BD-E053-CA2BA8C0159A,0601,0601113,1023078,192937,Pulcia,część wsi,,51.9942860105862,23.46471986304952
24862EC4-FC42-B3BD-E053-CA2BA8C0159A,0601,0601113,1023256,192966,Załuże,część wsi,,51.991994469573385,23.491465003568663
24862EC4-FC43-B3BD-E053-CA2BA8C0159A,0601,0601192,0022757,193303,Pasieki,część wsi,,52.06748519986712,23.448757208658385
24862EC4-FC44-B3BD-E053-CA2BA8C0159A,0601,0601192,0022763,193315,Zamienna,część wsi,,52.0645118340956,23.495338000486477
24862EC4-FD23-B3BD-E053-CA2BA8C0159A,0601,0601172,1024801,193269,Zaogrodzie,część wsi,,51.83558387278078,23.46915133260825
24862EC4-FD24-B3BD-E053-CA2BA8C0159A,0601,0601192,0023001,193291,Kopylówka,część wsi,,52.12683371259131,23.468845993487687
24862EC4-FD6C-B3BD-E053-CA2BA8C0159A,0601,0601122,1023440,12025,Buchowiec,część wsi,,52.11043363422001,23.39418869660566
24862EC4-FD6F-B3BD-E053-CA2BA8C0159A,0601,0601152,0020014,193147,Warszawska Ulica,część wsi,,51.739364066380304,23.278348086070274
24862EC4-FD18-B3BD-E053-CA2BA8C0159A,0601,0601032,0010688,41047,Helenów,kolonia,,52.00323632911158,23.05044098322622
24862EC4-FD64-B3BD-E053-CA2BA8C0159A,0601,0601042,0011794,94478,Osiny,część wsi,,51.92891704809436,22.946959620199305
24862EC4-FD6E-B3BD-E053-CA2BA8C0159A,0601,0601122,1023517,69901,Lody,część wsi,,52.10638184882514,23.390862336040627
24862EC4-FD70-B3BD-E053-CA2BA8C0159A,0601,0601042,1021576,180445,Folwark,część wsi,,51.837012035320996,22.766158421711427
24862EC4-FD71-B3BD-E053-CA2BA8C0159A,0601,0601172,1024244,198635,Czuble,część wsi,,51.89386188913512,23.373091250963164
24862EC4-FC93-B3BD-E053-CA2BA8C0159A,0601,0601152,0019838,193137,Podbagnie,część wsi,,51.67380822809321,23.321412094233384
24862EC4-FC4F-B3BD-E053-CA2BA8C0159A,0601,0601113,1022920,192921,Międzyrowy,część wsi,,51.93306160370452,23.351178567927814
24862EC4-FC50-B3BD-E053-CA2BA8C0159A,0601,0601113,1022943,192924,Ocionek,część wsi,,51.93747682315738,23.347010426540898
24862EC4-FCB3-B3BD-E053-CA2BA8C0159A,0601,0601113,1023210,155902,Zagościniec,część wsi,,51.977247440102275,23.307727153593742
24862EC4-FCEF-B3BD-E053-CA2BA8C0159A,0601,0601052,0012919,6858,Błonie,kolonia,,52.16389999615569,23.33268960044815
24862EC4-FCB4-B3BD-E053-CA2BA8C0159A,0601,0601113,1022759,29003,Dziewulszczyzna,część wsi,,51.95411638523665,23.33186962023452
24862EC4-FC86-B3BD-E053-CA2BA8C0159A,0601,0601072,1021978,180507,Przydatki,część wsi,,52.21472449106501,23.06316186685645
24862EC4-FC87-B3BD-E053-CA2BA8C0159A,0601,0601072,1022009,180510,Sielce,część wsi,,52.221903441268026,23.04819168326559
24862EC4-FCB2-B3BD-E053-CA2BA8C0159A,0601,0601113,1023010,106636,Podżar,część wsi,,51.9478544309418,23.30045034639563
24862EC4-FC4D-B3BD-E053-CA2BA8C0159A,0601,0601072,1021850,180489,Kolonia Druga,część wsi,,52.21915989458813,23.12038908329073
24862EC4-FC4E-B3BD-E053-CA2BA8C0159A,0601,0601072,1021872,180496,Kolonia Pierwsza,część wsi,,52.203456514914045,23.12487040809445
24862EC4-FCAC-B3BD-E053-CA2BA8C0159A,0601,0601062,0013764,174440,Dolina,część wsi,,51.92292995309534,23.60986640235334
24862EC4-FC4C-B3BD-E053-CA2BA8C0159A,0601,0601172,0021321,193246,Podchoinie,część wsi,,51.86507007590946,23.3672878188024
24862EC4-FCAD-B3BD-E053-CA2BA8C0159A,0601,0601062,1021760,180477,Kornac,część wsi,,51.91258753749309,23.601878780167187
24862EC4-FCAE-B3BD-E053-CA2BA8C0159A,0601,0601062,0013860,174429,Przydatki,część wsi,,51.8777295115503,23.582584077442423
24862EC4-FCAF-B3BD-E053-CA2BA8C0159A,0601,0601062,0013882,174441,Wygnanka,część wsi,,51.9186216922825,23.6045004406479
24862EC4-FD4A-B3BD-E053-CA2BA8C0159A,0601,0601152,0020184,158684,Zapole,część wsi,,51.78650363686334,23.295882775347074
24862EC4-FD50-B3BD-E053-CA2BA8C0159A,0601,0601152,0019962,198634,Przydroże,część wsi,,51.79667819024208,23.33782749285844
24862EC4-FC91-B3BD-E053-CA2BA8C0159A,0601,0601113,1023279,192969,Zamoście,część wsi,,51.938029531101364,23.36499302615921
24862EC4-FD51-B3BD-E053-CA2BA8C0159A,0601,0601152,0019979,193144,Szostaki,część wsi,,51.800024307723895,23.353897810705607
24862EC4-FD52-B3BD-E053-CA2BA8C0159A,0601,0601172,0021232,168266,Zdanówka,część wsi,,51.8517495139767,23.426509346905412
24862EC4-FD7E-B3BD-E053-CA2BA8C0159A,0601,0601102,0015987,21905,Dąbrowa,część wsi,,52.00636747636886,22.69709962148276
24862EC4-FC92-B3BD-E053-CA2BA8C0159A,0601,0601152,0019821,193125,Kruk,część wsi,,51.665766537846324,23.32229107408997
24862EC4-FCB5-B3BD-E053-CA2BA8C0159A,0601,0601132,0018589,103884,Podberwy,część wsi,,51.823498628593825,23.09831520750666
24862EC4-FC71-B3BD-E053-CA2BA8C0159A,0601,0601122,0018508,193056,Wygnanka,część wsi,,52.16224993545894,23.405277023575646
24862EC4-FC72-B3BD-E053-CA2BA8C0159A,0601,0601042,0011943,180446,Kacze Dołki,część wsi,,51.94045970418734,22.841435721178566
24862EC4-FC73-B3BD-E053-CA2BA8C0159A,0601,0601042,0011950,180448,Nowa Wieś,część wsi,,51.92837911478572,22.84389403891501
24862EC4-FCF6-B3BD-E053-CA2BA8C0159A,0601,0601122,0018313,193039,Nowinki,część wsi,,52.11030710002268,23.317364088839234
24862EC4-FD48-B3BD-E053-CA2BA8C0159A,0601,0601042,0012003,68662,Lipiny,część wsi,,51.95368175294575,22.932540664003888
24862EC4-FC83-B3BD-E053-CA2BA8C0159A,0601,0601042,0011972,180451,Prosianki,część wsi,,51.931981723947864,22.823596031928222
24862EC4-FD55-B3BD-E053-CA2BA8C0159A,0601,0601092,0015243,158383,Moszczona,kolonia,,51.909688631586896,23.265283916374468
24862EC4-FD91-B3BD-E053-CA2BA8C0159A,0601,0601122,0018425,48054,Kaczorek,część wsi,,52.160744276064264,23.42636133247201
24862EC4-FD92-B3BD-E053-CA2BA8C0159A,0601,0601152,0019985,168066,Kruszyna,część wsi,,51.805588420772736,23.321075057977257
24862EC4-FD1F-B3BD-E053-CA2BA8C0159A,0601,0601082,1022096,37851,Na Bukowskiej,część wsi,,52.13805625521626,23.108942083182445
24862EC4-FE3A-B3BD-E053-CA2BA8C0159A,0601,0601082,0014568,13243,Bukowice-Kolonia,wieś,185.0,52.14271720328391,23.03867646687274
24862EC4-FC6E-B3BD-E053-CA2BA8C0159A,0601,0601072,1021808,180483,Budziszew,część wsi,,52.179686129128925,23.130927365503137
24862EC4-FCBF-B3BD-E053-CA2BA8C0159A,0601,0601152,0020103,63027,Krzaki,część wsi,,51.77340903842835,23.322124457927455
24862EC4-FF3C-B3BD-E053-CA2BA8C0159A,0601,0601192,0022817,193312,Popówka,kolonia,,52.04991589866092,23.332362208993494
24862EC4-FF6B-B3BD-E053-CA2BA8C0159A,0601,0601072,1021903,180503,Ludwinów,kolonia,,52.14873436508432,23.115619439536502
24862EC4-FE3B-B3BD-E053-CA2BA8C0159A,0601,0601072,0014433,56581,Komarno,wieś,303.0,52.15012357037101,23.119735653160824
24862EC4-FF69-B3BD-E053-CA2BA8C0159A,0601,0601152,1024209,152823,Zawyhary,kolonia,,51.76977671926171,23.30882718314853
24862EC4-FF6A-B3BD-E053-CA2BA8C0159A,0601,0601032,0010926,180391,Kownackie,kolonia,,52.06545831627431,22.998871851315062
24862EC4-FF27-B3BD-E053-CA2BA8C0159A,0601,0601142,0019643,102826,Pniski,przysiółek,,51.81846646343854,23.612759360888635
24862EC4-FF28-B3BD-E053-CA2BA8C0159A,0601,0601113,0017242,152267,Wyczos,przysiółek,,51.926707523676484,23.450255070480715
24862EC4-FC8D-B3BD-E053-CA2BA8C0159A,0601,0601132,0018684,429,Aleksandrówka,część wsi,,51.84438527447149,23.05127080854338
24862EC4-FEEE-B3BD-E053-CA2BA8C0159A,0601,0601182,0021670,18178,Lubnia,część wsi,,51.82868253399792,23.277319591024963
24862EC4-FD84-B3BD-E053-CA2BA8C0159A,0601,0601132,1023859,193071,Podrowiny,część wsi,,51.84255202251052,23.199378173051326
24862EC4-FD83-B3BD-E053-CA2BA8C0159A,0601,0601132,1023820,193065,Naddatki,część wsi,,51.8495433523805,23.192105400298693
24862EC4-FD85-B3BD-E053-CA2BA8C0159A,0601,0601132,1023888,193074,Skupa,część wsi,,51.85564577624442,23.178647586801944
24862EC4-FCDC-B3BD-E053-CA2BA8C0159A,0601,0601042,1021607,117257,Rożyszcza,część wsi,,51.87132769718109,22.795228056537404
24862EC4-FCDD-B3BD-E053-CA2BA8C0159A,0601,0601172,0021261,174077,Gajki,część wsi,,51.89264904939926,23.43654438904871
24862EC4-FF49-B3BD-E053-CA2BA8C0159A,0601,0601092,0014999,103840,Zaścianek,kolonia,,51.88370959028469,23.260168930949543
24862EC4-FF59-B3BD-E053-CA2BA8C0159A,0601,0601032,1021493,180428,Zagóra,kolonia,,52.04432587961255,23.03849754849911
24862EC4-FEE5-B3BD-E053-CA2BA8C0159A,0601,0601172,1024340,51805,Kąt,część wsi,,51.927679293845785,23.35298707714395
24862EC4-FEE6-B3BD-E053-CA2BA8C0159A,0601,0601132,1023865,117923,Rudka,część wsi,,51.85540293946695,23.15727141079678
24862EC4-FF58-B3BD-E053-CA2BA8C0159A,0601,0601032,1021369,180409,Podłąka,kolonia,,52.01860507895275,23.02494778872313
24862EC4-FD2B-B3BD-E053-CA2BA8C0159A,0601,0601082,0014700,89363,Nowinki,część wsi,,52.15833747128914,23.054328674054577
24862EC4-FC69-B3BD-E053-CA2BA8C0159A,0601,0601113,1022794,192901,Jasinowa Kłoda,część wsi,,51.93846727851542,23.353801493120297
24862EC4-FE0F-B3BD-E053-CA2BA8C0159A,0601,0601092,0014835,5305,Bielany,wieś,91.0,51.936641544421576,23.152182721589856
24862EC4-FF1B-B3BD-E053-CA2BA8C0159A,0601,0601092,0015438,86631,Niedźwiedzica,kolonia,,51.929153636808245,23.25381216374534
24862EC4-FE91-B3BD-E053-CA2BA8C0159A,0601,0601082,0014829,154740,Zaberbecze,wieś,118.0,52.0930488305934,23.03988439474774
24862EC4-FEC7-B3BD-E053-CA2BA8C0159A,0601,0601042,0011989,163761,Żerocin,wieś,516.0,51.958165763908205,22.93728754528672
24862EC4-FE36-B3BD-E053-CA2BA8C0159A,0601,0601152,0019991,116427,Romanów,wieś,119.0,51.7383595585909,23.387216541631023
24862EC4-FF6C-B3BD-E053-CA2BA8C0159A,0601,0601032,1021547,180436,Złamany Most,część wsi,,51.962091534365385,23.09066058376492
24862EC4-FF6D-B3BD-E053-CA2BA8C0159A,0601,0601032,1021530,180432,Zielone,część wsi,,52.07150713738575,23.18898587431768
24862EC4-FF6E-B3BD-E053-CA2BA8C0159A,0601,0601032,0011015,180373,Grabanów-Majątek,część wsi,,52.07402343000765,23.16696231700228
24862EC4-FF6F-B3BD-E053-CA2BA8C0159A,0601,0601032,1019786,180369,Bukrejówka,część wsi,,51.99441703712178,23.133147152249915
24862EC4-FE5B-B3BD-E053-CA2BA8C0159A,0601,0601172,0021077,16280,Choroszczynka,wieś,144.0,51.90774822424818,23.457115651623397
24862EC4-FDD6-B3BD-E053-CA2BA8C0159A,0601,0601011,0922231,174056,Zarowie,część miasta,,51.991303083926674,22.797130250772966
24862EC4-FDD7-B3BD-E053-CA2BA8C0159A,0601,0601011,0922248,174055,Zawadki,część miasta,,51.99732491393387,22.783499791790984
24862EC4-FD59-B3BD-E053-CA2BA8C0159A,0601,0601092,0014960,41981,Huszcza Druga,część wsi,210.0,51.867991385024595,23.29176619234409
24862EC4-FEEF-B3BD-E053-CA2BA8C0159A,0601,0601192,0022728,91623,Ogródki,część wsi,,52.080187246805686,23.42005814627923
24862EC4-FEF0-B3BD-E053-CA2BA8C0159A,0601,0601113,1022765,37679,Grabówka,część wsi,,52.00880427666521,23.458527170421846
24862EC4-FEDB-B3BD-E053-CA2BA8C0159A,0601,0601052,0012990,54218,Klonownica Mała,wieś,154.0,52.161757806117684,23.181517762564503
24862EC4-FCDE-B3BD-E053-CA2BA8C0159A,0601,0601172,1024540,103185,Pod Gajem,część wsi,,51.881420387037686,23.45292257860326
24862EC4-FEAD-B3BD-E053-CA2BA8C0159A,0601,0601162,0020988,130203,Starzynka,wieś,39.0,52.11362225607841,23.515151493783023
24862EC4-FEDA-B3BD-E053-CA2BA8C0159A,0601,0601092,1022222,176619,Huszcza,wieś,,51.86936382853995,23.292365131461736
24862EC4-FD32-B3BD-E053-CA2BA8C0159A,0601,0601082,1022104,85215,Na Trybie,część wsi,,52.11636633450085,23.103585070082406
24862EC4-FEE0-B3BD-E053-CA2BA8C0159A,0601,0601182,0022013,148620,Wisznice,wieś,1315.0,51.788996894995854,23.215430550564687
24862EC4-FEE1-B3BD-E053-CA2BA8C0159A,0601,0601182,0022020,148621,Wisznice-Kolonia,wieś,224.0,51.80113547462773,23.229457920762567
24862EC4-FF79-B3BD-E053-CA2BA8C0159A,0601,0601032,0010607,37012,Grabanów-Kolonia,kolonia,435.0,52.06140587315459,23.18879811599191
24862EC4-FD33-B3BD-E053-CA2BA8C0159A,0601,0601032,1020022,77604,Marianka,część wsi,,52.03107893961193,23.266472721573365
24862EC4-FE21-B3BD-E053-CA2BA8C0159A,0601,0601192,0022941,66232,Lachówka Duża,wieś,226.0,52.03368857083891,23.378416966477392
24862EC4-FF71-B3BD-E053-CA2BA8C0159A,0601,0601032,1019770,180368,Bagno,część wsi,,52.07130526312597,23.15750931529841
24862EC4-FF72-B3BD-E053-CA2BA8C0159A,0601,0601032,0010895,12839,Budziszew,kolonia,,52.060088737754576,23.10435872498989
24862EC4-FEDC-B3BD-E053-CA2BA8C0159A,0601,0601122,0018394,92789,Olszyn,wieś,211.0,52.124357094749485,23.37606306866949
24862EC4-FF92-B3BD-E053-CA2BA8C0159A,0601,0601032,0010725,48993,Kamieniczne,kolonia,32.0,52.09115669490225,23.180703573966166
24862EC4-FEF1-B3BD-E053-CA2BA8C0159A,0601,0601113,1022854,69588,Lisisko,część wsi,,51.99524314158926,23.500497290570287
24862EC4-FEED-B3BD-E053-CA2BA8C0159A,0601,0601082,0014812,150831,Worgule,wieś,293.0,52.09463030640593,22.994683200701452
24862EC4-FDDB-B3BD-E053-CA2BA8C0159A,0601,0601132,1023730,193060,Góra,część wsi,,51.850078270569014,23.07867179848841
24862EC4-FF22-B3BD-E053-CA2BA8C0159A,0601,0601182,0022088,76856,Małgorzacin,kolonia,47.0,51.78621116643691,23.260984479736365
24862EC4-FF31-B3BD-E053-CA2BA8C0159A,0601,0601102,0015728,46213,Jelnica,wieś,521.0,51.9701324754952,22.704324749561852
24862EC4-FF32-B3BD-E053-CA2BA8C0159A,0601,0601072,0014539,156821,Zakalinki-Kolonia,wieś,326.0,52.198562505785844,23.054800200609574
24862EC4-FDDC-B3BD-E053-CA2BA8C0159A,0601,0601152,0020020,193155,Zboryszewo,część wsi,,51.72638831547608,23.304075219320747
24862EC4-FDDA-B3BD-E053-CA2BA8C0159A,0601,0601132,1023902,193078,Wygon,część wsi,,51.855341319818905,23.132217724945292
24862EC4-FDDD-B3BD-E053-CA2BA8C0159A,0601,0601142,0019666,193096,Ostatki,część wsi,,51.792564541036064,23.483607049546634
24862EC4-FDE9-B3BD-E053-CA2BA8C0159A,0601,0601032,1021330,180403,Pod Bagonicą,przysiółek,,52.06160295755169,23.037188533943084
24862EC4-FF64-B3BD-E053-CA2BA8C0159A,0601,0601113,0017153,192886,Hulcze,część wsi,,51.95638343025399,23.406435786708816
24862EC4-FDB9-B3BD-E053-CA2BA8C0159A,0601,0601011,0922188,174060,Piaski,część miasta,,51.974600320024905,22.74556792084856
24862EC4-FF83-B3BD-E053-CA2BA8C0159A,0601,0601142,0019465,174072,Monastyr,osada,,51.80505140135262,23.633366975809654
24862EC4-FF85-B3BD-E053-CA2BA8C0159A,0601,0601052,0013020,89365,Nowinki,osada,,52.14498630172394,23.178589356757087
24862EC4-FF65-B3BD-E053-CA2BA8C0159A,0601,0601113,0017176,192931,Pod Torem,część wsi,,51.995684624227415,23.404021090542127
24862EC4-FD35-B3BD-E053-CA2BA8C0159A,0601,0601072,1022038,152686,Wygon,część wsi,,52.204833485437696,23.03660219802984
24862EC4-FD34-B3BD-E053-CA2BA8C0159A,0601,0601113,1023055,112884,Puhary B,część wsi,,51.91885402765121,23.333813874074824
24862EC4-FE24-B3BD-E053-CA2BA8C0159A,0601,0601032,0010866,109722,Pólko,wieś,40.0,52.08442710506833,22.938528211247313
24862EC4-FE27-B3BD-E053-CA2BA8C0159A,0601,0601102,0016107,115955,Rogoźnica-Kolonia,wieś,136.0,52.01792044671875,22.862657092043523
24862EC4-FD87-B3BD-E053-CA2BA8C0159A,0601,0601052,0012931,180473,Granna,część wsi,,52.23327787833327,23.16250256135623
24862EC4-FE26-B3BD-E053-CA2BA8C0159A,0601,0601102,0016060,115953,Rogoźnica,wieś,524.0,52.033703170254604,22.8461872778938
24862EC4-FEA4-B3BD-E053-CA2BA8C0159A,0601,0601113,0017294,151269,Wólka Kościeniewicka,wieś,82.0,51.92863316866526,23.33315479830538
24862EC4-FEC2-B3BD-E053-CA2BA8C0159A,0601,0601042,0011848,134206,Szachy,wieś,374.0,51.98938900969261,22.910670003496648
24862EC4-FEFD-B3BD-E053-CA2BA8C0159A,0601,0601042,1021665,159513,Zaścianki,część wsi,,52.00025474312995,22.942349403377435
24862EC4-FD14-B3BD-E053-CA2BA8C0159A,0601,0601132,1023760,47039,Języczkowe,część wsi,,51.85260879648703,23.069377902615628
24862EC4-FDEF-B3BD-E053-CA2BA8C0159A,0601,0601011,0922219,174058,Tartaczna,część miasta,,51.96845573927308,22.783585644061034
24862EC4-FF67-B3BD-E053-CA2BA8C0159A,0601,0601032,1021323,180402,Planowa,kolonia,,52.03130884248317,23.039409102046736
24862EC4-FF68-B3BD-E053-CA2BA8C0159A,0601,0601132,0018738,193058,Brzozówka,kolonia,,51.8564315449578,23.140997894462213
24862EC4-FDC5-B3BD-E053-CA2BA8C0159A,0601,0601042,0011771,98866,Pereszczówka,wieś,139.0,51.927313998658434,22.93085424758835
24862EC4-FEB5-B3BD-E053-CA2BA8C0159A,0601,0601032,0010949,132856,Styrzyniec,wieś,624.0,52.031099055532465,22.99774067534536
24862EC4-FCD8-B3BD-E053-CA2BA8C0159A,0601,0601132,0018661,158470,Zaolzie,kolonia,,51.87831225558756,23.05743025943267
24862EC4-FE0C-B3BD-E053-CA2BA8C0159A,0601,0601072,0014410,783,Antolin,wieś,98.0,52.26197160806729,23.14963384030628
24862EC4-FEB4-B3BD-E053-CA2BA8C0159A,0601,0601092,0015415,132669,Studzianka,wieś,405.0,51.92481083886202,23.229372877535614
24862EC4-FD88-B3BD-E053-CA2BA8C0159A,0601,0601082,1027320,180707,Dwór,część wsi,,52.141435038250926,22.98912525490712
24862EC4-FD89-B3BD-E053-CA2BA8C0159A,0601,0601102,0016219,180765,Podlasie,część wsi,,51.98624445988525,22.647947640813353
24862EC4-FC7E-B3BD-E053-CA2BA8C0159A,0601,0601082,1022127,180716,Parcele,część wsi,,52.115554705274256,23.003611282572596
24862EC4-FD8A-B3BD-E053-CA2BA8C0159A,0601,0601102,0016225,192854,Przytoczna,część wsi,,51.985078130544714,22.65273282294256
24862EC4-FC7B-B3BD-E053-CA2BA8C0159A,0601,0601042,1021620,180461,Starowieś,część wsi,,51.910101184631785,22.871302897574417
24862EC4-FC7C-B3BD-E053-CA2BA8C0159A,0601,0601042,1021613,180455,Rupińskie,część wsi,,51.91934370560072,22.868891789349448
24862EC4-FC79-B3BD-E053-CA2BA8C0159A,0601,0601042,1021582,180447,Końce,część wsi,,52.00601720989393,22.9404027872323
24862EC4-FC7A-B3BD-E053-CA2BA8C0159A,0601,0601042,1021659,180469,Wygaryny,część wsi,,51.99137555836662,22.942196536878818
24862EC4-FC7F-B3BD-E053-CA2BA8C0159A,0601,0601113,1022831,192913,Kuliki,część wsi,,51.93769696243276,23.37067740998017
24862EC4-FC7D-B3BD-E053-CA2BA8C0159A,0601,0601082,0014605,180701,Dworszczyzna,część wsi,,52.13080479519609,22.989464262403796
24862EC4-FEDF-B3BD-E053-CA2BA8C0159A,0601,0601172,0021315,148539,Wiski,wieś,90.0,51.85835357544577,23.364954333904482
24862EC4-FF06-B3BD-E053-CA2BA8C0159A,0601,0601032,0011009,147959,Wilczyn,wieś,232.0,52.07669995523841,23.171647039714166
24862EC4-FC39-B3BD-E053-CA2BA8C0159A,0601,0601122,0018388,79255,Kolonia Michałki,kolonia,50.0,52.104974750068834,23.300246857830693
24862EC4-FEDE-B3BD-E053-CA2BA8C0159A,0601,0601072,0014491,145575,Wiechowicze,wieś,80.0,52.19710287353097,23.11153985222165
24862EC4-FDB8-B3BD-E053-CA2BA8C0159A,0601,0601021,0922343,139481,Terespol,miasto,5235.0,52.07383051727271,23.6177771619737
24862EC4-FF80-B3BD-E053-CA2BA8C0159A,0601,0601132,1022529,198632,Zabitnik,część kolonii,,51.88349285145297,23.090071645771566
24862EC4-FDE3-B3BD-E053-CA2BA8C0159A,0601,0601162,0020942,107322,Polatycze,wieś,178.0,52.05533265913596,23.61612707570037
24862EC4-FDE6-B3BD-E053-CA2BA8C0159A,0601,0601113,0017012,22243,Dąbrowica Mała,wieś,256.0,51.935688796981076,23.377749820553134
24862EC4-FDE7-B3BD-E053-CA2BA8C0159A,0601,0601152,0019815,23738,Dębów,wieś,103.0,51.6759671715211,23.318237861269974
24862EC4-FF82-B3BD-E053-CA2BA8C0159A,0601,0601142,0019459,174071,Jabłeczna,osada,,51.805951432709506,23.587953579382695
24862EC4-FF5D-B3BD-E053-CA2BA8C0159A,0601,0601032,0011104,117922,Rudka,część wsi,,51.99107595500764,23.133960970732836
24862EC4-FD0D-B3BD-E053-CA2BA8C0159A,0601,0601172,1024474,193242,Pod Czarnym Lasem,część wsi,,51.82709954908658,23.388132929782614
24862EC4-FF66-B3BD-E053-CA2BA8C0159A,0601,0601113,0017182,192934,Podpołoski,część wsi,,51.96652227909367,23.406752416514355
24862EC4-FF7F-B3BD-E053-CA2BA8C0159A,0601,0601072,1022015,130258,Stasinów,część wsi,,52.19383030590939,23.051412792510806
24862EC4-FF70-B3BD-E053-CA2BA8C0159A,0601,0601032,1019792,180370,Dancza,część wsi,,51.99414779508577,23.129826342489622
24862EC4-FCD4-B3BD-E053-CA2BA8C0159A,0601,0601032,1021352,180407,Podlasiaki,część wsi,,52.03003207735613,22.97127641353405
24862EC4-FEB7-B3BD-E053-CA2BA8C0159A,0601,0601092,0015361,73117,Łomazy,wieś,1628.0,51.908688456428905,23.156237043851217
24862EC4-FEAE-B3BD-E053-CA2BA8C0159A,0601,0601092,0015409,130267,Stasiówka,wieś,95.0,51.83320261260307,23.307285635930498
24862EC4-FEAF-B3BD-E053-CA2BA8C0159A,0601,0601102,0016188,132243,Strzakły,wieś,361.0,51.98306543397321,22.647567839689735
24862EC4-FDC1-B3BD-E053-CA2BA8C0159A,0601,0601172,0021025,99412,Piaski,część wsi,,51.918934302735714,23.35781004124603
24862EC4-FDC7-B3BD-E053-CA2BA8C0159A,0601,0601011,0922194,101742,Piszczanka,część miasta,,51.99463459846554,22.772643608245478
24862EC4-FDC9-B3BD-E053-CA2BA8C0159A,0601,0601011,0922225,174059,Zadworne,część miasta,,51.974815382603886,22.801741871446982
24862EC4-FF1C-B3BD-E053-CA2BA8C0159A,0601,0601092,0015421,85498,Naddatki,kolonia,,51.90689513400629,23.22835092833218
24862EC4-FF5E-B3BD-E053-CA2BA8C0159A,0601,0601032,1021398,180416,Przymiarki,część wsi,,52.0121957147121,23.230934799151157
24862EC4-FC76-B3BD-E053-CA2BA8C0159A,0601,0601113,0017213,114833,Ratarków,kolonia,,51.97198659649075,23.357109268629024
24862EC4-FC78-B3BD-E053-CA2BA8C0159A,0601,0601132,0018744,50283,Karaczony,kolonia,,51.87788986137298,23.131289790633538
24862EC4-FF7B-B3BD-E053-CA2BA8C0159A,0601,0601032,0010613,60899,Kozula,osada,,52.05665552629658,23.15266027919293
24862EC4-FF5F-B3BD-E053-CA2BA8C0159A,0601,0601032,0010560,180420,Włóka,część wsi,,52.00975806023042,23.230299055962476
24862EC4-FF86-B3BD-E053-CA2BA8C0159A,0601,0601032,0010620,180426,Zadwórcze,przysiółek,,52.06416460296893,23.195721784851703
24862EC4-FDE4-B3BD-E053-CA2BA8C0159A,0601,0601011,0922165,174057,Łukowska,część miasta,,51.98701611939655,22.761685869384014
24862EC4-FDE5-B3BD-E053-CA2BA8C0159A,0601,0601021,0922350,7010,Błotków Duży,część miasta,,52.06437266064265,23.606888091849694
24862EC4-FF73-B3BD-E053-CA2BA8C0159A,0601,0601092,1022417,192843,Stasiówka,kolonia,,51.8441150862571,23.312352432289654
24862EC4-FF07-B3BD-E053-CA2BA8C0159A,0601,0601032,0010990,139425,Terebela,wieś,385.0,52.07693683743584,23.079764302217445
414db862-0694-4de2-b6dd-e7dc627d83d0,0601,0601142,1067176,255503,Parośla-Pniski,wieś,38.0,51.811269152233585,23.611171728448422
24862EC4-FE8C-B3BD-E053-CA2BA8C0159A,0601,0601042,0011920,151307,Wólka Łózecka,wieś,207.0,51.87258136377172,22.82438197494143
24862EC4-FE8D-B3BD-E053-CA2BA8C0159A,0601,0601172,0021367,151474,Wólka Zabłocka,wieś,64.0,51.8525050020949,23.532050639455544
24862EC4-FF20-B3BD-E053-CA2BA8C0159A,0601,0601092,0014841,15885,Chodów,przysiółek,,51.940652964894355,23.167551282909074
24862EC4-FF1F-B3BD-E053-CA2BA8C0159A,0601,0601162,0020847,76576,Małaszewicze,osiedle,1438.0,52.014807311897926,23.521124381366853
24862EC4-FE5C-B3BD-E053-CA2BA8C0159A,0601,0601113,0017006,16409,Chotyłów,wieś,914.0,52.002252917743505,23.361308952208002
24862EC4-FDC2-B3BD-E053-CA2BA8C0159A,0601,0601172,0021048,154835,Zabłocie,część wsi,,51.91366115704776,23.367028050853413
24862EC4-FE4F-B3BD-E053-CA2BA8C0159A,0601,0601102,0015770,59304,Koszeliki,wieś,95.0,52.053009423716624,22.840255025457996
24862EC4-FE4A-B3BD-E053-CA2BA8C0159A,0601,0601052,0012902,6672,Błonie,wieś,115.0,52.17671483020971,23.330207150238877
24862EC4-FEE7-B3BD-E053-CA2BA8C0159A,0601,0601132,0018566,135119,Szelest,część wsi,,51.86394410204108,23.15396746566555
24862EC4-FEE8-B3BD-E053-CA2BA8C0159A,0601,0601092,1022328,88621,Nowe,część wsi,,51.935865908038444,23.079452948723677
24862EC4-FF09-B3BD-E053-CA2BA8C0159A,0601,0601032,0010903,116564,Roskosz,wieś,284.0,52.09649956655077,23.16000619171878
24862EC4-FEB1-B3BD-E053-CA2BA8C0159A,0601,0601162,0020824,72986,Łobaczew Duży,wieś,321.0,52.07214419989919,23.585488349564447
24862EC4-FEB2-B3BD-E053-CA2BA8C0159A,0601,0601162,0020830,72987,Łobaczew Mały,wieś,236.0,52.09439378382469,23.60053039138414
24862EC4-FF08-B3BD-E053-CA2BA8C0159A,0601,0601032,0010932,130042,Sławacinek Stary,wieś,1212.0,52.03967695866011,23.06596692528054
24862EC4-FF87-B3BD-E053-CA2BA8C0159A,0601,0601032,1019852,37019,Grabarka,osada leśna,,51.988267898306965,23.085320951667715
24862EC4-FF8C-B3BD-E053-CA2BA8C0159A,0601,0601042,0011707,13971,Byk,osada leśna,,51.95839709551431,23.056221291406015
24862EC4-FDC8-B3BD-E053-CA2BA8C0159A,0601,0601011,0922202,131494,Stołpno,część miasta,,51.97691914632683,22.806522382640384
24862EC4-FECF-B3BD-E053-CA2BA8C0159A,0601,0601172,0021255,141474,Tuczna,wieś,874.0,51.8785529433372,23.431950178116992
24862EC4-FEFF-B3BD-E053-CA2BA8C0159A,0601,0601192,0022912,193290,Gaj,osada leśna,,52.010283559395,23.323897454824593
24862EC4-FDF8-B3BD-E053-CA2BA8C0159A,0601,0601142,0019554,63877,Krzywowólka-Kolonia,wieś,94.0,51.808133203848854,23.496555376576712
24862EC4-FD7F-B3BD-E053-CA2BA8C0159A,0601,0601092,0015332,168264,Krasówka,kolonia,,51.936141610624134,23.111839010163685
24862EC4-FCDF-B3BD-E053-CA2BA8C0159A,0601,0601172,0021290,174078,Podzdany,część wsi,,51.86407589613958,23.437073917871146
24862EC4-FF54-B3BD-E053-CA2BA8C0159A,0601,0601072,1021990,180509,Siekierka,kolonia,,52.15906412948062,23.103871748081193
24862EC4-FEFE-B3BD-E053-CA2BA8C0159A,0601,0601062,1021754,197602,Dobratycze,osada,,52.00217067019761,23.613891712207366
24862EC4-FF00-B3BD-E053-CA2BA8C0159A,0601,0601122,0018336,193048,Szarowicze,osada,,52.07754790001449,23.32580534185752
24862EC4-FF21-B3BD-E053-CA2BA8C0159A,0601,0601142,0019471,95324,Ostrów,przysiółek,,51.8009754374975,23.623225832292402
24862EC4-FF4C-B3BD-E053-CA2BA8C0159A,0601,0601092,0015088,180741,Naddatki,kolonia,,51.8757797379048,23.180243744194254
24862EC4-FF63-B3BD-E053-CA2BA8C0159A,0601,0601113,0017130,192879,Borowe,część wsi,,51.99447643767441,23.380596272921085
24862EC4-FE92-B3BD-E053-CA2BA8C0159A,0601,0601032,0011110,154834,Zabłocie,wieś,174.0,52.062817988185515,22.92826376034169
24862EC4-FE93-B3BD-E053-CA2BA8C0159A,0601,0601062,0013793,55675,Kodeń Drugi,część wsi,,51.904758356744225,23.603902111011333
24862EC4-FF74-B3BD-E053-CA2BA8C0159A,0601,0601092,1022305,180739,Łomazówka,kolonia,,51.909023196968356,23.201345909712845
24862EC4-FF75-B3BD-E053-CA2BA8C0159A,0601,0601082,1022133,180719,Pieściucha,kolonia,,52.1155446740325,23.081811059066148
24862EC4-FF76-B3BD-E053-CA2BA8C0159A,0601,0601082,1022185,180723,Wycinka,kolonia,,52.10001823224889,23.09450995587005
24862EC4-FF3B-B3BD-E053-CA2BA8C0159A,0601,0601082,0014580,192828,Abisynia,kolonia,,52.121580679575004,22.973594687093982
78570b60-a910-4896-a1d6-31711662d65f,0601,0601113,1066863,101736,Piszczac Pierwszy,wieś,176.0,51.99421664906878,23.40320788908421
24862EC4-FF3E-B3BD-E053-CA2BA8C0159A,0601,0601082,0014634,54353,Klukowszczyzna,wieś,61.0,52.14847857891744,22.96701420704323
24862EC4-FC8C-B3BD-E053-CA2BA8C0159A,0601,0601102,0016113,153651,Wysokie,część wsi,3.0,52.01149489168103,22.85136648662793
24862EC4-FDE8-B3BD-E053-CA2BA8C0159A,0601,0601062,0013729,29443,Elżbiecin,wieś,264.0,51.92622763464849,23.580228906664793
24862EC4-FDC4-B3BD-E053-CA2BA8C0159A,0601,0601052,0013050,98852,Peredyło,wieś,75.0,52.2037491544474,23.13994648777768
24862EC4-FE9F-B3BD-E053-CA2BA8C0159A,0601,0601092,0015480,151267,Wólka Korczowska,wieś,60.0,51.900052294685786,23.00952493444877
24862EC4-FF77-B3BD-E053-CA2BA8C0159A,0601,0601032,0011127,180393,Osienniki,kolonia,,52.06600677230133,22.95187910061252
24862EC4-FF78-B3BD-E053-CA2BA8C0159A,0601,0601142,0019778,193108,Stynówszczyzna,kolonia,,51.79969550741934,23.5196624058236
24862EC4-FF7A-B3BD-E053-CA2BA8C0159A,0601,0601032,0010889,204159,Bagonica,kolonia,,52.06385803662497,23.067051399537664
24862EC4-FF35-B3BD-E053-CA2BA8C0159A,0601,0601032,1019881,41911,Hulanka,wieś,,51.96401874558433,23.05481542917703
24862EC4-FF9D-B3BD-E053-CA2BA8C0159A,0601,0601032,0011073,150886,Woskrzenice Małe,wieś,284.0,52.060622754646616,23.257339557978707
24862EC4-FF9B-B3BD-E053-CA2BA8C0159A,0601,0601032,0011133,155346,Zacisze,wieś,42.0,52.088068428156596,23.197209169277112
24862EC4-FF9C-B3BD-E053-CA2BA8C0159A,0601,0601032,0011096,151371,Wólka Plebańska,wieś,399.0,51.99351452696639,23.166885847344346
24862EC4-FE2C-B3BD-E053-CA2BA8C0159A,0601,0601162,0020652,55016,Kobylany,wieś,498.0,52.04274524173008,23.56605071036855
24862EC4-FF23-B3BD-E053-CA2BA8C0159A,0601,0601182,0022094,155322,Zacisze,kolonia,,51.81730312010375,23.26330523121005
24862EC4-FCEC-B3BD-E053-CA2BA8C0159A,0601,0601132,0018655,84346,Musiejówka,kolonia,87.0,51.88155292156806,23.078891058971507
24862EC4-FCED-B3BD-E053-CA2BA8C0159A,0601,0601122,0018514,155375,Kolonia Zaczopki,kolonia,56.0,52.140590552544836,23.41535295104442
24862EC4-FF1A-B3BD-E053-CA2BA8C0159A,0601,0601132,0018767,154718,Zabaszta,kolonia,,51.86659068810121,23.134710647519153
24862EC4-FE2B-B3BD-E053-CA2BA8C0159A,0601,0601052,0013014,54216,Klonownica-Plac,wieś,168.0,52.13289979663668,23.171665251796888
24862EC4-FD1B-B3BD-E053-CA2BA8C0159A,0601,0601072,0014462,168120,Konstantynów-Kolonia,wieś,157.0,52.23749017400156,23.117285572998334
24862EC4-FEA0-B3BD-E053-CA2BA8C0159A,0601,0601072,0014522,156820,Zakalinki,wieś,190.0,52.21674191629416,23.049412469159204
24862EC4-FE03-B3BD-E053-CA2BA8C0159A,0601,0601142,0019442,42797,Jabłeczna,wieś,220.0,51.80623286084707,23.587189205953578
24862EC4-FED9-B3BD-E053-CA2BA8C0159A,0601,0601113,0017265,129296,Połoski Stare,wieś,162.0,51.93166399524353,23.463407753354208
24862EC4-FDC3-B3BD-E053-CA2BA8C0159A,0601,0601142,0019637,97438,Parośla,wieś,,51.8132030170664,23.619714250371736
24862EC4-FDAC-B3BD-E053-CA2BA8C0159A,0601,0601062,0013965,91697,Okczyn,wieś,127.0,51.949574567705696,23.616102365231296
24862EC4-FE0B-B3BD-E053-CA2BA8C0159A,0601,0601152,0019940,110572,Przechód,wieś,112.0,51.796611794639496,23.357159746090698
24862EC4-FEAA-B3BD-E053-CA2BA8C0159A,0601,0601162,0020994,159372,Zastawek,wieś,109.0,52.01171334110099,23.566760717178884
24862EC4-FEAB-B3BD-E053-CA2BA8C0159A,0601,0601102,0016366,159760,Zawadki,wieś,73.0,52.05488108082287,22.863309494571677
24862EC4-FF51-B3BD-E053-CA2BA8C0159A,0601,0601032,1019846,37022,Grabarka,część wsi,,51.97617444063788,23.103825581179688
24862EC4-FEF4-B3BD-E053-CA2BA8C0159A,0601,0601032,1021458,146480,Wielkie Pole,część wsi,,51.971128809197694,23.218817969966018
24862EC4-FEF5-B3BD-E053-CA2BA8C0159A,0601,0601032,1021501,157245,Zakrzyże,część wsi,,51.988819836283696,23.199652937936847
24862EC4-FEF9-B3BD-E053-CA2BA8C0159A,0601,0601032,1021435,137334,Średni Pas,część wsi,,51.978139176464296,23.205433500868956
24862EC4-FCD9-B3BD-E053-CA2BA8C0159A,0601,0601092,0015444,132675,Studzianka,kolonia,,51.923914477568225,23.22779607343987
24862EC4-FCDA-B3BD-E053-CA2BA8C0159A,0601,0601142,0019710,65820,Kuzawka-Kolonia,kolonia,69.0,51.7505308408031,23.526904194298577
24862EC4-FE05-B3BD-E053-CA2BA8C0159A,0601,0601042,0011682,66022,Kwasówka,wieś,232.0,51.897631151468936,22.931811151292134
24862EC4-FDEA-B3BD-E053-CA2BA8C0159A,0601,0601142,0019488,63876,Krzywowólka,wieś,146.0,51.819308600163446,23.528597417470003
24862EC4-FE02-B3BD-E053-CA2BA8C0159A,0601,0601032,0010636,41611,Hrud,wieś,560.0,52.096722171786936,23.128431785804864
24862EC4-FE04-B3BD-E053-CA2BA8C0159A,0601,0601082,0014628,43235,Jagodnica,wieś,82.0,52.0997925073711,23.059632023040876
24862EC4-FC75-B3BD-E053-CA2BA8C0159A,0601,0601082,0014730,94804,Ossówka,kolonia,,52.13025024612021,23.12715928362
24862EC4-FCE0-B3BD-E053-CA2BA8C0159A,0601,0601172,0021309,121067,Sawiniec,część wsi,,51.8780618710849,23.400494680046886
24862EC4-FEF2-B3BD-E053-CA2BA8C0159A,0601,0601113,1023300,158724,Zapopław,część wsi,,52.011017687789376,23.467988037847906
24862EC4-FEF3-B3BD-E053-CA2BA8C0159A,0601,0601192,0022740,57925,Kopelówka,część wsi,,52.06205541647614,23.448804844012592
24862EC4-FDB6-B3BD-E053-CA2BA8C0159A,0601,0601052,0013043,95314,Ostrów,wieś,161.0,52.19254601820777,23.32096505145867
24862EC4-FE22-B3BD-E053-CA2BA8C0159A,0601,0601192,0022958,66233,Lachówka Mała,wieś,109.0,52.054318565908076,23.378221397870995
24862EC4-FE23-B3BD-E053-CA2BA8C0159A,0601,0601162,0020770,66866,Lebiedziew,wieś,324.0,52.031965962306295,23.608621882433766
24862EC4-FCE1-B3BD-E053-CA2BA8C0159A,0601,0601162,0020729,193187,Łany,część wsi,,52.14185457370468,23.493007946155327
24862EC4-FCE2-B3BD-E053-CA2BA8C0159A,0601,0601142,0019519,193100,Prosta,część wsi,,51.812809870507984,23.520495920867038
24862EC4-FCE3-B3BD-E053-CA2BA8C0159A,0601,0601142,0019525,193109,Tymiszczyce,część wsi,,51.812880907016385,23.51696500542747
24862EC4-FCE4-B3BD-E053-CA2BA8C0159A,0601,0601142,0019531,193112,Zagumnie,część wsi,,51.81442838465692,23.509139657035053
24862EC4-FD80-B3BD-E053-CA2BA8C0159A,0601,0601092,0015349,69919,Lorcin,kolonia,,51.94180905828277,23.097393091243415
24862EC4-FE60-B3BD-E053-CA2BA8C0159A,0601,0601113,0017058,59479,Kościeniewicze,wieś,300.0,51.95891127354909,23.31720971389485
24862EC4-FE16-B3BD-E053-CA2BA8C0159A,0601,0601052,0012977,48263,Kajetanka,wieś,32.0,52.1754026580324,23.288875683022425
24862EC4-FE84-B3BD-E053-CA2BA8C0159A,0601,0601152,0020126,152483,Wygnanka,wieś,108.0,51.75518374569257,23.423236832746316
24862EC4-FE8B-B3BD-E053-CA2BA8C0159A,0601,0601172,0021373,151476,Wólka Zabłocka-Kolonia,wieś,127.0,51.85328155482646,23.510619495090594
24862EC4-FDAF-B3BD-E053-CA2BA8C0159A,0601,0601052,0013103,129992,Stary Pawłów,wieś,259.0,52.20860007972986,23.199629350879654
24862EC4-FE5D-B3BD-E053-CA2BA8C0159A,0601,0601122,0018187,17370,Cieleśnica,wieś,162.0,52.15324690101555,23.297648266314738
24862EC4-FE5E-B3BD-E053-CA2BA8C0159A,0601,0601182,0021663,18177,Curyn,wieś,178.0,51.82352477651666,23.23522663358227
24862EC4-FE5F-B3BD-E053-CA2BA8C0159A,0601,0601092,0015295,60833,Kozły,wieś,142.0,51.89824539779201,23.08030927814265
24862EC4-FE51-B3BD-E053-CA2BA8C0159A,0601,0601082,0014663,77566,Mariampol,wieś,45.0,52.1385017156652,23.063657297479043
24862EC4-FE17-B3BD-E053-CA2BA8C0159A,0601,0601192,0022929,54485,Kłoda Mała,wieś,151.0,52.03082108675581,23.346174317843996
24862EC4-FEA2-B3BD-E053-CA2BA8C0159A,0601,0601192,0023053,157461,Zalesie,wieś,737.0,52.02674665613587,23.3780810636313
24862EC4-FD81-B3BD-E053-CA2BA8C0159A,0601,0601172,0021031,193263,Wierzbiny,część wsi,,51.897882869556504,23.385098562713974
24862EC4-FD82-B3BD-E053-CA2BA8C0159A,0601,0601172,1024600,193244,Pod Osowem,część wsi,,51.83311263796796,23.329769782472734
24862EC4-FEA1-B3BD-E053-CA2BA8C0159A,0601,0601072,0014545,156838,Zakanale,wieś,362.0,52.190530086873196,23.08016239787985
24862EC4-FF43-B3BD-E053-CA2BA8C0159A,0601,0601072,0014427,34112,Gnojno,wieś,102.0,52.26917082344184,23.135773885357647
24862EC4-FF44-B3BD-E053-CA2BA8C0159A,0601,0601032,0010599,37011,Grabanów,wieś,751.0,52.062254800239074,23.15713548300285
24862EC4-FF3D-B3BD-E053-CA2BA8C0159A,0601,0601082,0014597,26276,Droblin,kolonia,,52.12567070322611,22.966770381411077
24862EC4-FF42-B3BD-E053-CA2BA8C0159A,0601,0601082,1022191,163111,Żabowo,kolonia,,52.145532229086285,22.955017370741054
24862EC4-FDF4-B3BD-E053-CA2BA8C0159A,0601,0601102,0015705,40620,Halasy,wieś,482.0,52.03954299643226,22.752010874436035
24862EC4-FEB3-B3BD-E053-CA2BA8C0159A,0601,0601042,0011831,132589,Strzyżówka,wieś,70.0,51.93741299337149,22.964356431769215
24862EC4-FE01-B3BD-E053-CA2BA8C0159A,0601,0601122,0018247,41393,Hołodnica,wieś,99.0,52.14935327279287,23.25046341053603
24862EC4-FDFF-B3BD-E053-CA2BA8C0159A,0601,0601021,0922395,192748,Rogatka,część miasta,,52.07997817022682,23.63606430671097
24862EC4-FE00-B3BD-E053-CA2BA8C0159A,0601,0601021,0922403,192751,Włóczki,część miasta,,52.06530313717974,23.628040267192333
24862EC4-FF61-B3BD-E053-CA2BA8C0159A,0601,0601032,1021487,180422,Zabencze,część wsi,,52.064588572352854,23.146598962996155
24862EC4-FE66-B3BD-E053-CA2BA8C0159A,0601,0601102,0016165,121076,Sawki,wieś,106.0,51.98507555010668,22.699677773836484
24862EC4-FC77-B3BD-E053-CA2BA8C0159A,0601,0601122,0018477,116203,Kolonia Rokitno,kolonia,93.0,52.12683505023642,23.312855989397875
24862EC4-FDD5-B3BD-E053-CA2BA8C0159A,0601,0601113,0017124,101732,Piszczac,miasto,2037.0,51.97932603743418,23.380088598074394
24862EC4-FE06-B3BD-E053-CA2BA8C0159A,0601,0601162,0020764,65982,Kuzawka,wieś,110.0,52.10835180057784,23.547428949538318
24862EC4-FDCE-B3BD-E053-CA2BA8C0159A,0601,0601172,1024356,7908,Koło Mądrego Drzewka,część wsi,,51.81547153461757,23.353456310562848
24862EC4-FDCF-B3BD-E053-CA2BA8C0159A,0601,0601072,1022021,180511,Sztab,część wsi,,52.203614331427175,23.09389628550576
24862EC4-FF60-B3BD-E053-CA2BA8C0159A,0601,0601092,0014918,180733,Julin,część wsi,,51.96628940592177,23.146385632633358
24862EC4-FF24-B3BD-E053-CA2BA8C0159A,0601,0601042,0011890,71232,Łan,kolonia,,51.91570047153378,22.97247126517306
24862EC4-FF25-B3BD-E053-CA2BA8C0159A,0601,0601032,0010748,7457,Boczenka,przysiółek,,52.050029610712706,22.880468109948584
24862EC4-FF26-B3BD-E053-CA2BA8C0159A,0601,0601032,1021263,80424,Mikołajówka,przysiółek,,52.004304498753,23.262594013890524
24862EC4-FF52-B3BD-E053-CA2BA8C0159A,0601,0601062,0013770,174438,Haczki,kolonia,,51.903611780334856,23.5781136605322
24862EC4-FEFA-B3BD-E053-CA2BA8C0159A,0601,0601032,1021270,83179,Morgi,część wsi,,51.969470605538504,23.227732926925736
24862EC4-FF4A-B3BD-E053-CA2BA8C0159A,0601,0601032,1019993,198808,Krąglik,kolonia,,51.99390445155587,23.047067664259767
24862EC4-FF4B-B3BD-E053-CA2BA8C0159A,0601,0601032,1027314,180419,Smolne Piece,kolonia,,51.989863680565044,23.030884283228424
24862EC4-FF53-B3BD-E053-CA2BA8C0159A,0601,0601062,0013876,180480,Rapcze,kolonia,,51.91019637285136,23.593819178177235
24862EC4-FF55-B3BD-E053-CA2BA8C0159A,0601,0601092,0015007,180753,Zawąskie,kolonia,,51.85089370802861,23.266638985926548
24862EC4-FF56-B3BD-E053-CA2BA8C0159A,0601,0601092,0015177,180732,Działy,kolonia,,51.91655569657521,23.04502977430688
24862EC4-FF57-B3BD-E053-CA2BA8C0159A,0601,0601032,1021375,180412,Podszosa,kolonia,,52.03600113144389,23.032597177635196
24862EC4-FCB8-B3BD-E053-CA2BA8C0159A,0601,0601042,0011995,180444,Dworszczyzna,część wsi,,51.95274361189483,22.890155350360786
24862EC4-FCB9-B3BD-E053-CA2BA8C0159A,0601,0601042,0012032,180453,Rekicy,część wsi,,51.94939871864485,22.913707817486827
24862EC4-FC48-B3BD-E053-CA2BA8C0159A,0601,0601172,1024563,193243,Pod Krajszczyzną,część wsi,,51.86368827077595,23.440042189795953
24862EC4-FDED-B3BD-E053-CA2BA8C0159A,0601,0601052,0013066,107501,Polinów,wieś,65.0,52.15854128192294,23.157298979649457
24862EC4-FF40-B3BD-E053-CA2BA8C0159A,0601,0601092,0014982,180736,Kolonie Koszołowskie,kolonia,,51.888641433786034,23.26227025802753
24862EC4-FF41-B3BD-E053-CA2BA8C0159A,0601,0601092,1022280,180737,Koło Boksińskiej Drogi,kolonia,,51.85843195394404,23.315887032012853
24862EC4-FDCD-B3BD-E053-CA2BA8C0159A,0601,0601172,0021060,111524,Przycinek,część wsi,,51.83014557671743,23.32597040657787
24862EC4-FF62-B3BD-E053-CA2BA8C0159A,0601,0601032,1021381,180415,Prokopiówka,część wsi,,51.96623925662776,23.079307620719646
24862EC4-FEB8-B3BD-E053-CA2BA8C0159A,0601,0601102,0015817,73716,Łuby,wieś,103.0,52.095899151090485,22.66721554574941
24862EC4-FE25-B3BD-E053-CA2BA8C0159A,0601,0601182,0021918,114819,Ratajewicze,wieś,140.0,51.71324428019081,23.26911755516117
24862EC4-FE10-B3BD-E053-CA2BA8C0159A,0601,0601162,0020623,7844,Bohukały,wieś,198.0,52.14929343741956,23.449764964370274
24862EC4-FF90-B3BD-E053-CA2BA8C0159A,0601,0601032,1021524,161331,Zielone,osada,,52.10716558838548,23.151060049505592
24862EC4-FE20-B3BD-E053-CA2BA8C0159A,0601,0601122,0018260,54217,Klonownica Duża,wieś,260.0,52.134435840320506,23.207532413308765
24862EC4-FF8E-B3BD-E053-CA2BA8C0159A,0601,0601082,0014686,174064,Dwór,osada,,52.16704490654454,22.986560903915546
24862EC4-FF8F-B3BD-E053-CA2BA8C0159A,0601,0601122,0018276,121351,Serwin,osada,,52.1154233390012,23.26146838421709
24862EC4-FC6A-B3BD-E053-CA2BA8C0159A,0601,0601113,1022819,192906,Komarno,część wsi,,51.95342419001014,23.351376740128774
24862EC4-FEE9-B3BD-E053-CA2BA8C0159A,0601,0601072,0014500,148891,Witoldów,wieś,201.0,52.21436191034148,23.124454857142094
24862EC4-FE4E-B3BD-E053-CA2BA8C0159A,0601,0601062,0013936,59095,Kostomłoty,wieś,117.0,51.98147865460851,23.636227091477593
24862EC4-FE5A-B3BD-E053-CA2BA8C0159A,0601,0601032,0010524,14721,Cełujki,wieś,251.0,52.09674949781218,22.903439456325724
24862EC4-FEC0-B3BD-E053-CA2BA8C0159A,0601,0601042,0011720,73605,Łózki,wieś,412.0,51.876821703128805,22.88227099821993
24862EC4-FEC1-B3BD-E053-CA2BA8C0159A,0601,0601102,0016372,162813,Żabce,wieś,455.0,52.02055155225902,22.724526113296804
24862EC4-FDB0-B3BD-E053-CA2BA8C0159A,0601,0601192,0022786,24861,Dobryń Mały,wieś,197.0,52.04906202999628,23.396078870512564
24862EC4-FE75-B3BD-E053-CA2BA8C0159A,0601,0601062,0013706,24682,Dobratycze,wieś,124.0,52.00090802301627,23.604937883835703
24862EC4-FC6B-B3BD-E053-CA2BA8C0159A,0601,0601113,1022848,192914,Kuźmij Kąt,część wsi,,51.94776414326406,23.34741264499634
24862EC4-FC6C-B3BD-E053-CA2BA8C0159A,0601,0601113,1022860,192915,Liszczyk,część wsi,,51.96747418068754,23.340127602618857
24862EC4-FC6D-B3BD-E053-CA2BA8C0159A,0601,0601152,0020155,193138,Posada,część wsi,,51.750812437710074,23.409556838308543
24862EC4-FDF1-B3BD-E053-CA2BA8C0159A,0601,0601021,0922366,192739,Błotków Mały,część miasta,,52.0691651178349,23.615515226407815
24862EC4-FDF2-B3BD-E053-CA2BA8C0159A,0601,0601021,0922372,192742,Mieszczany,część miasta,,52.078294179626674,23.619279001440404
24862EC4-FE1B-B3BD-E053-CA2BA8C0159A,0601,0601102,0016047,112855,Puchacze,wieś,239.0,52.00678933935147,22.899271327683238
24862EC4-FEBD-B3BD-E053-CA2BA8C0159A,0601,0601102,0015852,74136,Łuniew,wieś,147.0,52.08013732624863,22.68095251562504
24862EC4-FDF6-B3BD-E053-CA2BA8C0159A,0601,0601192,0022800,41465,Horbów-Kolonia,wieś,184.0,52.03896875819688,23.32292346592577
24862EC4-FDF7-B3BD-E053-CA2BA8C0159A,0601,0601182,0021730,41514,Horodyszcze,wieś,733.0,51.7479983516265,23.16768261125079
24862EC4-FE1C-B3BD-E053-CA2BA8C0159A,0601,0601172,0021054,7907,Bokinka Pańska,wieś,148.0,51.82788882329354,23.34189543824556
24862EC4-FF8B-B3BD-E053-CA2BA8C0159A,0601,0601062,0013942,168119,Kostomłoty,osada,313.0,51.97318214327646,23.618014639156815
24862EC4-FF8D-B3BD-E053-CA2BA8C0159A,0601,0601172,0021189,168265,Międzyleś,osada,,51.84804405167515,23.472546978032828
24862EC4-FE12-B3BD-E053-CA2BA8C0159A,0601,0601052,0012954,43337,Jakówki,wieś,140.0,52.191073279107535,23.129161575213637
24862EC4-FE63-B3BD-E053-CA2BA8C0159A,0601,0601142,0019650,120444,Sajówka,wieś,111.0,51.78915614467522,23.488096233549708
24862EC4-FE64-B3BD-E053-CA2BA8C0159A,0601,0601162,0020959,120662,Samowicze,wieś,184.0,52.104498547478485,23.582265884815232
24862EC4-FE65-B3BD-E053-CA2BA8C0159A,0601,0601152,0020050,120760,Sapiehów,wieś,136.0,51.78828736903772,23.33045865752115
24862EC4-FF0B-B3BD-E053-CA2BA8C0159A,0601,0601032,0010850,108835,Porosiuki,wieś,703.0,52.0227124544335,23.04552584455021
24862EC4-FF0C-B3BD-E053-CA2BA8C0159A,0601,0601032,0010820,93726,Ortel Książęcy Drugi,wieś,174.0,51.993821089265204,23.265264792585267
24862EC4-FF0D-B3BD-E053-CA2BA8C0159A,0601,0601032,0010777,79423,Michałówka,wieś,113.0,51.958108815024204,23.102346978742617
24862EC4-FF0E-B3BD-E053-CA2BA8C0159A,0601,0601122,0018359,79249,Michałki,wieś,122.0,52.09014427563574,23.288442217005603
24862EC4-FE13-B3BD-E053-CA2BA8C0159A,0601,0601052,0012960,44294,Janów Podlaski,wieś,2524.0,52.17815595787973,23.219545190585503
24862EC4-FE15-B3BD-E053-CA2BA8C0159A,0601,0601092,0990824,47753,Jusaki-Zarzeka,wieś,155.0,51.86773343570423,23.192727628990976
24862EC4-FF0A-B3BD-E053-CA2BA8C0159A,0601,0601032,0010872,114569,Rakowiska,wieś,1733.0,52.06390045738404,23.074804464259962
24862EC4-FF0F-B3BD-E053-CA2BA8C0159A,0601,0601032,0010702,48415,Kaliłów,wieś,216.0,52.07508256951064,23.227632233065382
24862EC4-FF10-B3BD-E053-CA2BA8C0159A,0601,0601032,0010671,45831,Jaźwiny,wieś,258.0,51.98666193970887,23.056224273993212
24862EC4-FEEA-B3BD-E053-CA2BA8C0159A,0601,0601042,0011877,148916,Witoroż,wieś,248.0,51.91681357333007,22.981600827972162
24862EC4-FEFC-B3BD-E053-CA2BA8C0159A,0601,0601042,0011647,101757,Piszczki,część wsi,,51.98719555500827,22.933096727557807
24862EC4-FDC0-B3BD-E053-CA2BA8C0159A,0601,0601032,0010843,106899,Pojelce,wieś,202.0,52.09587175249106,22.94671245692843
24862EC4-FF89-B3BD-E053-CA2BA8C0159A,0601,0601032,0010719,85534,Kijowiec,osada leśna,,52.08348775790607,23.248374183917463
24862EC4-FF03-B3BD-E053-CA2BA8C0159A,0601,0601113,0017093,192880,Czworaki,osada,,51.95141590948057,23.262411965823535
24862EC4-FEBE-B3BD-E053-CA2BA8C0159A,0601,0601182,0021769,74321,Łyniew,wieś,158.0,51.744736242083874,23.222677703572597
24862EC4-FEBF-B3BD-E053-CA2BA8C0159A,0601,0601162,0020818,72722,Łęgi,wieś,88.0,52.17215808521347,23.47434603469515
24862EC4-FE74-B3BD-E053-CA2BA8C0159A,0601,0601122,0018224,22853,Derło,wieś,101.0,52.1770075542776,23.377131288670927
24862EC4-FDAD-B3BD-E053-CA2BA8C0159A,0601,0601062,0014002,92566,Olszanki,wieś,89.0,51.89427425936368,23.530964361328074
24862EC4-FDAE-B3BD-E053-CA2BA8C0159A,0601,0601052,0013095,129676,Stary Bubel,wieś,147.0,52.26055105245845,23.18206103068384
24862EC4-FE09-B3BD-E053-CA2BA8C0159A,0601,0601122,0018419,109955,Pratulin,wieś,55.0,52.169599865089744,23.43329965548409
24862EC4-FDF3-B3BD-E053-CA2BA8C0159A,0601,0601021,0922389,192745,Ogródki Łobaczewskie,część miasta,,52.07349289347811,23.617409523720628
24862EC4-FE07-B3BD-E053-CA2BA8C0159A,0601,0601192,0022906,54483,Kłoda Duża,wieś,236.0,52.013611837741855,23.3160538140973
24862EC4-FE08-B3BD-E053-CA2BA8C0159A,0601,0601113,0017220,107772,Połoski,wieś,252.0,51.94856119631817,23.451428562338492
24862EC4-FE0A-B3BD-E053-CA2BA8C0159A,0601,0601042,0011802,110567,Przechodzisko,wieś,156.0,51.91103611093042,22.823183205168757
24862EC4-FDEE-B3BD-E053-CA2BA8C0159A,0601,0601182,0021812,107644,Polubicze Dworskie,wieś,124.0,51.78603329070281,23.059843430131227
24862EC4-FCCB-B3BD-E053-CA2BA8C0159A,0601,0601162,0020735,193189,Majątek,część wsi,,52.14388477065954,23.50513226626313
24862EC4-FCCC-B3BD-E053-CA2BA8C0159A,0601,0601162,0020741,193192,Miasteczko,część wsi,,52.14625194378874,23.497964727261923
24862EC4-FCCD-B3BD-E053-CA2BA8C0159A,0601,0601142,0019502,97713,Pasieka,część wsi,,51.82501341081731,23.52721205592793
24862EC4-FCC9-B3BD-E053-CA2BA8C0159A,0601,0601132,1023753,193061,Hatockie,część wsi,,51.827582221410616,23.124670706006324
24862EC4-FCCA-B3BD-E053-CA2BA8C0159A,0601,0601132,0018603,193083,Zaniewszczyzna,część wsi,,51.822933373677806,23.121694395071497
24862EC4-FD86-B3BD-E053-CA2BA8C0159A,0601,0601132,1023894,193075,Stawek,część wsi,,51.84439596194269,23.16280723329905
24862EC4-FCCF-B3BD-E053-CA2BA8C0159A,0601,0601042,0011713,154358,Za Groblą,część wsi,,51.929053729328864,23.03417902954662
24862EC4-FE4B-B3BD-E053-CA2BA8C0159A,0601,0601062,0013920,58176,Kopytów-Kolonia,wieś,71.0,51.967113262006556,23.582515323689595
24862EC4-FE1F-B3BD-E053-CA2BA8C0159A,0601,0601192,0022869,53287,Kijowiec-Kolonia,wieś,137.0,52.076291793874645,23.401317762962965
24862EC4-FEEB-B3BD-E053-CA2BA8C0159A,0601,0601082,0014769,149005,Witulin,wieś,352.0,52.10955753799456,23.079385881537505
24862EC4-FEEC-B3BD-E053-CA2BA8C0159A,0601,0601082,0014781,149007,Witulin-Kolonia,wieś,209.0,52.12765783055262,23.094414312406695
24862EC4-FEB0-B3BD-E053-CA2BA8C0159A,0601,0601142,0019761,158427,Zańków,wieś,76.0,51.80213082058494,23.52998612896309
24862EC4-FED0-B3BD-E053-CA2BA8C0159A,0601,0601072,0014479,126438,Solinki,wieś,118.0,52.14570732392968,23.09756154659197
24862EC4-FE4D-B3BD-E053-CA2BA8C0159A,0601,0601162,0020681,58504,Koroszczyn,wieś,548.0,52.07848128714456,23.53421447208634
24862EC4-FE14-B3BD-E053-CA2BA8C0159A,0601,0601113,0017035,44351,Janówka,wieś,18.0,51.93012649095558,23.310376133684425
24862EC4-FDA3-B3BD-E053-CA2BA8C0159A,0601,0601052,0013089,128909,Stare Buczyce,wieś,147.0,52.221518327800204,23.19953285313961
24862EC4-FF7C-B3BD-E053-CA2BA8C0159A,0601,0601032,1021464,150898,Wozareckie Pieńki,osada,,52.058908093791814,23.213123838402137
24862EC4-FE1A-B3BD-E053-CA2BA8C0159A,0601,0601102,0015898,111968,Przyłuki,wieś,11.0,52.06420685299594,22.779426369375138
24862EC4-FEAC-B3BD-E053-CA2BA8C0159A,0601,0601102,0016350,159512,Zaścianki,wieś,264.0,52.01675647749362,22.78501196239259
24862EC4-FF39-B3BD-E053-CA2BA8C0159A,0601,0601092,1022311,180740,Malinowszczyzna,kolonia,,51.93470701568638,23.15125491795659
24862EC4-FEA6-B3BD-E053-CA2BA8C0159A,0601,0601072,0014516,151382,Wólka Polinowska,wieś,225.0,52.168069677198496,23.135068634019365
24862EC4-FF1D-B3BD-E053-CA2BA8C0159A,0601,0601032,0010984,168258,Sycyna,kolonia,,52.024408565741,22.96501096266767
24862EC4-FF1E-B3BD-E053-CA2BA8C0159A,0601,0601042,0011860,89488,Nowiny,kolonia,,51.90224721536914,22.780436024168964
24862EC4-FF47-B3BD-E053-CA2BA8C0159A,0601,0601092,0015065,180743,Ochoża,kolonia,,51.89141110677607,23.265848173837714
24862EC4-FF48-B3BD-E053-CA2BA8C0159A,0601,0601092,0015036,43789,Janicka,kolonia,,51.868764453201095,23.331455451330466
24862EC4-FF04-B3BD-E053-CA2BA8C0159A,0601,0601032,0011050,150884,Woskrzenice Duże,wieś,483.0,52.03483011973424,23.259929491782678
24862EC4-FE9D-B3BD-E053-CA2BA8C0159A,0601,0601172,0021350,149107,Władysławów,wieś,51.0,51.82945532142073,23.44124355146309
24862EC4-FE9E-B3BD-E053-CA2BA8C0159A,0601,0601192,0023047,151203,Wólka Dobryńska,wieś,444.0,52.029333522177176,23.454257833529002
24862EC4-FF01-B3BD-E053-CA2BA8C0159A,0601,0601082,1022179,180722,Worgule,osada,,52.115298037520176,23.032584609289266
24862EC4-FF05-B3BD-E053-CA2BA8C0159A,0601,0601092,0015473,149977,Wola Dubowska,wieś,105.0,51.95796532100118,23.12798035557339
24862EC4-FF2B-B3BD-E053-CA2BA8C0159A,0601,0601032,0011067,150885,Woskrzenice Duże,kolonia,,52.04502777696466,23.279393493039827
24862EC4-FF7D-B3BD-E053-CA2BA8C0159A,0601,0601142,0019784,193115,Zaręka,kolonia,,51.79498303359804,23.51601646117597
24862EC4-FF7E-B3BD-E053-CA2BA8C0159A,0601,0601113,0017147,207152,Chmielne,część wsi,,51.99248622837705,23.410819815081382
24862EC4-FE62-B3BD-E053-CA2BA8C0159A,0601,0601162,0020860,76578,Małaszewicze Małe,wieś,476.0,52.04575122380445,23.531566823683974
24862EC4-FE83-B3BD-E053-CA2BA8C0159A,0601,0601113,0017302,152276,Wyczółki,wieś,205.0,51.95301940664915,23.350944816638904
24862EC4-FE53-B3BD-E053-CA2BA8C0159A,0601,0601172,0021143,78450,Matiaszówka,wieś,135.0,51.80592296115195,23.458836947157295
24862EC4-FE54-B3BD-E053-CA2BA8C0159A,0601,0601172,0021166,78552,Mazanówka,wieś,127.0,51.824763257902035,23.385413991105892
24862EC4-FE34-B3BD-E053-CA2BA8C0159A,0601,0601082,0014640,67596,Leśna Podlaska,wieś,905.0,52.130577048395345,23.03440361340177
24862EC4-FE31-B3BD-E053-CA2BA8C0159A,0601,0601162,0020801,66905,Lechuty Małe,wieś,73.0,52.088658667623974,23.566317864760297
24862EC4-FE32-B3BD-E053-CA2BA8C0159A,0601,0601172,0021137,67135,Leniuszki,wieś,57.0,51.87510601500998,23.513313719890775
24862EC4-FE33-B3BD-E053-CA2BA8C0159A,0601,0601042,0011699,67366,Leszczanka,wieś,65.0,51.945153117127106,23.025950824387625
24862EC4-FE81-B3BD-E053-CA2BA8C0159A,0601,0601192,0023018,89754,Nowosiółki,wieś,131.0,52.09575878955674,23.430135081304165
24862EC4-FE82-B3BD-E053-CA2BA8C0159A,0601,0601142,0019608,89757,Nowosiółki,wieś,92.0,51.78888341903988,23.60965430383108
24862EC4-FF99-B3BD-E053-CA2BA8C0159A,0601,0601092,0014901,33109,Glinkowa Droga,część wsi,,51.96260109308529,23.149485996368856
24862EC4-FD5D-B3BD-E053-CA2BA8C0159A,0601,0601092,0015013,41983,Huszcza Pierwsza,część wsi,292.0,51.86536307209451,23.322832199471705
24862EC4-FDC6-B3BD-E053-CA2BA8C0159A,0601,0601032,0010837,98881,Perkowice,wieś,185.0,52.011553164576384,23.28371304724
24862EC4-FE55-B3BD-E053-CA2BA8C0159A,0601,0601102,0016136,118147,Rudniki,wieś,82.0,52.000825410589144,22.843610310383
24862EC4-FE56-B3BD-E053-CA2BA8C0159A,0601,0601182,0021924,116825,Rowiny,wieś,128.0,51.843876010057365,23.229378614795056
24862EC4-FDB1-B3BD-E053-CA2BA8C0159A,0601,0601082,0014717,87872,Nowa Bordziłówka,wieś,189.0,52.12345171946651,23.015918869371042
24862EC4-FE77-B3BD-E053-CA2BA8C0159A,0601,0601102,0015786,61033,Kożuszki,wieś,223.0,52.10045490538049,22.696557332698823
24862EC4-FE78-B3BD-E053-CA2BA8C0159A,0601,0601092,0015326,61472,Krasówka,wieś,166.0,51.91978464321776,23.08832288004577
24862EC4-FE79-B3BD-E053-CA2BA8C0159A,0601,0601162,0020712,63470,Krzyczew,wieś,110.0,52.145247899958726,23.48712661741885
24862EC4-FE7A-B3BD-E053-CA2BA8C0159A,0601,0601102,0015800,63505,Krzymoszyce,wieś,87.0,52.01033781244505,22.63594549292527
24862EC4-FE7B-B3BD-E053-CA2BA8C0159A,0601,0601032,0010731,63507,Krzymowskie,wieś,84.0,52.05537333056221,22.884456517844995
24862EC4-FE7D-B3BD-E053-CA2BA8C0159A,0601,0601132,0018610,82758,Mokre,wieś,236.0,51.861465847669876,23.087564277457417
24862EC4-FE7E-B3BD-E053-CA2BA8C0159A,0601,0601152,0019880,83788,Motwica,wieś,269.0,51.71465905455948,23.32469369086756
24862EC4-FF13-B3BD-E053-CA2BA8C0159A,0601,0601092,0014870,26787,Dubów,wieś,429.0,51.958850139103745,23.161884281470844
24862EC4-FEC3-B3BD-E053-CA2BA8C0159A,0601,0601062,0014031,135842,Szostaki,wieś,48.0,51.829679770606724,23.602187407275473
24862EC4-FEC4-B3BD-E053-CA2BA8C0159A,0601,0601092,0015450,136497,Szymanowo,wieś,131.0,51.89059313768637,23.195800170638204
24862EC4-FE69-B3BD-E053-CA2BA8C0159A,0601,0601122,0018282,56342,Kołczyn,wieś,67.0,52.11671467658891,23.412464744719475
24862EC4-FE61-B3BD-E053-CA2BA8C0159A,0601,0601162,0020853,76577,Małaszewicze Duże,wieś,477.0,52.04706947200353,23.508372044436108
24862EC4-FE0D-B3BD-E053-CA2BA8C0159A,0601,0601102,0015680,3832,Bereza,wieś,598.0,51.93968162325874,22.783441636636674
24862EC4-FE0E-B3BD-E053-CA2BA8C0159A,0601,0601192,0022680,3845,Berezówka,wieś,149.0,52.1045198000636,23.44589757535579
24862EC4-FF12-B3BD-E053-CA2BA8C0159A,0601,0601032,0010659,41965,Husinka,wieś,97.0,52.06558095902354,23.296338760837315
24862EC4-FF14-B3BD-E053-CA2BA8C0159A,0601,0601032,0010582,25064,Dokudów Pierwszy,wieś,230.0,51.957269780940905,23.21011047426587
24862EC4-FF15-B3BD-E053-CA2BA8C0159A,0601,0601032,0010576,25063,Dokudów Drugi,wieś,273.0,51.980549220230955,23.20921949738277
24862EC4-FF16-B3BD-E053-CA2BA8C0159A,0601,0601032,0010553,20787,Czosnówka,wieś,974.0,52.0074532209104,23.23153226691258
24862EC4-FF17-B3BD-E053-CA2BA8C0159A,0601,0601032,0010530,17242,Cicibór Duży,wieś,766.0,52.07004684551511,23.11288615098508
24862EC4-FDA6-B3BD-E053-CA2BA8C0159A,0601,0601113,0017029,24857,Dobrynka,wieś,450.0,51.992644185597825,23.48091545190166
24862EC4-FE90-B3BD-E053-CA2BA8C0159A,0601,0601052,0013008,143386,Utkowiec,część wsi,,52.16930559684064,23.167260441175877
24862EC4-FF9A-B3BD-E053-CA2BA8C0159A,0601,0601092,0014893,28556,Dziczowa Droga,część wsi,,51.954567388192295,23.147497060564024
24862EC4-FEE2-B3BD-E053-CA2BA8C0159A,0601,0601162,0020630,174075,Wzgórek,część wsi,,52.150091077265586,23.434804375900764
24862EC4-FE73-B3BD-E053-CA2BA8C0159A,0601,0601192,0022711,22836,Dereczanka,wieś,92.0,52.08903161862925,23.413893308312996
24862EC4-FDA5-B3BD-E053-CA2BA8C0159A,0601,0601062,0013712,24763,Dobromyśl,wieś,113.0,51.90235413164638,23.554736395482642
24862EC4-FDA7-B3BD-E053-CA2BA8C0ML00,0601,0601192,0022734,24860,Dobryń Duży,wieś,434.0,52.05928594608864,23.451509986565274
24862EC4-FDBC-B3BD-E053-CA2BA8C0159A,0601,0601042,0011618,25464,Dołha,wieś,465.0,52.001617977287104,22.935327403402884
24862EC4-FDA4-B3BD-E053-CA2BA8C0159A,0601,0601162,0020646,24683,Dobratycze-Kolonia,wieś,98.0,52.016062958465554,23.61862019799622
24862EC4-FE9B-B3BD-E053-CA2BA8C0159A,0601,0601122,0018483,155374,Zaczopki,wieś,92.0,52.16420729374447,23.405004572733997
24862EC4-FDBB-B3BD-E053-CA2BA8C0159A,0601,0601192,0022770,24859,Dobryń-Kolonia,wieś,106.0,52.08088147202681,23.469654748778353
24862EC4-FDD9-B3BD-E053-CA2BA8C0159A,0601,0601172,0021090,22241,Dąbrowica Duża,wieś,263.0,51.91166300292476,23.399320374636282
24862EC4-FE94-B3BD-E053-CA2BA8C0159A,0601,0601062,0013801,55676,Kodeń Pierwszy,część wsi,,51.922828711998896,23.592031129380903
24862EC4-FD9D-B3BD-E053-CA2BA8C0159A,0601,0601113,0017064,89947,Nowy Dwór,wieś,65.0,51.97127754933952,23.499158200997556
24862EC4-FE97-B3BD-E053-CA2BA8C0159A,0601,0601062,0014054,154837,Zabłocie,wieś,190.0,51.84481982323461,23.55809153189061
24862EC4-FE3D-B3BD-E053-CA2BA8C0159A,0601,0601072,0014456,57323,Konstantynów,wieś,1352.0,52.20691565642848,23.094017078088143
24862EC4-FE3E-B3BD-E053-CA2BA8C0159A,0601,0601092,0015102,58170,Kopytnik,wieś,128.0,51.844170822161864,23.276328941874947
24862EC4-FDA8-B3BD-E053-CA2BA8C0159A,0601,0601162,0020907,86227,Neple,wieś,206.0,52.11312826644597,23.522578095408964
24862EC4-FDA9-B3BD-E053-CA2BA8C0159A,0601,0601082,0014670,87827,Nosów,wieś,315.0,52.16164339150316,22.998245439036058
24862EC4-FE7F-B3BD-E053-CA2BA8C0159A,0601,0601142,0019583,83687,Mościce Dolne,wieś,159.0,51.77250379966465,23.598528727006205
24862EC4-FD9E-B3BD-E053-CA2BA8C0159A,0601,0601052,0013037,90242,Nowy Pawłów,wieś,392.0,52.20523288122593,23.165444796867362
24862EC4-FE11-B3BD-E053-CA2BA8C0159A,0601,0601172,0021019,7906,Bokinka Królewska,wieś,219.0,51.8981127072584,23.36860336185388
24862EC4-FE28-B3BD-E053-CA2BA8C0159A,0601,0601102,0016120,115959,Rogoźniczka,wieś,187.0,52.0286303744323,22.899397679173386
24862EC4-FE29-B3BD-E053-CA2BA8C0159A,0601,0601132,0018550,8207,Bordziłówka,wieś,198.0,51.8453813055395,23.171293564362802
24862EC4-FDF9-B3BD-E053-CA2BA8C0159A,0601,0601162,0020758,64985,Kukuryki,wieś,53.0,52.107695097646186,23.5625994434979
24862EC4-FF4D-B3BD-E053-CA2BA8C0159A,0601,0601032,0010754,69710,Lisy,wieś,41.0,51.97865445620711,23.12907627541416
24862EC4-FE9C-B3BD-E053-CA2BA8C0159A,0601,0601042,0011937,156624,Zahajki,wieś,307.0,51.94040519199405,22.821661252394332
24862EC4-FE41-B3BD-E053-CA2BA8C0159A,0601,0601092,0015355,70061,Lubenka,wieś,203.0,51.89097481400271,23.22492656031065
24862EC4-FE6E-B3BD-E053-CA2BA8C0159A,0601,0601172,0021172,80201,Międzyleś,wieś,187.0,51.84471486451279,23.47229867417146
24862EC4-FDBD-B3BD-E053-CA2BA8C0159A,0601,0601182,0021686,25471,Dołholiska,wieś,51.0,51.719562860808196,23.222940524315725
24862EC4-FECB-B3BD-E053-CA2BA8C0159A,0601,0601172,0021203,91445,Ogrodniki,wieś,171.0,51.84821540553594,23.426466586826194
24862EC4-FDB2-B3BD-E053-CA2BA8C0159A,0601,0601113,0017207,101733,Piszczac-Kolonia,wieś,328.0,51.96303255452537,23.380186516061585
24862EC4-FDB3-B3BD-E053-CA2BA8C0159A,0601,0601113,0017070,93725,Ortel Królewski Pierwszy,wieś,310.0,51.967511962907224,23.283825174727184
24862EC4-FECA-B3BD-E053-CA2BA8C0159A,0601,0601162,0021002,164087,Żuki,wieś,16.0,52.01080184182258,23.658055932710273
24862EC4-FE95-B3BD-E053-CA2BA8C0159A,0601,0601062,0013824,174430,Kot,część wsi,,51.88041256703188,23.622592819197106
24862EC4-FE96-B3BD-E053-CA2BA8C0159A,0601,0601062,0013847,83186,Morgi,część wsi,,51.88113125125059,23.55821056315618
24862EC4-FDD1-B3BD-E053-CA2BA8C0159A,0601,0601092,0015131,25731,Domaczew,część wsi,,51.84946223307275,23.262665476261933
24862EC4-FE8E-B3BD-E053-CA2BA8C0159A,0601,0601052,1021748,154934,Zaborek,część wsi,,52.17722249334991,23.20762241028673
24862EC4-FE8F-B3BD-E053-CA2BA8C0159A,0601,0601052,1021725,108992,Posiołek,część wsi,,52.167206056982145,23.208209804495112
24862EC4-FE6F-B3BD-E053-CA2BA8C0159A,0601,0601192,0022993,88988,Mokrany Nowe,wieś,60.0,52.126790142338294,23.46180047000974
24862EC4-FE70-B3BD-E053-CA2BA8C0159A,0601,0601192,0023024,129217,Mokrany Stare,wieś,82.0,52.11566092080224,23.481621385160842
24862EC4-FDA1-B3BD-E053-CA2BA8C0159A,0601,0601152,0020066,126891,Sosnówka,wieś,383.0,51.757105171886344,23.35041463818658
