LOKALNYID,TERYT,IDTERC,IDSIMC,IDPRNG,NAZWA,RODZAJ,LICZ_MIESZ,lat,lon
13BEFDC3-0F67-D8AD-E053-CC2BA8C01E1E,0401,0401042,0857597,124746,Słońsk Dolny,wieś,256.0,52.90194880749066,18.780357839320295
13BEFDC3-0F68-D8AD-E053-CC2BA8C01E1E,0401,0401062,1027449,41021,Helenowo,część wsi,,52.775040473174826,18.759086328764504
13BEFDC3-0F69-D8AD-E053-CC2BA8C01E1E,0401,0401082,0870818,10528,Brudnowo,wieś,249.0,52.81037580828589,18.813933682160638
13BEFDC3-0F6A-D8AD-E053-CC2BA8C01E1E,0401,0401082,0871143,186485,Wólne Górne,część wsi,,52.793908447058776,18.906947303771524
13BEFDC3-0F6B-D8AD-E053-CC2BA8C01E1E,0401,0401082,0870959,112203,Przypust Górny,część wsi,,52.81085246093987,18.89130529264745
13BEFDC3-0FA5-D8AD-E053-CC2BA8C01E1E,0401,0401052,0858438,153463,Wysocinek,wieś,71.0,52.66859685705981,18.809330091380914
13BEFDC3-0FA6-D8AD-E053-CC2BA8C01E1E,0401,0401052,0858332,125018,Słupy Duże,wieś,137.0,52.70783110441046,18.74363733128753
13BEFDC3-0FA7-D8AD-E053-CC2BA8C01E1E,0401,0401052,0858349,125019,Słupy Małe,wieś,117.0,52.71781487609376,18.760527015035414
13BEFDC3-0F2F-D8AD-E053-CC2BA8C01E1E,0401,0401021,0985622,168216,Kępa Dzikowska,część miasta,,52.898393112868376,18.81251951465321
13BEFDC3-0F2C-D8AD-E053-CC2BA8C01E1E,0401,0401042,0857663,152557,Wygoda,wieś,67.0,52.88327588720011,18.7368081025216
13BEFDC3-0F2D-D8AD-E053-CC2BA8C01E1E,0401,0401042,0857640,150798,Wołuszewo,wieś,727.0,52.89859091057839,18.753530568268825
13BEFDC3-0F2E-D8AD-E053-CC2BA8C01E1E,0401,0401042,0857545,117231,Rożno-Parcele,wieś,1199.0,52.88532595804004,18.65854282717243
13BEFDC3-0F30-D8AD-E053-CC2BA8C01E1E,0401,0401072,0867874,105932,Podole,wieś,470.0,52.86357012646038,18.82963662532937
13BEFDC3-0F6F-D8AD-E053-CC2BA8C01E1E,0401,0401092,0872208,122761,Siniarzewo,wieś,301.0,52.73146096075267,18.68926372261138
13BEFDC3-0F6C-D8AD-E053-CC2BA8C01E1E,0401,0401082,0870853,57314,Konstantynowo,wieś,137.0,52.82305650969976,18.812170200524235
13BEFDC3-0F6D-D8AD-E053-CC2BA8C01E1E,0401,0401082,0870942,112202,Przypust Dolny,część wsi,,52.81737584545425,18.909249146804846
13BEFDC3-0F6E-D8AD-E053-CC2BA8C01E1E,0401,0401092,0872220,142635,Ujma Duża,wieś,140.0,52.7254315329348,18.721706318090998
13BEFDC3-0F33-D8AD-E053-CC2BA8C01E1E,0401,0401092,0872148,67254,Lepsze,wieś,84.0,52.74031317609592,18.671663804194196
13BEFDC3-0FA8-D8AD-E053-CC2BA8C01E1E,0401,0401042,0857396,95741,Ośno Drugie,wieś,203.0,52.84779810499999,18.70066084877535
13BEFDC3-0FA9-D8AD-E053-CC2BA8C01E1E,0401,0401042,0857380,95740,Ośno,wieś,456.0,52.85417475493264,18.70949975281654
13BEFDC3-0FAA-D8AD-E053-CC2BA8C01E1E,0401,0401011,0985409,40662,Halinowo,część miasta,,52.860328566598994,18.708980369407403
13BEFDC3-0F31-D8AD-E053-CC2BA8C01E1E,0401,0401072,0867911,141826,Turzno,wieś,241.0,52.84218648069888,18.77205526053292
13BEFDC3-0F32-D8AD-E053-CC2BA8C01E1E,0401,0401031,0986018,32351,Gęsiniec,część miasta,,52.828387515922365,18.90034539602959
13BEFDC3-0F34-D8AD-E053-CC2BA8C01E1E,0401,0401062,0863758,118996,Rybno,wieś,36.0,52.79577509352952,18.681447571562835
13BEFDC3-0F73-D8AD-E053-CC2BA8C01E1E,0401,0401052,1027395,178853,Góry,część wsi,,52.68214369183085,18.80209859450356
13BEFDC3-0F70-D8AD-E053-CC2BA8C01E1E,0401,0401092,0872125,7518,Kolonia Bodzanowska,wieś,219.0,52.71752551351341,18.66489755205207
13BEFDC3-0F71-D8AD-E053-CC2BA8C01E1E,0401,0401052,0858444,161127,Zieleniec,wieś,42.0,52.68239060169647,18.85291464860672
13BEFDC3-0F72-D8AD-E053-CC2BA8C01E1E,0401,0401052,0858272,16610,Chrustowo,część wsi,,52.67582934274081,18.79492921234416
13BEFDC3-0FAE-D8AD-E053-CC2BA8C01E1E,0401,0401052,1027410,48785,Kałęczyn,część wsi,,52.65460015884397,18.825379651132042
13BEFDC3-0FAB-D8AD-E053-CC2BA8C01E1E,0401,0401052,0858250,1587,Bachórka,część wsi,,52.64652563227458,18.85010257029804
13BEFDC3-0FAC-D8AD-E053-CC2BA8C01E1E,0401,0401052,0858214,48487,Kalinowiec,wieś,109.0,52.73653163034399,18.825505205972224
13BEFDC3-0FAD-D8AD-E053-CC2BA8C01E1E,0401,0401052,0858384,48513,Kolonia Kalinowska,część wsi,,52.74018769553057,18.809406541237966
13BEFDC3-0EFB-D8AD-E053-CC2BA8C01E1E,0401,0401082,0870830,138238,Kolonia Święte,wieś,94.0,52.78170755613102,18.79339779546155
13BEFDC3-0EF8-D8AD-E053-CC2BA8C01E1E,0401,0401082,0870882,87236,Niszczewy,wieś,68.0,52.787160718805865,18.82032474055127
13BEFDC3-0EF9-D8AD-E053-CC2BA8C01E1E,0401,0401082,0870801,3906,Bertowo,wieś,102.0,52.7905735423033,18.896681464187154
13BEFDC3-0EFA-D8AD-E053-CC2BA8C01E1E,0401,0401082,0871137,186482,Wólne Dolne,część wsi,,52.79606552184556,18.92058848605195
13BEFDC3-0EFC-D8AD-E053-CC2BA8C01E1E,0401,0401082,0870847,67937,Lewin,wieś,15.0,52.789034360036375,18.803578977818248
13BEFDC3-0F35-D8AD-E053-CC2BA8C01E1E,0401,0401062,0863830,93193,Opalanka,wieś,77.0,52.77057348962719,18.72034321802833
13BEFDC3-0F77-D8AD-E053-CC2BA8C01E1E,0401,0401062,0863882,131689,Straszewo,wieś,359.0,52.793954238034935,18.643800211785308
13BEFDC3-0F36-D8AD-E053-CC2BA8C01E1E,0401,0401092,0872266,121535,Sędzinek,wieś,79.0,52.73294198684122,18.596186497914005
13BEFDC3-0F37-D8AD-E053-CC2BA8C01E1E,0401,0401042,0857373,95059,Ostrowąs,wieś,395.0,52.82461709835079,18.696435987577793
13BEFDC3-0F74-D8AD-E053-CC2BA8C01E1E,0401,0401042,0857367,93349,Opoki,wieś,234.0,52.83311138599141,18.58418261939069
13BEFDC3-0F75-D8AD-E053-CC2BA8C01E1E,0401,0401042,0857611,125038,Służewo-Pole,kolonia,125.0,52.87755698792663,18.653967020741877
13BEFDC3-0F76-D8AD-E053-CC2BA8C01E1E,0401,0401042,0857249,95786,Otłoczynek,osada,13.0,52.89874260090487,18.702613683572952
2c8d2521-c2ef-11e8-9361-f01faf546c5e,0401,0401082,0870913,162317,Zosin,wieś,75.0,52.78270414917591,18.823410506208756
13BEFDC3-0FAF-D8AD-E053-CC2BA8C01E1E,0401,0401052,0858355,130156,Żabieniec,wieś,109.0,52.71407247056785,18.798850768492265
13BEFDC3-0FB0-D8AD-E053-CC2BA8C01E1E,0401,0401052,0858361,139825,Tomaszewo,wieś,71.0,52.735576814971445,18.805103118657915
2c862040-c2ef-11e8-a9ae-f01faf546c5e,0401,0401082,0870907,157142,Zakrzewo,wieś,29.0,52.77801023428107,18.814414273562143
13BEFDC3-0F00-D8AD-E053-CC2BA8C01E1E,0401,0401082,0871025,127981,Stannowo,część wsi,,52.78419706063454,18.8407550869526
13BEFDC3-0EFD-D8AD-E053-CC2BA8C01E1E,0401,0401082,0870971,122962,Siutkowo,wieś,137.0,52.77598721681619,18.879665455241117
13BEFDC3-0EFE-D8AD-E053-CC2BA8C01E1E,0401,0401082,0870988,130149,Stary Zbrachlin,wieś,54.0,52.782980046950314,18.851321248186743
13BEFDC3-0EFF-D8AD-E053-CC2BA8C01E1E,0401,0401082,0871019,18068,Ciupkowo,część wsi,,52.77378192769489,18.83870295728122
13BEFDC3-0F7A-D8AD-E053-CC2BA8C01E1E,0401,0401082,0870965,122507,Sierzchowo,wieś,254.0,52.82827638296086,18.846388937544123
13BEFDC3-0F38-D8AD-E053-CC2BA8C01E1E,0401,0401042,0857686,160695,Zduny,wieś,114.0,52.82045600234945,18.553001563967058
13BEFDC3-0F39-D8AD-E053-CC2BA8C01E1E,0401,0401072,0867928,141843,Turzynek,wieś,194.0,52.82539865492621,18.780142941499324
13BEFDC3-0F3A-D8AD-E053-CC2BA8C01E1E,0401,0401072,0867851,22552,Dąbrówka,wieś,96.0,52.83249299366607,18.812416621194718
13BEFDC3-0F78-D8AD-E053-CC2BA8C01E1E,0401,0401042,0857551,118237,Rudunki,wieś,387.0,52.86769067604198,18.67642949069374
13BEFDC3-0F79-D8AD-E053-CC2BA8C01E1E,0401,0401011,0985384,402,Aleksandrów Kujawski,miasto,11119.0,52.87818011414784,18.698617764610237
13BEFDC3-0F7B-D8AD-E053-CC2BA8C01E1E,0401,0401082,0870824,47302,Józefowo,wieś,158.0,52.81453055235157,18.851084544366906
13BEFDC3-0F3C-D8AD-E053-CC2BA8C01E1E,0401,0401031,0986047,186470,Rybaki,część miasta,,52.8272092141995,18.905229281364633
2c8d2522-c2ef-11e8-841b-f01faf546c5e,0401,0401092,1027461,248207,Góry Gęsińskie,część wsi,,52.77137623743527,18.676261787106675
13BEFDC3-0F01-D8AD-E053-CC2BA8C01E1E,0401,0401082,0871150,160415,Zbrachlin,wieś,250.0,52.78923498460668,18.865154343846925
13BEFDC3-0F02-D8AD-E053-CC2BA8C01E1E,0401,0401082,0870920,90472,Nowy Zbrachlin,wieś,404.0,52.78963706027707,18.882408129934998
13BEFDC3-0F03-D8AD-E053-CC2BA8C01E1E,0401,0401082,0871077,147517,Wiktoryn,wieś,140.0,52.8010854941009,18.81271626185508
13BEFDC3-0F3B-D8AD-E053-CC2BA8C01E1E,0401,0401072,0867868,87010,Niestuszewo,wieś,92.0,52.84524452609852,18.85522200032647
13BEFDC3-0F3D-D8AD-E053-CC2BA8C01E1E,0401,0401092,0872154,79314,Michałowo,wieś,163.0,52.736103825541186,18.520244666575827
13BEFDC3-0F7F-D8AD-E053-CC2BA8C01E1E,0401,0401042,0857290,37100,Grabie,wieś,240.0,52.85761194599112,18.571737976937353
13BEFDC3-0F7C-D8AD-E053-CC2BA8C01E1E,0401,0401062,0863764,46738,Jeziorno,wieś,103.0,52.798868029553695,18.756970271229253
13BEFDC3-0F7D-D8AD-E053-CC2BA8C01E1E,0401,0401062,0863876,127440,Spoczynek,wieś,187.0,52.78565129571574,18.75156657904808
13BEFDC3-0F7E-D8AD-E053-CC2BA8C01E1E,0401,0401031,0986030,186467,Przytułek,część miasta,,52.838342806686754,18.902390987695153
13BEFDC3-0F80-D8AD-E053-CC2BA8C01E1E,0401,0401042,0857539,69412,Lisianki,kolonia,,52.80220251978047,18.61721585633823
13BEFDC3-0F07-D8AD-E053-CC2BA8C01E1E,0401,0401052,0858183,5468,Biele,wieś,114.0,52.705037649744455,18.841522855084808
13BEFDC3-0F04-D8AD-E053-CC2BA8C01E1E,0401,0401082,0871048,1006,Ariany,wieś,175.0,52.801141432478275,18.84699761095691
13BEFDC3-0F05-D8AD-E053-CC2BA8C01E1E,0401,0401082,0871054,51693,Kaźmierzyn,wieś,242.0,52.80461704118458,18.860585686615217
13BEFDC3-0F06-D8AD-E053-CC2BA8C01E1E,0401,0401052,0858220,50053,Kaniewo,wieś,112.0,52.74963992471871,18.76422865160951
13BEFDC3-0F08-D8AD-E053-CC2BA8C01E1E,0401,0401052,1027426,59562,Kościuszkowo,część wsi,,52.75028150335873,18.787136881776316
13BEFDC3-0F09-D8AD-E053-CC2BA8C01E1E,0401,0401052,0858243,62940,Kryńsk,wieś,173.0,52.649791536949024,18.847746871817684
13BEFDC3-0F84-D8AD-E053-CC2BA8C01E1E,0401,0401062,0863824,81532,Młynek,wieś,86.0,52.80181153988607,18.725294526012473
13BEFDC3-0F3E-D8AD-E053-CC2BA8C01E1E,0401,0401092,0872119,54874,Kobielice,wieś,83.0,52.720306153915594,18.523433545754475
13BEFDC3-0F3F-D8AD-E053-CC2BA8C01E1E,0401,0401042,0857634,148079,Wilkostowo,wieś,204.0,52.81230381243606,18.595310074447372
13BEFDC3-0F81-D8AD-E053-CC2BA8C01E1E,0401,0401042,0857522,22974,Dębicze,kolonia,,52.813645711935486,18.617752497080122
13BEFDC3-0F82-D8AD-E053-CC2BA8C01E1E,0401,0401042,0857516,111403,Przybranówek,wieś,125.0,52.811041393027324,18.62791530477117
13BEFDC3-0F83-D8AD-E053-CC2BA8C01E1E,0401,0401042,0857462,101302,Pinino,wieś,28.0,52.82269327552897,18.614098722099047
13BEFDC3-0F88-D8AD-E053-CC2BA8C0ML00,0401,0401031,0986024,87027,Nieszawka,część miasta,,52.83242143367417,18.878777318879262
13BEFDC3-0F0A-D8AD-E053-CC2BA8C01E1E,0401,0401092,0872131,64767,Kuczkowo,wieś,139.0,52.73750032922536,18.614287020516166
13BEFDC3-0F0B-D8AD-E053-CC2BA8C01E1E,0401,0401052,0858390,140101,Toporzyszczewo,wieś,170.0,52.7174379392763,18.82721540795495
13BEFDC3-0F40-D8AD-E053-CC2BA8C01E1E,0401,0401042,0857350,93333,Opoczki,wieś,152.0,52.83938599646979,18.552775047504884
13BEFDC3-0F41-D8AD-E053-CC2BA8C01E1E,0401,0401082,0871031,143595,Waganiec,wieś,749.0,52.81072206781317,18.874260689707114
13BEFDC3-0F85-D8AD-E053-CC2BA8C01E1E,0401,0401062,0863735,11511,Brzeźno,wieś,159.0,52.82277356888557,18.741920092951066
13BEFDC3-0F86-D8AD-E053-CC2BA8C01E1E,0401,0401052,0858378,31984,Gawrony,część wsi,,52.72880642547193,18.808878831797543
13BEFDC3-0F87-D8AD-E053-CC2BA8C01E1E,0401,0401021,0985645,173921,Wola,część miasta,,52.86643783743771,18.792747686131044
13BEFDC3-0F89-D8AD-E053-CC2BA8C01E1E,0401,0401021,0985639,186458,Słońsk Górny,część miasta,,52.88542557979322,18.823159634418275
13BEFDC3-0F8A-D8AD-E053-CC2BA8C01E1E,0401,0401021,0985616,17276,Ciechocinek,miasto,9574.0,52.88448769796452,18.799348447628407
13BEFDC3-0F44-D8AD-E053-CC2BA8C01E1E,0401,0401062,0863847,94802,Ossówka,wieś,76.0,52.81558051117781,18.788338693900304
13BEFDC3-0F0C-D8AD-E053-CC2BA8C01E1E,0401,0401042,0857628,130648,Stawki,wieś,792.0,52.86229972755276,18.729085632121166
13BEFDC3-0F0D-D8AD-E053-CC2BA8C01E1E,0401,0401042,0857580,124596,Słomkowo,wieś,270.0,52.8394360156367,18.737395226841112
13BEFDC3-0F0E-D8AD-E053-CC2BA8C01E1E,0401,0401042,0857309,57269,Konradowo,wieś,203.0,52.853821116065156,18.7338130182961
13BEFDC3-0F42-D8AD-E053-CC2BA8C01E1E,0401,0401082,0870936,112201,Przypust,wieś,66.0,52.814032830075575,18.90098696653694
13BEFDC3-0F43-D8AD-E053-CC2BA8C01E1E,0401,0401082,0871114,101974,Plebanka,wieś,263.0,52.80105812434763,18.884350656753774
13BEFDC3-0F45-D8AD-E053-CC2BA8C01E1E,0401,0401062,0863818,62785,Kruszynek-Kolonia,wieś,58.0,52.80694980756056,18.787160275726905
13BEFDC3-0F46-D8AD-E053-CC2BA8C01E1E,0401,0401062,0863801,62783,Kruszynek,wieś,115.0,52.81256571242392,18.764572849701395
13BEFDC3-0F8B-D8AD-E053-CC2BA8C01E1E,0401,0401072,0867880,106568,Podzamcze,wieś,108.0,52.849984239216234,18.83333058763861
13BEFDC3-0F8C-D8AD-E053-CC2BA8C01E1E,0401,0401042,0857456,102947,Poczałkowo,wieś,91.0,52.8220884427318,18.636474620823144
13BEFDC3-0F0F-D8AD-E053-CC2BA8C01E1E,0401,0401052,0858289,66092,Kwiatkowo,wieś,105.0,52.69343420343852,18.84153896970329
13BEFDC3-0F10-D8AD-E053-CC2BA8C01E1E,0401,0401052,0858295,73482,Łowiczek,wieś,199.0,52.744661756801015,18.78364319999988
13BEFDC3-0F11-D8AD-E053-CC2BA8C01E1E,0401,0401052,0858266,64865,Kujawka,wieś,180.0,52.685741036945146,18.782918730872552
13BEFDC3-0F14-D8AD-E053-CC2BA8C01E1E,0401,0401062,0863741,16518,Chromowola,wieś,174.0,52.8025516175172,18.6981266529174
13BEFDC3-0F47-D8AD-E053-CC2BA8C01E1E,0401,0401092,0872190,121534,Sędzin-Kolonia,kolonia,217.0,52.733391541316784,18.556031424499285
13BEFDC3-0F48-D8AD-E053-CC2BA8C01E1E,0401,0401092,0872183,121533,Sędzin,wieś,234.0,52.73754309479506,18.576640174715735
13BEFDC3-0F8D-D8AD-E053-CC2BA8C01E1E,0401,0401042,0857500,111401,Kolonia Przybranowska,wieś,,52.82874635995927,18.65292790914889
13BEFDC3-0F8E-D8AD-E053-CC2BA8C01E1E,0401,0401092,1027478,157180,Kolonia Zakrzewska,część wsi,,52.75597104931583,18.634795634528487
13BEFDC3-0F8F-D8AD-E053-CC2BA8C01E1E,0401,0401082,0870876,79211,Michalinek,kolonia,64.0,52.79160572084198,18.83041527519544
13BEFDC3-0F12-D8AD-E053-CC2BA8C01E1E,0401,0401092,0872243,157141,Zakrzewo,wieś,859.0,52.75894225145483,18.62712482287558
13BEFDC3-0F13-D8AD-E053-CC2BA8C01E1E,0401,0401062,0863936,160193,Zazdromin,wieś,47.0,52.81401379167983,18.673086625073818
13BEFDC3-0F4C-D8AD-E053-CC2BA8C01E1E,0401,0401042,1027372,186474,Księżyzna,część wsi,,52.85037926162655,18.639687934898333
13BEFDC3-0F49-D8AD-E053-CC2BA8C01E1E,0401,0401092,0872250,158951,Zarębowo,wieś,170.0,52.747146687053146,18.58966233782922
13BEFDC3-0F4A-D8AD-E053-CC2BA8C01E1E,0401,0401042,0857491,111400,Przybranowo,wieś,524.0,52.8358509054708,18.64600179417735
13BEFDC3-0F4B-D8AD-E053-CC2BA8C01E1E,0401,0401042,0857657,151087,Wólka,wieś,178.0,52.84257604248376,18.658961187651176
13BEFDC3-0F4D-D8AD-E053-CC2BA8C01E1E,0401,0401042,0857440,51645,Kazin,wieś,,52.84611341212585,18.68274781912367
13BEFDC3-0F18-D8AD-E053-CC2BA8C01E1E,0401,0401042,0857404,95782,Otłoczyn,wieś,393.0,52.91317521238884,18.717762561810382
13BEFDC3-0F90-D8AD-E053-CC2BA8C01E1E,0401,0401052,0858160,3400,Bądkowo,wieś,964.0,52.70533469537402,18.788526582342794
13BEFDC3-0F91-D8AD-E053-CC2BA8C01E1E,0401,0401052,0858177,3414,Bądkówek,wieś,104.0,52.700712003876966,18.778900862935917
13BEFDC3-0F15-D8AD-E053-CC2BA8C01E1E,0401,0401042,0857692,161014,Zgoda,wieś,164.0,52.85668756872504,18.74913455072681
13BEFDC3-0F16-D8AD-E053-CC2BA8C01E1E,0401,0401042,0857700,157401,Zalesie,część wsi,,52.85392272831564,18.756102353786844
13BEFDC3-0F17-D8AD-E053-CC2BA8C01E1E,0401,0401042,0857315,64754,Kuczek,wieś,130.0,52.86130878931886,18.769523781832138
13BEFDC3-0F4E-D8AD-E053-CC2BA8C01E1E,0401,0401042,0857574,128468,Stara Wieś,wieś,54.0,52.856200780785,18.6779833909262
13BEFDC3-0F4F-D8AD-E053-CC2BA8C01E1E,0401,0401082,0870994,135939,Szpitalka,wieś,59.0,52.805999713396126,18.901721760803753
13BEFDC3-0F1B-D8AD-E053-CC2BA8C01E1E,0401,0401052,1027432,77957,Marszałkowo,część wsi,,52.76688834013783,18.80481498135976
13BEFDC3-0F50-D8AD-E053-CC2BA8C01E1E,0401,0401082,0871108,149801,Wójtówka,wieś,62.0,52.800641998429064,18.90211655897303
13BEFDC3-0F51-D8AD-E053-CC2BA8C01E1E,0401,0401082,0871090,14241,Byzie,wieś,12.0,52.785430294687316,18.927721909617034
13BEFDC3-0F52-D8AD-E053-CC2BA8C01E1E,0401,0401082,0871083,149283,Włoszyca,wieś,135.0,52.78312976421263,18.910445766917565
13BEFDC3-0F92-D8AD-E053-CC2BA8C01E1E,0401,0401031,0985987,87023,Nieszawa,miasto,1768.0,52.83737432260658,18.886684089715132
13BEFDC3-0F93-D8AD-E053-CC2BA8C01E1E,0401,0401072,0867905,121672,Siarzewo,wieś,247.0,52.86473119488594,18.852525879535097
13BEFDC3-0F19-D8AD-E053-CC2BA8C01E1E,0401,0401052,0858237,73484,Kolonia Łowiczek,wieś,220.0,52.730986858534095,18.77256232976285
13BEFDC3-0F1A-D8AD-E053-CC2BA8C01E1E,0401,0401052,0858303,73603,Łówkowice,wieś,250.0,52.75643957716117,18.814965540514603
13BEFDC3-0F96-D8AD-E053-CC2BA8C01E1E,0401,0401082,0870860,79199,Michalin,wieś,63.0,52.79553574366701,18.820570896121758
13BEFDC3-0F53-D8AD-E053-CC2BA8C01E1E,0401,0401062,0863860,116403,Romanowo,wieś,100.0,52.79836699108726,18.78139487720761
13BEFDC3-0F54-D8AD-E053-CC2BA8C01E1E,0401,0401062,0863907,138206,Święte,wieś,83.0,52.783375463927214,18.77289976712571
13BEFDC3-0F55-D8AD-E053-CC2BA8C01E1E,0401,0401062,0863899,131695,Kolonia Straszewska,wieś,281.0,52.800066876482155,18.656939101310794
13BEFDC3-0F94-D8AD-E053-CC2BA8C01E1E,0401,0401042,0857479,173922,Poczałkowo,kolonia,96.0,52.816229780089316,18.656301459693175
13BEFDC3-0F95-D8AD-E053-CC2BA8C01E1E,0401,0401042,0857485,104311,Podgaj,wieś,186.0,52.84256257357982,18.61343998686472
13BEFDC3-0F1F-D8AD-E053-CC2BA8C01E1E,0401,0401092,1027455,225,Adolfin,część wsi,,52.7138445662287,18.671296615948297
13BEFDC3-0F1C-D8AD-E053-CC2BA8C01E1E,0401,0401092,0872237,149906,Wola Bachorna,wieś,97.0,52.7368656770411,18.65165699422988
13BEFDC3-0F1D-D8AD-E053-CC2BA8C01E1E,0401,0401092,0872088,1565,Bachorza,wieś,89.0,52.73632658949253,18.634974194550217
13BEFDC3-0F1E-D8AD-E053-CC2BA8C01E1E,0401,0401092,0872214,122774,Sinki,wieś,96.0,52.74711257408433,18.703364408198137
13BEFDC3-0F59-D8AD-E053-CC2BA8C01E1E,0401,0401042,1027366,186473,Domanowo,część wsi,,52.876113476831556,18.70688035122557
13BEFDC3-0F56-D8AD-E053-CC2BA8C01E1E,0401,0401062,0863913,158847,Zapustek,wieś,112.0,52.78416850069749,18.686688965843846
13BEFDC3-0F57-D8AD-E053-CC2BA8C01E1E,0401,0401062,0863920,148239,Wincentowo,wieś,29.0,52.776106543400395,18.685285022087342
13BEFDC3-0F58-D8AD-E053-CC2BA8C01E1E,0401,0401011,0985438,173920,Świstucha,część miasta,,52.8744518289989,18.70300646360279
13BEFDC3-0F5A-D8AD-E053-CC2BA8C01E1E,0401,0401042,0857321,71644,Łazieniec,wieś,735.0,52.87237966335799,18.717074702765217
13BEFDC3-0F9A-D8AD-E053-CC2BA8C01E1E,0401,0401052,0858409,140102,Toporzyszczewo Stare,wieś,137.0,52.727477837935055,18.833665262578346
13BEFDC3-0F97-D8AD-E053-CC2BA8C01E1E,0401,0401052,0858190,44466,Jaranowo,wieś,113.0,52.69406865925492,18.814168976783964
13BEFDC3-0F98-D8AD-E053-CC2BA8C01E1E,0401,0401052,0858208,44467,Jaranowo Duże,wieś,192.0,52.687722238826176,18.83383780639665
13BEFDC3-0F99-D8AD-E053-CC2BA8C01E1E,0401,0401052,1027403,47303,Józefowo,część wsi,,52.76729196510938,18.79358750432809
13BEFDC3-0F5B-D8AD-E053-CC2BA8C01E1E,0401,0401042,0857568,88234,Nowa Wieś,wieś,80.0,52.86402296389996,18.66652255880535
13BEFDC3-0F20-D8AD-E053-CC2BA8C01E1E,0401,0401042,0857344,91231,Odolion,wieś,857.0,52.86869169551855,18.743718130374745
13BEFDC3-0F21-D8AD-E053-CC2BA8C01E1E,0401,0401042,0857670,152556,Wygoda,osada,,52.87386804988364,18.751539850998288
13BEFDC3-0F22-D8AD-E053-CC2BA8C01E1E,0401,0401042,0857338,89867,Nowy Ciechocinek,wieś,285.0,52.876328752455905,18.760011071938813
13BEFDC3-0F9B-D8AD-E053-CC2BA8C01E1E,0401,0401052,0858326,122775,Sinki,wieś,63.0,52.73692741147114,18.73809287001138
13BEFDC3-0F5C-D8AD-E053-CC2BA8C01E1E,0401,0401082,0870899,44160,Janowo,wieś,30.0,52.77269176363027,18.813551086545413
13BEFDC3-0F5D-D8AD-E053-CC2BA8C01E1E,0401,0401082,0871120,151509,Wólne,wieś,99.0,52.79522873851536,18.915296728392807
13BEFDC3-0F5E-D8AD-E053-CC2BA8C01E1E,0401,0401082,0871002,137039,Śliwkowo,wieś,172.0,52.778087784879936,18.835277712006498
13BEFDC3-0F9C-D8AD-E053-CC2BA8C01E1E,0401,0401072,0867897,113665,Raciążek,wieś,1559.0,52.850553997278546,18.803576805654057
13BEFDC3-0F9D-D8AD-E053-CC2BA8C01E1E,0401,0401042,0857605,125036,Służewo,wieś,1101.0,52.85890069280739,18.652511186507933
13BEFDC3-0FA1-D8AD-E053-CC2BA8C01E1E,0401,0401042,0857284,35346,Goszczewo,wieś,130.0,52.85877230987682,18.61656077951035
13BEFDC3-0F9E-D8AD-E053-CC2BA8C01E1E,0401,0401042,0857261,16616,Chrusty,kolonia,35.0,52.86944247694446,18.613481792873305
13BEFDC3-0F9F-D8AD-E053-CC2BA8C01E1E,0401,0401042,0857278,129328,Stare Rożno,wieś,60.0,52.873386965155674,18.628085108080867
13BEFDC3-0FA0-D8AD-E053-CC2BA8C01E1E,0401,0401042,0857255,10338,Broniszewo,wieś,132.0,52.85018529443272,18.63255619152595
13BEFDC3-0F23-D8AD-E053-CC2BA8C01E1E,0401,0401052,0858154,824,Antoniewo,wieś,44.0,52.656703707231195,18.824276288134158
13BEFDC3-0F24-D8AD-E053-CC2BA8C01E1E,0401,0401052,0858310,92893,Olszynka,wieś,36.0,52.72079405294903,18.776548453323148
13BEFDC3-0F28-D8AD-E053-CC2BA8C01E1E,0401,0401092,0872102,35243,Gosławice,wieś,30.0,52.755256581466185,18.684934847591
13BEFDC3-0F25-D8AD-E053-CC2BA8C01E1E,0401,0401031,0986053,162905,Żabieniec,część miasta,,52.84093205444298,18.891070138420243
13BEFDC3-0F26-D8AD-E053-CC2BA8C01E1E,0401,0401031,0985993,186463,Bieńków,część miasta,,52.838084343682816,18.89923949117314
13BEFDC3-0F27-D8AD-E053-CC2BA8C0ML00,0401,0401031,0986001,27852,Dymiec,część miasta,,52.84726753140007,18.882555025760553
13BEFDC3-0F5F-D8AD-E053-CC2BA8C01E1E,0401,0401062,0863942,163946,Żołnowo,wieś,98.0,52.76829925016743,18.76842428582222
13BEFDC3-0F29-D8AD-E053-CC2BA8C01E1E,0401,0401092,0872094,32346,Gęsin,wieś,160.0,52.75924383549727,18.665301214220783
13BEFDC3-0F60-D8AD-E053-CC2BA8C01E1E,0401,0401062,0863770,48266,Kajetanowo,wieś,89.0,52.750870875774204,18.741351951213332
13BEFDC3-0F61-D8AD-E053-CC2BA8C01E1E,0401,0401062,0863853,107860,Pomiany,wieś,90.0,52.764086798241046,18.69970060469995
13BEFDC3-0FA2-D8AD-E053-CC2BA8C01E1E,0401,0401042,0857433,101971,Plebanka,wieś,232.0,52.83632516900947,18.704331796916495
13BEFDC3-0FA3-D8AD-E053-CC2BA8C01E1E,0401,0401052,0858415,151064,Wójtówka,wieś,121.0,52.76407740460151,18.795856852656033
13BEFDC3-0FA4-D8AD-E053-CC2BA8C01E1E,0401,0401052,0858421,153461,Wysocin,wieś,164.0,52.6719463448159,18.827684830947014
13BEFDC3-0F63-D8AD-E053-CC2BA8C01E1E,0401,0401092,0872177,121319,Kolonia Serocka,wieś,36.0,52.7777749483049,18.668645699293208
13BEFDC3-0F2A-D8AD-E053-CC2BA8C01E1E,0401,0401092,0872160,121321,Seroczki,wieś,182.0,52.77531777387836,18.64432655670615
13BEFDC3-0F2B-D8AD-E053-CC2BA8C01E1E,0401,0401062,0863793,56956,Koneck,wieś,624.0,52.78251443653736,18.721711929476648
13BEFDC3-0F62-D8AD-E053-CC2BA8C01E1E,0401,0401062,0863787,49018,Kamieniec,wieś,91.0,52.76140367525078,18.729991111928104
13BEFDC3-0F64-D8AD-E053-CC2BA8C01E1E,0401,0401092,1027484,101973,Plebanka,część wsi,,52.731515582574715,18.507559371080276
2EF090D4-4A8E-0A22-E053-CC2BA8C0A0E1,0402,0402022,0840622,125438,Smolniki,kolonia,38.0,53.27196893541603,19.25822500275128
13BEFDC3-0F65-D8AD-E053-CC2BA8C01E1E,0401,0401042,0857232,4545,Białe Błota,wieś,82.0,52.8944816657248,18.710539011106153
2EF090D4-4BC1-0A22-E053-CC2BA8C0A0E1,0402,0402053,1062842,51094,Karw,wieś,91.0,53.165370682521264,19.64612533018385
2EF090D4-4BC2-0A22-E053-CC2BA8C0A0E1,0402,0402022,0840728,51510,Kawki,wieś,365.0,53.247381376995854,19.190469314842368
2EF090D4-4B6C-0A22-E053-CC2BA8C0A0E1,0402,0402102,0850655,39925,Gaj-Grzmięca,wieś,101.0,53.34421339532717,19.449186689424206
2EF090D4-4B6D-0A22-E053-CC2BA8C0A0E1,0402,0402092,0849652,81890,Młyńska,część wsi,30.0,53.11439908404748,19.578830340894186
2EF090D4-4B6E-0A22-E053-CC2BA8C0A0E1,0402,0402053,0843543,80010,Miesiączkowo,wieś,502.0,53.22630567949604,19.59022262660098
2EF090D4-4B6F-0A22-E053-CC2BA8C0A0E1,0402,0402073,0844844,80574,Mileszewy,osada,381.0,53.341215456713485,19.221435442184134
2EF090D4-4A8C-0A22-E053-CC2BA8C0A0E1,0402,0402022,0840651,12457,Budy,wieś,107.0,53.26032369499206,19.303924897203427
2EF090D4-4A8D-0A22-E053-CC2BA8C0A0E1,0402,0402022,0840906,124773,Słoszewy,osada,144.0,53.20504378128049,19.259434046987575
2EF090D4-4A8F-0A22-E053-CC2BA8C0A0E1,0402,0402082,1027805,125439,Smolniki,osada,5.0,53.185420364450316,19.46067332414361
2EF090D4-4A90-0A22-E053-CC2BA8C0A0E1,0402,0402032,0841194,125944,Sobiesierzno,wieś,134.0,53.17642152871589,19.512739312546707
2EF090D4-4B1E-0A22-E053-CC2BA8C0A0E1,0402,0402022,0840881,152958,Wymokłe,wieś,107.0,53.21739159766339,19.255915802128786
2EF090D4-4ACE-0A22-E053-CC2BA8C0A0E1,0402,0402102,0850827,135975,Szramowo,wieś,115.0,53.335668004049396,19.509671668411517
2EF090D4-4B1D-0A22-E053-CC2BA8C0A0E1,0402,0402092,0849356,15414,Chlebowo,wieś,129.0,53.14577948232287,19.50889376744248
2EF090D4-4B74-0A22-E053-CC2BA8C0A0E1,0402,0402053,0983267,186532,Elabor,część miasta,50.0,53.19173430122374,19.64440292840508
2EF090D4-4B71-0A22-E053-CC2BA8C0A0E1,0402,0402053,0843649,8269,Borek,część wsi,4.0,53.212130043962205,19.566247651094617
2EF090D4-4B72-0A22-E053-CC2BA8C0A0E1,0402,0402053,0983280,186535,Gajówka,część miasta,5.0,53.19501302442397,19.652737022702418
2EF090D4-4B73-0A22-E053-CC2BA8C0A0E1,0402,0402053,0983304,186538,Mec,część miasta,22.0,53.19765541012517,19.646406617474614
2EF090D4-4B75-0A22-E053-CC2BA8C0A0E1,0402,0402062,1027509,186556,Kozieniec,część wsi,2.0,53.257210931809865,19.678690334137592
2EF090D4-4A94-0A22-E053-CC2BA8C0A0E1,0402,0402102,0850744,168089,Ławy Drwęczne,osada,3.0,53.34987095659108,19.52337620341854
2EF090D4-4A91-0A22-E053-CC2BA8C0A0E1,0402,0402053,0843709,147138,Wierzchownia,wieś,49.0,53.15223412774142,19.653994816716843
2EF090D4-4A92-0A22-E053-CC2BA8C0A0E1,0402,0402082,1027834,151276,Wólka Kretkowska,osada,38.0,53.164463546849234,19.437683819194977
2EF090D4-4A93-0A22-E053-CC2BA8C0A0E1,0402,0402082,1027840,151430,Wólka Sumińska,część wsi,8.0,53.129900907766455,19.451524680976615
2EF090D4-4A95-0A22-E053-CC2BA8C0A0E1,0402,0402032,0840929,17380,Cielęta,wieś,604.0,53.2484651415158,19.466825588353267
2EF090D4-4A96-0A22-E053-CC2BA8C0A0E1,0402,0402011,0983037,173924,Piaski,część miasta,85.0,53.249044749460076,19.396364172840915
2EF090D4-4AD2-0A22-E053-CC2BA8C0A0E1,0402,0402022,0840639,10537,Brudzawy,wieś,283.0,53.30398918346289,19.152537332774124
2EF090D4-4ACF-0A22-E053-CC2BA8C0A0E1,0402,0402032,0841248,136562,Szymkowo,wieś,158.0,53.195816044862525,19.465635636573033
2EF090D4-4AD0-0A22-E053-CC2BA8C0A0E1,0402,0402032,0841254,136565,Szymkówko,kolonia,10.0,53.191469126139665,19.462086242548917
2EF090D4-4AD1-0A22-E053-CC2BA8C0A0E1,0402,0402032,0841171,104485,Podgórz,wieś,435.0,53.227842197656045,19.426734461911764
2EF090D4-4B22-0A22-E053-CC2BA8C0A0E1,0402,0402092,0849362,28838,Dzierzno,wieś,231.0,53.14888937867973,19.49017183698289
2EF090D4-4B1F-0A22-E053-CC2BA8C0A0E1,0402,0402011,0983020,235190,Nowe Osiedle,część miasta,234.0,53.25557639979545,19.40764909495224
2EF090D4-4B20-0A22-E053-CC2BA8C0A0E1,0402,0402011,0982960,32229,Gdynia,część miasta,213.0,53.253994478073075,19.393073952768773
2EF090D4-4B21-0A22-E053-CC2BA8C0A0E1,0402,0402082,1027573,28812,Dzierzenek,część wsi,8.0,53.15293932214637,19.477000897329155
2EF090D4-4B23-0A22-E053-CC2BA8C0A0E1,0402,0402032,0840958,28889,Dzierżno,wieś,149.0,53.17215784031595,19.481690865826934
2EF090D4-4B24-0A22-E053-CC2BA8C0A0E1,0402,0402053,0843448,29706,Falk,osada,1.0,53.225987191301364,19.716975792283076
2EF090D4-4B25-0A22-E053-CC2BA8C0A0E1,0402,0402053,0843477,29912,Fiałki,wieś,114.0,53.217329568539405,19.671848810653483
2EF090D4-4B26-0A22-E053-CC2BA8C0A0E1,0402,0402062,0843840,60430,Koziary,wieś,70.0,53.25335985005194,19.516572765781863
2EF090D4-4B27-0A22-E053-CC2BA8C0A0E1,0402,0402053,0843603,60460,Kozie Błotko,osada,2.0,53.16919410007092,19.75346400036315
2EF090D4-4A99-0A22-E053-CC2BA8C0A0E1,0402,0402082,0847966,151832,Wrzeszewo,wieś,214.0,53.16409335898074,19.349305305267457
2EF090D4-4B79-0A22-E053-CC2BA8C0A0E1,0402,0402022,0840711,39987,Grzybno,wieś,345.0,53.287389794208835,19.303842262440636
2EF090D4-4B7A-0A22-E053-CC2BA8C0A0E1,0402,0402053,0843589,4005,Beśnica,część wsi,1.0,53.13381081538748,19.68719137534304
2EF090D4-4B7B-0A22-E053-CC2BA8C0A0E1,0402,0402053,0843483,8270,Borek,osada,4.0,53.237639751190684,19.646294388247615
2EF090D4-4A97-0A22-E053-CC2BA8C0A0E1,0402,0402011,0983014,168088,Niskie Brodno,część miasta,62.0,53.26853503050249,19.3874824782203
2EF090D4-4A98-0A22-E053-CC2BA8C0A0E1,0402,0402102,0850661,173925,Grzmięca,osada,63.0,53.338958838250754,19.42888519135757
2EF090D4-4B2D-0A22-E053-CC2BA8C0A0E1,0402,0402032,0841060,3001,Bartniki,wieś,112.0,53.26992978961781,19.33967925270895
2EF090D4-4AD3-0A22-E053-CC2BA8C0A0E1,0402,0402102,0850767,106952,Pokrzydowo,wieś,987.0,53.326432446766894,19.47255829146511
2EF090D4-4AD4-0A22-E053-CC2BA8C0A0E1,0402,0402082,0847920,136613,Szynkowizna,wieś,140.0,53.152361303153555,19.471652246609814
2EF090D4-4B28-0A22-E053-CC2BA8C0A0E1,0402,0402082,0847825,61789,Kretki Duże,wieś,127.0,53.17530392772355,19.43473578836036
2EF090D4-4B29-0A22-E053-CC2BA8C0A0E1,0402,0402082,0847831,61790,Kretki Małe,wieś,332.0,53.153995263458555,19.442608804353803
2EF090D4-4B2C-0A22-E053-CC2BA8C0A0E1,0402,0402062,0843721,2994,Bartniczka,wieś,693.0,53.24703597890789,19.602611225286395
2EF090D4-4B7F-0A22-E053-CC2BA8C0A0E1,0402,0402092,0849669,86807,Niemiecka Kolonia,część wsi,10.0,53.10933392075184,19.559126449380756
2EF090D4-4B7C-0A22-E053-CC2BA8C0A0E1,0402,0402062,1027490,8271,Dębowo,część wsi,2.0,53.24348177753717,19.674228681465987
2EF090D4-4B7D-0A22-E053-CC2BA8C0A0E1,0402,0402032,0841113,84079,Mszano,wieś,48.0,53.229986082719456,19.317338536735715
2EF090D4-4B7E-0A22-E053-CC2BA8C0A0E1,0402,0402102,0850750,85780,Najmowo,wieś,402.0,53.31432242796074,19.334507439133215
2EF090D4-4B80-0A22-E053-CC2BA8C0A0E1,0402,0402092,0849563,86865,Niemojewo,kolonia,38.0,53.16700212431727,19.533879090215528
2EF090D4-4AD9-0A22-E053-CC2BA8C0A0E1,0402,0402053,0843595,10722,Bryńsk Królewski,osada,3.0,53.182475640199385,19.748075346208015
2EF090D4-4A9A-0A22-E053-CC2BA8C0A0E1,0402,0402032,0840941,152170,Wybudowanie Michałowo,wieś,603.0,53.24673412221028,19.435563676449203
2EF090D4-4A9B-0A22-E053-CC2BA8C0A0E1,0402,0402102,0850796,126780,Sosno,osada,43.0,53.33295568981265,19.33902985389115
2EF090D4-4AD5-0A22-E053-CC2BA8C0A0E1,0402,0402053,0843684,136614,Szynkówko,wieś,143.0,53.170196165868425,19.615313548969382
2EF090D4-4AD6-0A22-E053-CC2BA8C0A0E1,0402,0402042,0841372,137795,Świecie,wieś,219.0,53.28459996877917,19.53753874889995
2EF090D4-4AD8-0A22-E053-CC2BA8C0A0E1,0402,0402042,1027521,106983,Pokrzywnia,osada,2.0,53.30018442413873,19.534018476174925
2EF090D4-4ADA-0A22-E053-CC2BA8C0A0E1,0402,0402092,0849586,10724,Bryńska,część wsi,12.0,53.09608898723888,19.563687194748294
2EF090D4-4B93-0A22-E053-CC2BA8C0A0E1,0402,0402082,1027716,186636,Po Rymrze,część wsi,5.0,53.13258364489167,19.409066414180003
2EF090D4-4B2E-0A22-E053-CC2BA8C0A0E1,0402,0402092,0849735,30047,Firany,część wsi,22.0,53.13008247363057,19.539823761691242
2EF090D4-4B2F-0A22-E053-CC2BA8C0A0E1,0402,0402032,0841053,62793,Kruszynki,wieś,355.0,53.27698031880889,19.363868576268775
2EF090D4-4B30-0A22-E053-CC2BA8C0A0E1,0402,0402022,0840734,62795,Kruszyny,wieś,512.0,53.31686293420867,19.191964188253117
2EF090D4-4B91-0A22-E053-CC2BA8C0A0E1,0402,0402082,1027691,186626,Parcele Tadajewskie,część wsi,25.0,53.13843161882459,19.41355132500251
2EF090D4-4B92-0A22-E053-CC2BA8C0A0E1,0402,0402082,1027700,186628,Plebanka,część wsi,22.0,53.16956657054394,19.3874705919918
2EF090D4-4A9F-0A22-E053-CC2BA8C0A0E1,0402,0402053,0843715,154961,Zaborowo,wieś,459.0,53.229740102597624,19.630982899374878
2EF090D4-4A9C-0A22-E053-CC2BA8C0A0E1,0402,0402042,0841449,127041,Sośno Królewskie,osada,20.0,53.30981628097814,19.648457067124372
2EF090D4-4A9D-0A22-E053-CC2BA8C0A0E1,0402,0402062,0843810,126292,Sokołowo,osada,53.0,53.22659556430896,19.509777882819538
2EF090D4-4A9E-0A22-E053-CC2BA8C0A0E1,0402,0402102,0850885,153670,Wysokie Brodno,osada,9.0,53.322747616081685,19.373938335144857
2EF090D4-4AA0-0A22-E053-CC2BA8C0A0E1,0402,0402092,0849468,155162,Zabudzie,część wsi,15.0,53.13956197551801,19.62481909806193
2EF090D4-4ADE-0A22-E053-CC2BA8C0A0E1,0402,0402082,1027811,138377,Świnia Noga,część wsi,20.0,53.17851593405324,19.367033305819277
2EF090D4-4ADB-0A22-E053-CC2BA8C0A0E1,0402,0402042,0841277,1083,Augustowo,osada,97.0,53.32531023338375,19.569095004610748
2EF090D4-4ADC-0A22-E053-CC2BA8C0A0E1,0402,0402053,0843566,109706,Pólko,osada,32.0,53.24476899574631,19.593337224877654
2EF090D4-4ADD-0A22-E053-CC2BA8C0A0E1,0402,0402062,0843939,137935,Świerczynki,wieś,131.0,53.2510769553761,19.524996076305097
2EF090D4-4ADF-0A22-E053-CC2BA8C0A0E1,0402,0402092,0849675,137812,Świedziebnia,wieś,1212.0,53.15495963304073,19.55620265167278
2EF090D4-4BA5-0A22-E053-CC2BA8C0A0E1,0402,0402082,0847819,46599,Jeziórki,wieś,119.0,53.18466548793683,19.377550974115405
2EF090D4-4B31-0A22-E053-CC2BA8C0A0E1,0402,0402022,0840740,62800,Kruszyny-Rumunki,wieś,49.0,53.29982209337575,19.20510917495896
2EF090D4-4B32-0A22-E053-CC2BA8C0A0E1,0402,0402022,0840898,30152,Florencja,kolonia,63.0,53.217771848161945,19.2751905358913
2EF090D4-4BA2-0A22-E053-CC2BA8C0A0E1,0402,0402082,1027774,186644,Resztówka,część wsi,50.0,53.1537008635118,19.441702975359558
2EF090D4-4BA3-0A22-E053-CC2BA8C0A0E1,0402,0402082,1027780,186647,Rumunki Strzyckie,część wsi,18.0,53.12941864162281,19.40316589420154
2EF090D4-4BA4-0A22-E053-CC2BA8C0A0E1,0402,0402062,0843804,45193,Jastrzębie-Przydatki,kolonia,18.0,53.239598717698556,19.525728229826946
2EF090D4-4BA6-0A22-E053-CC2BA8C0A0E1,0402,0402102,0850738,48825,Kaługa,osada,3.0,53.36980934906239,19.518898571202424
2EF090D4-4BA7-0A22-E053-CC2BA8C0A0E1,0402,0402073,0844815,49425,Kamień,wieś,230.0,53.371889920783204,19.19457852737434
2EF090D4-4BA8-0A22-E053-CC2BA8C0A0E1,0402,0402092,0849570,89255,Zasady Nowe,wieś,237.0,53.09467744820699,19.563178992973622
2EF090D4-4BA9-0A22-E053-CC2BA8C0A0E1,0402,0402032,0841142,89938,Nowy Dwór,wieś,64.0,53.27055163864269,19.488151184035335
2EF090D4-4BAA-0A22-E053-CC2BA8C0A0E1,0402,0402053,0843610,90374,Nowy Świat,osada,1.0,53.176114899667695,19.68226213483424
2EF090D4-4AA4-0A22-E053-CC2BA8C0A0E1,0402,0402062,0843916,129385,Stare Świerczyny,wieś,248.0,53.23630407296532,19.496522523856513
2EF090D4-4AA1-0A22-E053-CC2BA8C0A0E1,0402,0402053,0843550,1553,Bachor,osada,28.0,53.22658276072343,19.56151527644089
2EF090D4-4AA2-0A22-E053-CC2BA8C0A0E1,0402,0402073,0844726,12844,Budziszewo,wieś,162.0,53.36337492891267,19.1139353644489
2EF090D4-4AA3-0A22-E053-CC2BA8C0A0E1,0402,0402092,0849445,128470,Stara Wieś,część wsi,15.0,53.137800951589455,19.58898292389985
2EF090D4-4AE3-0A22-E053-CC2BA8C0A0E1,0402,0402102,0850833,139924,Tomki,wieś,125.0,53.34095910754594,19.276019060910603
2EF090D4-4AE0-0A22-E053-CC2BA8C0A0E1,0402,0402053,0843678,138392,Świniarki,część wsi,50.0,53.20628119154413,19.590675314587454
2EF090D4-4AE1-0A22-E053-CC2BA8C0A0E1,0402,0402082,0847937,138636,Tadajewo,wieś,151.0,53.13661354083813,19.399981521198217
2EF090D4-4AE2-0A22-E053-CC2BA8C0A0E1,0402,0402082,0847943,139827,Tomaszewo,wieś,128.0,53.150059111502024,19.362097538459558
2EF090D4-4AE4-0A22-E053-CC2BA8C0A0E1,0402,0402042,1062492,139983,Topiele,osada,2.0,53.31025845977566,19.518781500950904
2EF090D4-4AE7-0A22-E053-CC2BA8C0A0E1,0402,0402053,0843419,11191,Brzeziny,osada,2.0,53.2176809818952,19.700502438805746
2EF090D4-4AE8-0A22-E053-CC2BA8C0A0E1,0402,0402062,0843879,114082,Radoszki,wieś,698.0,53.258997379072696,19.62658330612486
2EF090D4-4B36-0A22-E053-CC2BA8C0A0E1,0402,0402022,0840757,62801,Kruszyny Szlacheckie,wieś,256.0,53.30118266188677,19.35208230362351
2EF090D4-4B33-0A22-E053-CC2BA8C0A0E1,0402,0402022,0840770,30239,Foluszek,osada,4.0,53.32113437351398,19.36356729065959
2EF090D4-4B34-0A22-E053-CC2BA8C0A0E1,0402,0402022,1062470,30655,Frydrychowo,przysiółek,8.0,53.30285403640576,19.185130313974344
2EF090D4-4B35-0A22-E053-CC2BA8C0A0E1,0402,0402053,0843490,30856,Gać,osada,2.0,53.22152657290194,19.675334952053568
2EF090D4-4B37-0A22-E053-CC2BA8C0A0E1,0402,0402022,0840763,642,Anielewo,kolonia,38.0,53.30845720556976,19.356452367038223
2EF090D4-4B38-0A22-E053-CC2BA8C0A0E1,0402,0402092,0849480,64242,Księte,wieś,326.0,53.166173776381264,19.597225829569016
2EF090D4-4B39-0A22-E053-CC2BA8C0A0E1,0402,0402082,0847848,64861,Kujawa,wieś,213.0,53.17891311972678,19.453800713064748
2EF090D4-4B3A-0A22-E053-CC2BA8C0A0E1,0402,0402042,0841308,65063,Kuligi,osada,53.0,53.31143892909964,19.501961490417244
2EF090D4-4B3B-0A22-E053-CC2BA8C0A0E1,0402,0402032,0840935,65469,Kurlaga,kolonia,8.0,53.22995938077603,19.465025650580976
2EF090D4-4B3C-0A22-E053-CC2BA8C0A0E1,0402,0402073,0844838,67076,Lembarg,wieś,387.0,53.339666636737306,19.207598391155333
2EF090D4-4BBA-0A22-E053-CC2BA8C0A0E1,0402,0402032,0841165,93203,Opalenica,wieś,135.0,53.195964266916235,19.4164045305493
2EF090D4-4BB7-0A22-E053-CC2BA8C0A0E1,0402,0402092,0849505,90769,Oborczyska,część wsi,18.0,53.17489884416202,19.60509627635651
2EF090D4-4BB8-0A22-E053-CC2BA8C0A0E1,0402,0402082,0847860,90818,Obórki,wieś,124.0,53.15234573399546,19.377477413288265
2EF090D4-4BB9-0A22-E053-CC2BA8C0A0E1,0402,0402092,0849617,91677,Okalewko,wieś,316.0,53.12462774422988,19.63006561426027
2EF090D4-4BBB-0A22-E053-CC2BA8C0A0E1,0402,0402082,0847877,94287,Osiek,wieś,960.0,53.16645794831551,19.399932312682292
2EF090D4-4BBC-0A22-E053-CC2BA8C0A0E1,0402,0402082,0847883,94308,Kolonia Osiek,wieś,79.0,53.18317983225364,19.402795463735693
2EF090D4-4AEC-0A22-E053-CC2BA8C0A0E1,0402,0402032,0841024,138726,Tama Brodzka,osada,22.0,53.279341859540324,19.466196493274353
2EF090D4-4AA5-0A22-E053-CC2BA8C0A0E1,0402,0402102,0850773,1581,Bachotek,wieś,42.0,53.31111204596732,19.468998373666103
2EF090D4-4AA6-0A22-E053-CC2BA8C0A0E1,0402,0402102,0850891,159045,Zarośle,osada,14.0,53.35277831164549,19.357505988608295
2EF090D4-4AA7-0A22-E053-CC2BA8C0A0E1,0402,0402022,0840846,159046,Zarośle,wieś,62.0,53.25087275738093,19.233639076175773
2EF090D4-4AE9-0A22-E053-CC2BA8C0A0E1,0402,0402102,0850550,11092,Brzezinki,osada,220.0,53.3118052724006,19.41086687745514
2EF090D4-4AEB-0A22-E053-CC2BA8C0A0E1,0402,0402102,0850610,115680,Robotno,osada,12.0,53.36892482775243,19.401168821344907
2EF090D4-4AED-0A22-E053-CC2BA8C0A0E1,0402,0402032,0841099,139092,Tarnówko,część kolonii,140.0,53.23138340530953,19.398937072080322
2EF090D4-4AEE-0A22-E053-CC2BA8C0A0E1,0402,0402102,0850649,139520,Tęgowiec,osada,5.0,53.35666571139428,19.454542632741482
2EF090D4-4B40-0A22-E053-CC2BA8C0A0E1,0402,0402102,0850690,33775,Głowin,osada,2.0,53.40599803409753,19.320273265377836
2EF090D4-4B3D-0A22-E053-CC2BA8C0A0E1,0402,0402102,0850810,34255,Godziszka,wieś,24.0,53.3597945757974,19.29396908283368
2EF090D4-4B3E-0A22-E053-CC2BA8C0A0E1,0402,0402053,0843520,34757,Gołkowo,wieś,303.0,53.186391978002106,19.566865801339958
2EF090D4-4B3F-0A22-E053-CC2BA8C0A0E1,0402,0402092,0849497,33028,Glinki,część wsi,5.0,53.1544562862407,19.591186302184294
2EF090D4-4B41-0A22-E053-CC2BA8C0A0E1,0402,0402062,0843796,34762,Gołkówko,osada,92.0,53.20515267456798,19.543156440073822
2EF090D4-4B42-0A22-E053-CC2BA8C0A0E1,0402,0402032,0840964,34989,Gorczenica,wieś,670.0,53.20587470002002,19.3878291241721
2EF090D4-4B43-0A22-E053-CC2BA8C0A0E1,0402,0402032,0840970,34990,Gorczeniczka,wieś,85.0,53.19803793041463,19.362076660865952
2EF090D4-4AAC-0A22-E053-CC2BA8C0A0E1,0402,0402102,0850678,132457,Strzemiuszczek,przysiółek,20.0,53.348521232295525,19.43191017704164
2EF090D4-4B95-0A22-E053-CC2BA8C0A0E1,0402,0402073,0983474,42914,Jabłonowo Pomorskie,miasto,3516.0,53.39187004597256,19.157647803023462
2EF090D4-4B96-0A22-E053-CC2BA8C0A0E1,0402,0402073,0844809,43303,Jaguszewice,wieś,192.0,53.367811051678146,19.164466111885154
2EF090D4-4AA8-0A22-E053-CC2BA8C0A0E1,0402,0402092,0849646,129450,Zasady,wieś,169.0,53.10755249939992,19.578195575845516
2EF090D4-4AA9-0A22-E053-CC2BA8C0A0E1,0402,0402102,0850856,130320,Staw,część wsi,6.0,53.34038514432375,19.480700398927002
2EF090D4-4AAA-0A22-E053-CC2BA8C0A0E1,0402,0402073,0844732,13101,Buk Góralski,wieś,267.0,53.40256746383669,19.219552368718904
2EF090D4-4B47-0A22-E053-CC2BA8C0A0E1,0402,0402062,0843856,71472,Łaszewo,wieś,333.0,53.24876724044703,19.543142600169972
2EF090D4-4AEF-0A22-E053-CC2BA8C0A0E1,0402,0402042,0841389,140382,Trepki,wieś,79.0,53.28239298173465,19.609657754986067
2EF090D4-4AF0-0A22-E053-CC2BA8C0A0E1,0402,0402022,0840830,142048,Tylice,wieś,146.0,53.26156462320557,19.23371936956806
2EF090D4-4B44-0A22-E053-CC2BA8C0A0E1,0402,0402102,0850721,69074,Lipowiec,wieś,128.0,53.3532835837491,19.506919858313708
2EF090D4-4B45-0A22-E053-CC2BA8C0A0E1,0402,0402022,0840786,69219,Lisa Młyn,osada,1.0,53.301616583255324,19.36161047093271
2EF090D4-4B46-0A22-E053-CC2BA8C0A0E1,0402,0402082,0847854,71363,Łapinóż,wieś,198.0,53.187724749725895,19.34399581915223
2EF090D4-4B48-0A22-E053-CC2BA8C0A0E1,0402,0402032,0841159,7219,Bobrowiska,osada,63.0,53.262013620724474,19.456348662970626
2EF090D4-4B49-0A22-E053-CC2BA8C0A0E1,0402,0402022,0840600,7262,Bobrowo,wieś,303.0,53.28460160398782,19.268246955836666
2EF090D4-4AF4-0A22-E053-CC2BA8C0A0E1,0402,0402102,0850715,116636,Rosochy,osada,2.0,53.39728251515584,19.310180059831293
2EF090D4-4BBD-0A22-E053-CC2BA8C0A0E1,0402,0402022,0840674,19905,Czekanowo,osada,221.0,53.31878895727277,19.273996479244893
2EF090D4-4BBE-0A22-E053-CC2BA8C0A0E1,0402,0402053,0983250,199585,Dąbrowa,część miasta,8.0,53.20344966231785,19.640500929643984
2EF090D4-4AAD-0A22-E053-CC2BA8C0A0E1,0402,0402092,0849706,159265,Zasadki,wieś,204.0,53.11036122287681,19.53462034374155
2EF090D4-4AAE-0A22-E053-CC2BA8C0A0E1,0402,0402102,0850840,159379,Zastawie,wieś,112.0,53.346321802766674,19.48549583434301
2EF090D4-4AAF-0A22-E053-CC2BA8C0A0E1,0402,0402102,0850879,160297,Zbiczno,wieś,1007.0,53.34712014843401,19.378267924604362
2EF090D4-4AF2-0A22-E053-CC2BA8C0A0E1,0402,0402092,0849630,116177,Rokitnica-Wieś,wieś,188.0,53.16436706703255,19.51620554388806
2EF090D4-4AF3-0A22-E053-CC2BA8C0A0E1,0402,0402042,0841260,11628,Brzozie,wieś,1143.0,53.324531005564054,19.611918503197785
2EF090D4-4AF5-0A22-E053-CC2BA8C0A0E1,0402,0402102,0850862,117369,Równica,kolonia,40.0,53.345104790624546,19.470403354768063
2EF090D4-4AF6-0A22-E053-CC2BA8C0A0E1,0402,0402053,0843514,117670,Ruda,osada,4.0,53.22546433416781,19.65606733862292
2EF090D4-4AF7-0A22-E053-CC2BA8C0A0E1,0402,0402082,0847950,144301,Warpalice,wieś,219.0,53.131985999198086,19.355578380759102
2EF090D4-4AF8-0A22-E053-CC2BA8C0A0E1,0402,0402032,0841225,142227,Tywola,osada,8.0,53.25904166465142,19.35030002960038
2EF090D4-4B4E-0A22-E053-CC2BA8C0A0E1,0402,0402022,0840616,7265,Bobrowo-Kolonia,kolonia,104.0,53.27322997031342,19.284111668923096
2EF090D4-4B4A-0A22-E053-CC2BA8C0A0E1,0402,0402032,0840987,35037,Gortatowo,wieś,235.0,53.18800944340372,19.488443799549145
2EF090D4-4B4B-0A22-E053-CC2BA8C0A0E1,0402,0402073,0844761,35108,Gorzechówko,wieś,130.0,53.38836080429687,19.21686264501984
2EF090D4-4B4C-0A22-E053-CC2BA8C0A0E1,0402,0402073,0844778,35797,Górale,wieś,365.0,53.38117953435729,19.276816462413347
2EF090D4-4AB3-0A22-E053-CC2BA8C0A0E1,0402,0402092,0849729,160697,Zduny,wieś,178.0,53.124768078572714,19.553670762677964
2EF090D4-4B81-0A22-E053-CC2BA8C0A0E1,0402,0402032,0841136,87095,Niewierz,wieś,282.0,53.24322763283672,19.296955270752637
2EF090D4-4B82-0A22-E053-CC2BA8C0A0E1,0402,0402022,0840823,87180,Nieżywięć,wieś,750.0,53.26763006045019,19.15511113743192
2EF090D4-4AB0-0A22-E053-CC2BA8C0A0E1,0402,0402082,0847890,132531,Strzygi,wieś,488.0,53.11919292994053,19.386293925057245
2EF090D4-4AB1-0A22-E053-CC2BA8C0A0E1,0402,0402073,0844755,13274,Bukowiec,wieś,282.0,53.34884659877865,19.142429563678302
2EF090D4-4AB2-0A22-E053-CC2BA8C0A0E1,0402,0402042,0841366,133354,Sugajno,wieś,206.0,53.32481190777398,19.667951713042687
2EF090D4-4AB4-0A22-E053-CC2BA8C0A0E1,0402,0402042,0841432,160880,Zembrze,wieś,204.0,53.29557408952479,19.657470533888674
2EF090D4-4AFC-0A22-E053-CC2BA8C0A0E1,0402,0402062,0843891,120598,Samin,wieś,104.0,53.27401043786154,19.64711429722532
2EF090D4-4AF9-0A22-E053-CC2BA8C0A0E1,0402,0402022,0840869,145597,Wichulec,wieś,236.0,53.30900816127264,19.297035713524306
2EF090D4-4AFA-0A22-E053-CC2BA8C0A0E1,0402,0402032,0841188,118792,Rybaki,kolonia,30.0,53.2254906940811,19.447394549524134
2EF090D4-4AFB-0A22-E053-CC2BA8C0A0E1,0402,0402102,0850626,119443,Rytebłota,osada,2.0,53.35432174371551,19.39805241191399
2EF090D4-4B9A-0A22-E053-CC2BA8C0A0E1,0402,0402042,0841314,44378,Janówko,wieś,233.0,53.296517544345456,19.607029697302632
2EF090D4-4B4F-0A22-E053-CC2BA8C0A0E1,0402,0402082,1027662,74836,Łyskawica,część wsi,22.0,53.16898802407982,19.45690616806766
2EF090D4-4B50-0A22-E053-CC2BA8C0A0E1,0402,0402042,0841337,76691,Małe Leźno,wieś,173.0,53.2758594818112,19.694891153368452
2EF090D4-4B97-0A22-E053-CC2BA8C0A0E1,0402,0402062,0843885,42459,Iły,kolonia,10.0,53.27183314499963,19.598498736043425
2EF090D4-4B98-0A22-E053-CC2BA8C0A0E1,0402,0402042,0841283,43318,Jajkowo,wieś,449.0,53.297318131841756,19.502205411452483
2EF090D4-4B99-0A22-E053-CC2BA8C0A0E1,0402,0402092,0849391,44165,Janowo,wieś,653.0,53.13442825226098,19.594733122511517
2EF090D4-4B9B-0A22-E053-CC2BA8C0A0E1,0402,0402062,0843780,45181,Jastrzębie,wieś,505.0,53.21890778613511,19.520762173427585
2EF090D4-4B9C-0A22-E053-CC2BA8C0A0E1,0402,0402073,0844850,88239,Nowa Wieś,wieś,274.0,53.422237979900025,19.205846659193835
2EF090D4-4AB8-0A22-E053-CC2BA8C0A0E1,0402,0402102,0850780,133638,Sumowo,wieś,272.0,53.33174970552473,19.324900397914107
2EF090D4-4AB5-0A22-E053-CC2BA8C0A0E1,0402,0402022,0840668,16094,Chojno,wieś,226.0,53.258586153716124,19.278266477620186
2EF090D4-4AB6-0A22-E053-CC2BA8C0A0E1,0402,0402062,0843945,160586,Zdroje,wieś,88.0,53.24054010083573,19.61550230337713
2EF090D4-4AB7-0A22-E053-CC2BA8C0A0E1,0402,0402082,0847908,133619,Sumin,wieś,217.0,53.1253511759322,19.421881343350393
2EF090D4-4B00-0A22-E053-CC2BA8C0A0E1,0402,0402042,0841426,146418,Wielkie Leźno,wieś,150.0,53.29450171678015,19.69518117603462
2EF090D4-4AFD-0A22-E053-CC2BA8C0A0E1,0402,0402022,0840645,12106,Buczek,wieś,141.0,53.26671769901189,19.202225860529197
2EF090D4-4AFE-0A22-E053-CC2BA8C0A0E1,0402,0402022,0840852,144652,Wądzyn,wieś,118.0,53.31005615904369,19.246044253550245
2EF090D4-4AFF-0A22-E053-CC2BA8C0A0E1,0402,0402042,0841403,146226,Wielki Głęboczek,wieś,511.0,53.31741978853769,19.538682708443673
2EF090D4-4B01-0A22-E053-CC2BA8C0A0E1,0402,0402053,0843425,12134,Buczkowo,kolonia,13.0,53.22619819132994,19.739576557267654
2EF090D4-4BAD-0A22-E053-CC2BA8C0A0E1,0402,0402092,0849698,186680,Krzywda,część wsi,2.0,53.14638961903203,19.56625074703774
2EF090D4-4B51-0A22-E053-CC2BA8C0A0E1,0402,0402062,0843922,3639,Belfort,kolonia,92.0,53.24977931033556,19.5011005944438
2EF090D4-4B52-0A22-E053-CC2BA8C0A0E1,0402,0402053,0983244,36955,Górzno,miasto,1342.0,53.19636972052483,19.6466939591046
2EF090D4-4B53-0A22-E053-CC2BA8C0A0E1,0402,0402053,0843537,36959,Górzno-Wybudowanie,osada,430.0,53.19486850999468,19.624370320202896
2EF090D4-4BAB-0A22-E053-CC2BA8C0A0E1,0402,0402082,1027797,186663,Rypienica,część wsi,10.0,53.12109373460051,19.375999762578903
2EF090D4-4BAC-0A22-E053-CC2BA8C0A0E1,0402,0402082,1027828,186664,Tartak,część wsi,2.0,53.12561096495905,19.375426093254728
2EF090D4-4BAE-0A22-E053-CC2BA8C0A0E1,0402,0402053,0843402,19401,Czarny Bryńsk,wieś,25.0,53.1975643126818,19.711481829096765
2EF090D4-4BAF-0A22-E053-CC2BA8C0A0E1,0402,0402022,0840800,19727,Czartówiec,przysiółek,31.0,53.23345552073025,19.212266477462315
2EF090D4-4BB1-0A22-E053-CC2BA8C0A0E1,0402,0402053,0983310,198338,Nowe Osiedle,część miasta,12.0,53.192604063205785,19.638425688863002
2EF090D4-4BB2-0A22-E053-CC2BA8C0A0E1,0402,0402042,0841290,50126,Kantyła,osada,69.0,53.2835968862677,19.507279434974308
2EF090D4-4B04-0A22-E053-CC2BA8C0A0E1,0402,0402062,0843833,124006,Skrobacja,osada,22.0,53.1863445963375,19.53762702912134
2EF090D4-4AB9-0A22-E053-CC2BA8C0A0E1,0402,0402022,0840912,161002,Zgniłobłoty,wieś,429.0,53.28267039053395,19.226110410133533
2EF090D4-4ABA-0A22-E053-CC2BA8C0A0E1,0402,0402102,0850900,163850,Żmijewko,wieś,229.0,53.31464075100087,19.405234892789686
2EF090D4-4ABB-0A22-E053-CC2BA8C0A0E1,0402,0402102,0850916,163852,Żmijewo,osada,118.0,53.30017483493379,19.402137447946796
2EF090D4-4B02-0A22-E053-CC2BA8C0A0E1,0402,0402053,0843655,12304,Budki,część wsi,35.0,53.193677158521744,19.595703814975646
2EF090D4-4B03-0A22-E053-CC2BA8C0A0E1,0402,0402092,0849416,12344,Budki Janowskie,część wsi,30.0,53.12292777898976,19.602634398684682
2EF090D4-4B05-0A22-E053-CC2BA8C0A0E1,0402,0402082,1027538,199589,Baczka,część wsi,2.0,53.19202904792677,19.35075670756626
2EF090D4-4B06-0A22-E053-CC2BA8C0A0E1,0402,0402102,0850632,21022,Czystebłota,wieś,68.0,53.35791193674344,19.460043730137308
2EF090D4-4B07-0A22-E053-CC2BA8C0A0E1,0402,0402092,0849592,21828,Dąbrowa,część wsi,28.0,53.09113524888277,19.559284857939126
2EF090D4-4B58-0A22-E053-CC2BA8C0A0E1,0402,0402092,0849528,78897,Mełno,wieś,75.0,53.15558766198325,19.60811338110362
2EF090D4-4B55-0A22-E053-CC2BA8C0A0E1,0402,0402022,0840792,76873,Małki,wieś,338.0,53.23525078569851,19.24349403443984
2EF090D4-4B56-0A22-E053-CC2BA8C0A0E1,0402,0402042,0841343,77058,Mały Głęboczek,wieś,208.0,53.30308278364093,19.568044870800392
2EF090D4-4B57-0A22-E053-CC2BA8C0A0E1,0402,0402022,0840875,7709,Bogumiłki,kolonia,18.0,53.322696349971764,19.292610717136846
2EF090D4-4B59-0A22-E053-CC2BA8C0A0E1,0402,0402053,0843661,17514,Cienkusz,część wsi,10.0,53.218492305277515,19.55369373918521
2EF090D4-4B85-0A22-E053-CC2BA8C0A0E1,0402,0402082,1027550,186598,Dębowizna,część wsi,8.0,53.15178752474196,19.39148892276911
2EF090D4-4B86-0A22-E053-CC2BA8C0A0E1,0402,0402082,1027567,186599,Działki,część wsi,15.0,53.11848881225587,19.42021692287826
2EF090D4-4B87-0A22-E053-CC2BA8C0A0E1,0402,0402082,1027580,186608,Kadłubowo,część wsi,2.0,53.17023297956232,19.441815815343585
2EF090D4-4B88-0A22-E053-CC2BA8C0A0E1,0402,0402082,1027604,186611,Kolonia Sumińska,część wsi,10.0,53.1121065988241,19.411018915685897
2EF090D4-4B89-0A22-E053-CC2BA8C0A0E1,0402,0402082,1027610,186618,Kolonia Tadajewska,część wsi,5.0,53.132149041553504,19.400553184531496
2EF090D4-4B8A-0A22-E053-CC2BA8C0A0E1,0402,0402062,0843767,40330,Gutowo,wieś,335.0,53.24852434814545,19.67122020414046
2EF090D4-4B0A-0A22-E053-CC2BA8C0A0E1,0402,0402092,0849474,54674,Kłuśno,wieś,276.0,53.12830700565484,19.473977409990706
2EF090D4-4ABC-0A22-E053-CC2BA8C0A0E1,0402,0402102,0850804,133647,Sumówko,wieś,134.0,53.345002529136195,19.3078142438572
2EF090D4-4ABD-0A22-E053-CC2BA8C0A0E1,0402,0402082,0847914,133649,Sumówko,wieś,136.0,53.12548788592561,19.442295259761273
2EF090D4-4ABE-0A22-E053-CC2BA8C0A0E1,0402,0402032,0841202,134184,Szabda,wieś,406.0,53.25545756022067,19.342303482051673
2EF090D4-4B08-0A22-E053-CC2BA8C0A0E1,0402,0402022,0840680,22393,Dąbrówka,wieś,202.0,53.28632885557309,19.184323636389543
2EF090D4-4B09-0A22-E053-CC2BA8C0A0E1,0402,0402082,0847802,23694,Dębowo,wieś,91.0,53.14753642839934,19.40499387822862
2EF090D4-4B5D-0A22-E053-CC2BA8C0A0E1,0402,0402022,0840705,37658,Grabówiec,wieś,181.0,53.24091712085741,19.153550513185365
2EF090D4-4B5A-0A22-E053-CC2BA8C0A0E1,0402,0402053,0983327,175541,Wapionka,część miasta,1.0,53.19646804485372,19.657325980814367
2EF090D4-4B5B-0A22-E053-CC2BA8C0A0E1,0402,0402092,0849681,18047,Ciszyn,część wsi,15.0,53.16825002914092,19.565004622734246
2EF090D4-4B5C-0A22-E053-CC2BA8C0A0E1,0402,0402011,0983008,186486,Miejskie Pole,część miasta,2.0,53.23980693078503,19.40632865209434
2EF090D4-4BA0-0A22-E053-CC2BA8C0A0E1,0402,0402082,1027739,186641,Pod Lasem,część wsi,10.0,53.13929051495724,19.42758097127648
2EF090D4-4B9D-0A22-E053-CC2BA8C0A0E1,0402,0402062,0843862,89187,Nowe Świerczyny,wieś,320.0,53.225668178498154,19.485360831181257
2EF090D4-4B9E-0A22-E053-CC2BA8C0A0E1,0402,0402082,1027751,186643,Pod Warpalice,część wsi,2.0,53.127784463380905,19.373781826826587
2EF090D4-4B9F-0A22-E053-CC2BA8C0A0E1,0402,0402082,1027722,186638,Pod Lasem,część wsi,15.0,53.14680827414783,19.425719116870702
2EF090D4-4BA1-0A22-E053-CC2BA8C0A0E1,0402,0402082,1027745,186642,Pod Parową,część wsi,12.0,53.11443537460406,19.403511041662444
2EF090D4-4AC2-0A22-E053-CC2BA8C0A0E1,0402,0402092,1062530,102432,Płociczno,osada,2.0,53.11720570423685,19.682216218988888
2EF090D4-4ABF-0A22-E053-CC2BA8C0A0E1,0402,0402092,1062523,101001,Piękny Las,część wsi,22.0,53.1370712730416,19.508660679557423
2EF090D4-4AC0-0A22-E053-CC2BA8C0A0E1,0402,0402092,0849534,10106,Brodniczka,wieś,100.0,53.14931889840522,19.623900697657163
2EF090D4-4AC1-0A22-E053-CC2BA8C0A0E1,0402,0402092,0849511,101977,Plebanka,część wsi,35.0,53.15476663427853,19.580483570871227
2EF090D4-4AC3-0A22-E053-CC2BA8C0A0E1,0402,0402011,0982954,10093,Brodnica,miasto,26091.0,53.25507416146816,19.40056877745431
2EF090D4-4B0E-0A22-E053-CC2BA8C0A0E1,0402,0402042,0841410,52228,Kępa,część wsi,10.0,53.31206226900156,19.551580741129108
2EF090D4-4B0B-0A22-E053-CC2BA8C0A0E1,0402,0402053,0843454,55490,Kocioł,osada,2.0,53.21389966693171,19.694295097414834
2EF090D4-4B0C-0A22-E053-CC2BA8C0A0E1,0402,0402092,0849400,5640,Bielki,część wsi,65.0,53.13563831706268,19.60012666521655
2EF090D4-4B0D-0A22-E053-CC2BA8C0A0E1,0402,0402032,0841030,56629,Kominy,wieś,219.0,53.219543169035575,19.350251168451287
2EF090D4-4B0F-0A22-E053-CC2BA8C0A0E1,0402,0402062,0843827,56756,Komorowo,wieś,345.0,53.191181999060916,19.520678363832143
2EF090D4-4B10-0A22-E053-CC2BA8C0A0E1,0402,0402073,0844821,57176,Konojady,wieś,606.0,53.359655626697865,19.245232468015445
2EF090D4-4B11-0A22-E053-CC2BA8C0A0E1,0402,0402073,0844867,99971,Piecewo,wieś,401.0,53.38467441458632,19.173471892102576
2EF090D4-4B12-0A22-E053-CC2BA8C0A0E1,0402,0402102,0850603,71094,Ładnówko,wieś,89.0,53.39833086063129,19.35796067775667
2EF090D4-4B13-0A22-E053-CC2BA8C0A0E1,0402,0402102,0850566,17170,Ciche,wieś,432.0,53.38659707449337,19.38103247414892
2EF090D4-4B14-0A22-E053-CC2BA8C0A0E1,0402,0402062,0843744,24035,Długi Most,osada,2.0,53.26715848058967,19.583573564387468
2EF090D4-4B61-0A22-E053-CC2BA8C0A0E1,0402,0402092,0849540,79244,Michałki,wieś,247.0,53.11084671000899,19.490534437469602
2EF090D4-4B5E-0A22-E053-CC2BA8C0A0E1,0402,0402092,0849379,37838,Granaty,wieś,97.0,53.137099401429644,19.551437624998126
2EF090D4-4B5F-0A22-E053-CC2BA8C0A0E1,0402,0402062,0843738,38427,Grążawy,wieś,522.0,53.26172478170371,19.568330922689423
2EF090D4-4B60-0A22-E053-CC2BA8C0A0E1,0402,0402102,0850589,37264,Grabiny,osada,3.0,53.40804033358489,19.358829674128124
2EF090D4-4BB6-0A22-E053-CC2BA8C0A0E1,0402,0402053,0843572,90375,Nowy Świat,wieś,1.0,53.156295508081655,19.703048318409646
2EF090D4-4BB3-0A22-E053-CC2BA8C0A0E1,0402,0402102,0850595,50323,Karaś,osada,5.0,53.354968459519526,19.382402044427927
2EF090D4-4BB4-0A22-E053-CC2BA8C0A0E1,0402,0402032,0840993,50350,Karbowo,wieś,2191.0,53.29104585318311,19.43463555199846
2EF090D4-4BB5-0A22-E053-CC2BA8C0A0E1,0402,0402082,1027596,49680,Kamionka,kolonia,18.0,53.18246483473557,19.412090855128188
2EF090D4-4AC9-0A22-E053-CC2BA8C0A0E1,0402,0402092,0849422,103050,Pod Brodniczkę,część wsi,125.0,53.14692714210772,19.594714117026
2EF090D4-4AC5-0A22-E053-CC2BA8C0A0E1,0402,0402032,0841231,134922,Szczuka,wieś,525.0,53.215602153097684,19.44704627445397
2EF090D4-4AC6-0A22-E053-CC2BA8C0A0E1,0402,0402053,0843626,134975,Szczutowo,wieś,294.0,53.20647557512257,19.575991698655965
2EF090D4-4AC7-0A22-E053-CC2BA8C0A0E1,0402,0402092,0849451,134450,Szarłaty,część wsi,12.0,53.110227785998475,19.599010912514498
2EF090D4-4B18-0A22-E053-CC2BA8C0A0E1,0402,0402042,0841320,24034,Długi Most,osada,5.0,53.28606648991036,19.587694376266196
2EF090D4-4B15-0A22-E053-CC2BA8C0A0E1,0402,0402022,0840697,26515,Drużyny,wieś,304.0,53.27671951459377,19.32108843318959
2EF090D4-4B16-0A22-E053-CC2BA8C0A0E1,0402,0402032,0841219,26516,Drużyny,osada,11.0,53.26528357813695,19.330026355038584
2EF090D4-4B17-0A22-E053-CC2BA8C0A0E1,0402,0402053,0843431,23837,Diabelec,osada,4.0,53.21745854151761,19.718272538710508
2EF090D4-4B8D-0A22-E053-CC2BA8C0A0E1,0402,0402082,1027633,186621,Kretki,część wsi,2.0,53.17187882856608,19.401495729886406
2EF090D4-4B62-0A22-E053-CC2BA8C0A0E1,0402,0402011,0982990,79315,Michałowo,część miasta,360.0,53.25517786764592,19.427155205714826
2EF090D4-4B63-0A22-E053-CC2BA8C0A0E1,0402,0402102,1062836,79791,Mieliwo,osada,1.0,53.366108834919324,19.311304584929395
2EF090D4-4B65-0A22-E053-CC2BA8C0A0E1,0402,0402011,0983050,186496,Wybudowanie Michałowskie,część miasta,200.0,53.246463710359855,19.421255122578145
2EF090D4-4B8B-0A22-E053-CC2BA8C0A0E1,0402,0402062,0843773,42292,Igliczyzna,wieś,105.0,53.21152832674515,19.48241394906574
2EF090D4-4B8C-0A22-E053-CC2BA8C0A0E1,0402,0402092,0849557,88109,Rokitnica Nowa,wieś,216.0,53.15399510033784,19.529067743764948
2EF090D4-4B8E-0A22-E053-CC2BA8C0A0E1,0402,0402082,1027656,186622,Łosia Góra,część wsi,2.0,53.16631845919156,19.46345346354661
2EF090D4-4B8F-0A22-E053-CC2BA8C0A0E1,0402,0402082,1027679,186623,Nowe Osiedle,część wsi,5.0,53.13859408098504,19.353471911951065
2EF090D4-4B90-0A22-E053-CC2BA8C0A0E1,0402,0402082,1027685,186625,Parcele Kretkowskie,część wsi,12.0,53.15103348504915,19.45279740219339
2EF090D4-4B1B-0A22-E053-CC2BA8C0A0E1,0402,0402102,0850684,57383,Koń,wieś,10.0,53.38276825737258,19.337069276387176
2EF090D4-4ACA-0A22-E053-CC2BA8C0A0E1,0402,0402082,1027768,103817,Pod Wólką,część wsi,18.0,53.1724584626456,19.43063527839578
2EF090D4-4ACC-0A22-E053-CC2BA8C0A0E1,0402,0402092,0849439,103843,Pod Zduny,część wsi,58.0,53.12627609015568,19.582605966459123
2EF090D4-4ACD-0A22-E053-CC2BA8C0A0E1,0402,0402042,0841350,135288,Szerokie,kolonia,32.0,53.2982072148807,19.56725385603618
2EF090D4-4B19-0A22-E053-CC2BA8C0A0E1,0402,0402082,1027627,58248,Korczakownia,kolonia,38.0,53.14814571145069,19.4125433070835
2EF090D4-4B1A-0A22-E053-CC2BA8C0A0E1,0402,0402092,0849600,59782,Kotownica,część wsi,28.0,53.08587711466467,19.58357890176309
2EF090D4-4B1C-0A22-E053-CC2BA8C0A0E1,0402,0402032,0841047,60313,Kozi Róg,wieś,129.0,53.192431780124366,19.434460731699556
2EF090D4-4B6A-0A22-E053-CC2BA8C0A0E1,0402,0402011,0982983,39565,Grunwald Pierwszy,część miasta,256.0,53.258497570912425,19.38144349081043
2EF090D4-4B67-0A22-E053-CC2BA8C0A0E1,0402,0402032,0841082,186503,Nowe Moczadła,kolonia,48.0,53.23330798177033,19.410299629940276
2EF090D4-4B68-0A22-E053-CC2BA8C0A0E1,0402,0402042,0841395,186513,Smolne Trepki,część wsi,12.0,53.2797281189333,19.597448675902513
2EF090D4-4B69-0A22-E053-CC2BA8C0A0E1,0402,0402011,0982977,39564,Grunwald Drugi,część miasta,658.0,53.26191395767217,19.382833343792655
2EF090D4-4B6B-0A22-E053-CC2BA8C0A0E1,0402,0402092,0849385,39864,Grzęby,wieś,204.0,53.12365069566017,19.516329918894623
c0f99b00-c261-11e8-b8fe-f01faf546c5e,0402,0402032,0841107,111564,Przydatki,osada,108.0,53.21588255839545,19.404478812523163
2EF090D4-4BC3-0A22-E053-CC2BA8C0A0E1,0402,0402092,0849623,95294,Ostrów,wieś,73.0,53.16796360311126,19.547232413587302
2EF090D4-4BC4-0A22-E053-CC2BA8C0A0E1,0402,0402092,0849712,96044,Ozorkowo,część wsi,22.0,53.114070071933995,19.525063400698038
2EF090D4-4BC5-0A22-E053-CC2BA8C0A0E1,0402,0402022,0840817,97790,Pasieki,wieś,116.0,53.24913098904391,19.24598563401728
a50b5b4f-e70e-4dc2-a89d-cf0b44c7b5b4,0402,0402053,0843460,140268,Traczyska,osada,20.0,53.23183150116889,19.705028662354906
b5957f92-c261-11e8-a58c-f01faf546c5e,0402,0402062,0843900,248208,Samin,osada,1.0,53.28005567567535,19.640547771475084
2EF090D4-4B94-0A22-E053-CC2BA8C0A0E1,0402,0402073,0844790,42913,Jabłonowo-Zamek,wieś,390.0,53.385564606011634,19.128189447922253
2EF090D4-4AC8-0A22-E053-CC2BA8C0A0E1,0402,0402073,0844880,134704,Szczepanki,wieś,319.0,53.406147657426295,19.15368473192285
2EF090D4-4AAB-0A22-E053-CC2BA8C0A0E1,0402,0402073,0844749,13102,Buk Pomorski,wieś,282.0,53.42435294596759,19.15580672972052
2EF090D4-4ACB-0A22-E053-CC2BA8C0A0E1,0402,0402073,0844710,102629,Płowężek,osada,96.0,53.44099249477903,19.184907902397512
2EF090D4-4AEA-0A22-E053-CC2BA8C0A0E1,0402,0402073,0844703,115,Adamowo,wieś,24.0,53.43599071014858,19.17543709498536
2EF090D4-4AC4-0A22-E053-CC2BA8C0A0E1,0402,0402073,0844873,102628,Płowęż,wieś,352.0,53.4393812409393,19.22667068728577
2749D56E-5D32-549F-E053-CC2BA8C0814F,0403,0403052,0092686,22181,Dąbrowa Wielka,wieś,233.0,52.953072184219856,18.185710655660564
d911f8b0-2ead-4cc3-a824-3da29087820f,0402,0402032,0841076,82148,Moczadła,wieś,526.0,53.22599425504191,19.393975589244558
10c05a52-5c5e-4622-82ef-2b9bed902960,0402,0402032,0841076,82148,Moczadła,wieś,526.0,53.23331077582694,19.410312616909767
2749D56E-5D2F-549F-E053-CC2BA8C0814F,0403,0403062,0093579,87541,Niwy,wieś,1033.0,53.197292897181484,18.09980358875014
2749D56E-5D30-549F-E053-CC2BA8C0814F,0403,0403032,0084586,152075,Wudzyn,wieś,936.0,53.326274050139226,18.07358638182729
2749D56E-5D31-549F-E053-CC2BA8C0814F,0403,0403043,0088911,61623,Krąpiewo,wieś,228.0,53.28351113949663,17.76665056291453
2749D56E-5D33-549F-E053-CC2BA8C0814F,0403,0403052,0092640,11614,Brzoza,wieś,3001.0,53.039134041027125,18.043689967678304
2749D56E-5D34-549F-E053-CC2BA8C0814F,0403,0403052,0092752,67555,Leszyce,wieś,97.0,52.98975324274085,18.150681185917193
2749D56E-5D97-549F-E053-CC2BA8C0814F,0403,0403043,0089081,90065,Nowy Jasiniec,wieś,241.0,53.347890589633025,18.0280861916562
2749D56E-5D61-549F-E053-CC2BA8C0814F,0403,0403072,0095450,82122,Mochle,wieś,565.0,53.21389945118168,17.867043202620525
2749D56E-5D62-549F-E053-CC2BA8C0814F,0403,0403022,0084310,143873,Wałdowo Królewskie,wieś,665.0,53.15253043938073,18.272685609129685
2749D56E-5D94-549F-E053-CC2BA8C0814F,0403,0403043,0089046,89935,Nowy Dwór,wieś,627.0,53.337290741493774,17.895130482571155
2749D56E-5D95-549F-E053-CC2BA8C0814F,0403,0403043,0089201,126188,Sokole-Kuźnica,wieś,78.0,53.389063865791904,17.918548214683987
2749D56E-5D96-549F-E053-CC2BA8C0814F,0403,0403043,0929285,58501,Koronowo,miasto,9866.0,53.32475275021461,17.950243605713997
2749D56E-5D98-549F-E053-CC2BA8C0814F,0403,0403043,0088822,33027,Glinki,wieś,173.0,53.373919520683046,18.016725705783863
2749D56E-5DCD-549F-E053-CC2BA8C0814F,0403,0403052,0092663,29491,Emilianowo,osada,7.0,53.05497835276903,18.093349734180375
2749D56E-5DCE-549F-E053-CC2BA8C0814F,0403,0403052,1028041,23240,Dębinka,osada leśna,2.0,52.9851992774888,18.14732836822305
2749D56E-5DD2-549F-E053-CC2BA8C0814F,0403,0403083,0095957,72010,Łażyn,osada leśna,2.0,53.0633029205724,18.17061395162425
2749D56E-5DCF-549F-E053-CC2BA8C0814F,0403,0403052,0092670,100001,Piecki,osada,16.0,53.030503401938354,18.062509067242388
2749D56E-5DD0-549F-E053-CC2BA8C0814F,0403,0403083,1028058,186849,Chrośna,osada leśna,167.0,52.994905577729085,18.209795653317705
2749D56E-5DD1-549F-E053-CC2BA8C0814F,0403,0403083,0095940,121997,Siedmiogóry,część wsi,5.0,53.07122697457418,18.14298978831094
2749D56E-5D35-549F-E053-CC2BA8C0814F,0403,0403032,0084592,152077,Wudzynek,wieś,307.0,53.32329794814567,18.104562237190564
2749D56E-5D36-549F-E053-CC2BA8C0814F,0403,0403072,0095733,147156,Wierzchucice,wieś,146.0,53.26309979969279,17.786158261975057
2749D56E-5DD4-549F-E053-CC2BA8C0814F,0403,0403032,0084505,133673,Suponin,wieś,165.0,53.263270735137624,18.247319697418757
2749D56E-5D37-549F-E053-CC2BA8C0814F,0403,0403083,0095791,16564,Chrośna,wieś,164.0,52.988393125956655,18.21929331888642
2749D56E-5D38-549F-E053-CC2BA8C0814F,0403,0403083,0095934,153137,Wypaleniska,wieś,54.0,53.054751151044194,18.17299691438904
2749D56E-5DD3-549F-E053-CC2BA8C0814F,0403,0403022,0084155,23633,Dębowiec,wieś,177.0,53.23668049020377,18.301713052011745
2749D56E-5DD5-549F-E053-CC2BA8C0814F,0403,0403022,0084161,40517,Gzin,wieś,613.0,53.20398941372252,18.321810714690315
2749D56E-5DDC-549F-E053-CC2BA8C0814F,0403,0403083,0929581,156011,Zagórzanka,część miasta,12.0,53.05852767916156,18.221113922451345
2749D56E-5DD7-549F-E053-CC2BA8C0814F,0403,0403012,1027857,186698,Rowiec,część wsi,400.0,53.09625004602698,17.842007130261006
2749D56E-5DD8-549F-E053-CC2BA8C0814F,0403,0403012,0079585,168090,Łochowo,osada leśna,4.0,53.12467559259927,17.811575556971626
2749D56E-5DDB-549F-E053-CC2BA8C0814F,0403,0403083,0095970,118249,Rudy,osada,120.0,53.05944455655558,18.178529113427
2749D56E-5DDD-549F-E053-CC2BA8C0814F,0403,0403083,0095816,16055,Osiek,osada leśna,2.0,52.98570278602071,18.310234778295786
2749D56E-5DDE-549F-E053-CC2BA8C0814F,0403,0403072,0095667,49011,Kamieniec,osada,71.0,53.16746816535013,17.805469789709548
2749D56E-5DDF-549F-E053-CC2BA8C0814F,0403,0403072,0095549,140820,Trzciniec,osada,25.0,53.18773304041539,17.808300069465073
2749D56E-5DE3-549F-E053-CC2BA8C0814F,0403,0403083,0095897,47819,Kabat,przysiółek,9.0,53.05168203509914,18.27434442677252
2749D56E-5DE0-549F-E053-CC2BA8C0814F,0403,0403072,0095650,43856,Janin,osada,52.0,53.176126820644264,17.778125034531598
2749D56E-5DE1-549F-E053-CC2BA8C0814F,0403,0403083,0095822,16054,Chojnaty,osada leśna,2.0,52.99118318784469,18.296203982608905
2749D56E-5DE2-549F-E053-CC2BA8C0814F,0403,0403083,0095880,46465,Jezierce,osada leśna,5.0,53.0534209634133,18.264042318606318
2749D56E-5DE4-549F-E053-CC2BA8C0814F,0403,0403083,0095845,44737,Jarzębiec,osada leśna,1.0,52.98703137191871,18.32991578998148
2749D56E-5DE5-549F-E053-CC2BA8C0814F,0403,0403083,0095905,67305,Lesisko,osada leśna,2.0,52.99817668155298,18.376186257793446
2749D56E-5DE6-549F-E053-CC2BA8C0814F,0403,0403083,0095928,143259,Ustronie,osada leśna,10.0,53.04359275273704,18.31984933877613
2749D56E-5DE7-549F-E053-CC2BA8C0814F,0403,0403083,0095874,38997,Grodzyna,osada leśna,2.0,53.041009029111216,18.33851367203127
2749D56E-5DE9-549F-E053-CC2BA8C0814F,0403,0403052,0092812,143913,Wałownica,osada,388.0,53.02380487254664,18.007597233354023
2749D56E-5DEA-549F-E053-CC2BA8C0814F,0403,0403012,0079504,44910,Jasiniec,osada,2.0,53.096613495007574,17.874863226027276
2749D56E-5DEE-549F-E053-CC2BA8C0814F,0403,0403062,0093556,168092,Jagodowo,osada leśna,3.0,53.19003162887183,18.024198850671198
2749D56E-5DEB-549F-E053-CC2BA8C0814F,0403,0403012,0079616,68923,Lipniki,osada leśna,5.0,53.09672711089934,17.885866332857518
2749D56E-5DEC-549F-E053-CC2BA8C0814F,0403,0403012,0079556,186686,Czersko Krajeńskie,część wsi,5.0,53.12546056895194,17.876348185562378
2749D56E-5DED-549F-E053-CC2BA8C0814F,0403,0403072,0095578,186826,Osowa Góra,część wsi,39.0,53.16610378878432,17.89537550977916
2749D56E-5D39-549F-E053-CC2BA8C0814F,0403,0403062,0093622,84575,Myślęcinek,wieś,488.0,53.17663738285943,18.054442973511524
2749D56E-5D3A-549F-E053-CC2BA8C0814F,0403,0403062,0093616,19367,Czarnówczyn,wieś,66.0,53.16720031833778,18.085422771772617
2749D56E-5D3B-549F-E053-CC2BA8C0814F,0403,0403062,0093600,94368,Osielsko,wieś,5519.0,53.181513054842455,18.090498160150002
2749D56E-5D64-549F-E053-CC2BA8C0814F,0403,0403022,0084132,22127,Dąbrowa Chełmińska,wieś,2243.0,53.18431937550838,18.284378715916084
2749D56E-5D3C-549F-E053-CC2BA8C0814F,0403,0403022,0084296,124739,Słończ,wieś,81.0,53.2206828296973,18.24085351497699
2749D56E-5D3D-549F-E053-CC2BA8C0814F,0403,0403032,0084534,141238,Trzęsacz,wieś,267.0,53.23711256616613,18.215714005035053
2749D56E-5D63-549F-E053-CC2BA8C0814F,0403,0403022,0084089,8080,Bolumin,wieś,257.0,53.138962979244496,18.28889182112954
2749D56E-5DEF-549F-E053-CC2BA8C0814F,0403,0403062,0093540,43268,Jagodowo,osada,231.0,53.19887212728149,18.052084758686405
2749D56E-5D65-549F-E053-CC2BA8C0814F,0403,0403012,0079622,109992,Prądki,wieś,481.0,53.04856868799016,17.928207136150277
2749D56E-5D66-549F-E053-CC2BA8C0814F,0403,0403052,0092717,43411,Jakubowo,wieś,80.0,52.968068922750945,18.02198986043339
2749D56E-5D67-549F-E053-CC2BA8C0814F,0403,0403052,0092798,89156,Nowe Smolno,wieś,217.0,52.993123157314145,18.00241510630747
2749D56E-5DF5-549F-E053-CC2BA8C0814F,0403,0403072,0095609,78106,Marynin,kolonia,39.0,53.228064917272874,17.678249713467757
2749D56E-5DF2-549F-E053-CC2BA8C0814F,0403,0403062,0093591,118877,Rybieniec,część wsi,2.0,53.195893176632495,18.08466576277031
2749D56E-5DF3-549F-E053-CC2BA8C0814F,0403,0403083,0929575,186846,Przylubie Polskie,część miasta,2.0,53.07780423059188,18.28831851970821
2749D56E-5DF4-549F-E053-CC2BA8C0814F,0403,0403022,0084149,68285,Linie,przysiółek,38.0,53.182750021504695,18.323325219067392
2749D56E-5DF6-549F-E053-CC2BA8C0814F,0403,0403072,0095710,34886,Goncarzewy,osada,156.0,53.19704749258881,17.744275247119415
2749D56E-5D6A-549F-E053-CC2BA8C0814F,0403,0403012,0079639,111945,Przyłęki,wieś,1552.0,53.04041425195561,17.96965676452243
2749D56E-5DF7-549F-E053-CC2BA8C0814F,0403,0403072,0095510,124998,Słupowo,osada,185.0,53.25837114415294,17.7269154039967
2749D56E-5DF8-549F-E053-CC2BA8C0814F,0403,0403072,1062747,110242,Prosperowo,osada,10.0,53.25854683313642,17.74327385417256
2749D56E-5DF9-549F-E053-CC2BA8C0814F,0403,0403032,0084445,68334,Linówiec,wieś,87.0,53.2495827170916,18.104669263755497
2749D56E-5D3E-549F-E053-CC2BA8C0814F,0403,0403043,0089320,147160,Wierzchucin Królewski,wieś,582.0,53.30606401864303,17.7802992821767
2749D56E-5D3F-549F-E053-CC2BA8C0814F,0403,0403043,0088868,34289,Gogolin,wieś,223.0,53.276297794154345,17.815081341988915
2749D56E-5D68-549F-E053-CC2BA8C0814F,0403,0403052,0092746,55816,Kolankowo,wieś,60.0,52.978215277287994,18.027679996101885
2749D56E-5D69-549F-E053-CC2BA8C0814F,0403,0403052,0092806,92437,Olimpin,wieś,690.0,53.02347297756897,17.9881868987651
2749D56E-5D6B-549F-E053-CC2BA8C0814F,0403,0403072,0095673,134969,Szczutki,wieś,232.0,53.20617468802203,17.89270402592264
2749D56E-5D6C-549F-E053-CC2BA8C0814F,0403,0403043,0089388,152062,Wtelno,wieś,1003.0,53.243113354964585,17.887093559895902
2749D56E-5DFD-549F-E053-CC2BA8C0814F,0403,0403032,0084630,50395,Karczemka,wieś,79.0,53.27366954556055,18.08728788516166
2749D56E-5D99-549F-E053-CC2BA8C0814F,0403,0403032,0084474,131848,Stronno,wieś,946.0,53.29280379408837,18.069377788129437
2749D56E-5D9A-549F-E053-CC2BA8C0814F,0403,0403032,0084400,75266,Magdalenka,wieś,121.0,53.26440421434438,18.110981591871752
2749D56E-5DFA-549F-E053-CC2BA8C0814F,0403,0403032,0084416,77366,Marcelewo,kolonia,66.0,53.264804765681,18.075977846728488
2749D56E-5DFB-549F-E053-CC2BA8C0814F,0403,0403032,0088710,325,Aleksandrowiec,osada leśna,81.0,53.30736651765579,18.06446854208086
2749D56E-5DFC-549F-E053-CC2BA8C0814F,0403,0403043,0088733,131849,Stronno,osada leśna,2.0,53.27551916342862,18.083383985610936
2749D56E-5DFE-549F-E053-CC2BA8C0814F,0403,0403032,0084617,50787,Karolewo,osada,116.0,53.30785462711714,18.09691294227959
2749D56E-5DFF-549F-E053-CC2BA8C0814F,0403,0403072,0095727,51246,Kasprowo,osada,77.0,53.21303319990991,17.76631646939772
2749D56E-5D9B-549F-E053-CC2BA8C0814F,0403,0403032,0084623,157402,Zalesie,wieś,136.0,53.279835370607884,18.09934815758121
2749D56E-5D40-549F-E053-CC2BA8C0814F,0403,0403083,0095851,95852,Otorowo,wieś,317.0,53.084662296937125,18.16784908753653
2749D56E-5D41-549F-E053-CC2BA8C0814F,0403,0403083,0095800,75827,Makowiska,wieś,161.0,53.07023548542293,18.162416289982616
2749D56E-5D6D-549F-E053-CC2BA8C0814F,0403,0403022,0084267,95855,Otowice,wieś,185.0,53.17139143770061,18.33744881109018
2749D56E-5D6E-549F-E053-CC2BA8C0814F,0403,0403022,0084095,8081,Boluminek,wieś,195.0,53.16222648798566,18.29874887941758
2749D56E-5D6F-549F-E053-CC2BA8C0814F,0403,0403052,0092730,55038,Kobylarnia,wieś,565.0,53.007126776213724,18.002268189463255
2749D56E-5E06-549F-E053-CC2BA8C0814F,0403,0403043,1027886,526,Ameryka,część wsi,2.0,53.34976675379444,18.04474307236695
2749D56E-5D9C-549F-E053-CC2BA8C0814F,0403,0403072,0095621,121700,Sicienko,wieś,934.0,53.20624425698206,17.79691900816201
2749D56E-5D9D-549F-E053-CC2BA8C0814F,0403,0403072,0095680,141168,Trzemiętowo,wieś,437.0,53.233813298720314,17.765793435712165
2749D56E-5D42-549F-E053-CC2BA8C0814F,0403,0403032,0084356,24687,Dobrcz,wieś,1963.0,53.26200432828515,18.14825834017773
2749D56E-5D43-549F-E053-CC2BA8C0814F,0403,0403032,0084468,122342,Sienno,wieś,712.0,53.283967784409896,18.158657751073104
2749D56E-5D70-549F-E053-CC2BA8C0814F,0403,0403012,0079651,161386,Zielonka,wieś,2306.0,53.0616748980385,17.949553230383255
2749D56E-5D71-549F-E053-CC2BA8C0814F,0403,0403012,0079600,68924,Lipniki,wieś,477.0,53.08556375395086,17.86220895134475
2749D56E-5D9E-549F-E053-CC2BA8C0814F,0403,0403072,0095696,141169,Trzemiętówko,wieś,92.0,53.23700578366596,17.7965138066878
2749D56E-5D9F-549F-E053-CC2BA8C0814F,0403,0403052,0092700,28746,Dziemionna,wieś,672.0,52.966319612179426,18.07672672339045
2749D56E-5E05-549F-E053-CC2BA8C0814F,0403,0403032,0084362,98470,Pauliny,osada,133.0,53.25768335613974,18.12870935732572
2749D56E-5E07-549F-E053-CC2BA8C0814F,0403,0403043,0088845,118175,Rudno,osada leśna,5.0,53.378084609509905,18.043365464645703
2749D56E-5E08-549F-E053-CC2BA8C0814F,0403,0403043,1027900,34298,Gogoliński Młyn,część wsi,5.0,53.28684253634795,17.8009490487271
2749D56E-5E0C-549F-E053-CC2BA8C0814F,0403,0403043,1027917,186755,Kacze Doły,część wsi,8.0,53.35992749626612,17.713924206623293
2749D56E-5E09-549F-E053-CC2BA8C0814F,0403,0403043,0088791,130946,Stefanowo,osada,8.0,53.30421730335062,17.836149193944014
2749D56E-5E0A-549F-E053-CC2BA8C0814F,0403,0403043,1027946,186770,Młynki,część wsi,2.0,53.28541219533315,17.801509480409642
2749D56E-5E0B-549F-E053-CC2BA8C0814F,0403,0403043,1027969,186775,Na Polach,część wsi,10.0,53.348237130032786,17.71940084138333
2749D56E-5D74-549F-E053-CC2BA8C0814F,0403,0403072,0095561,94742,Osówiec,wieś,1414.0,53.17792716442353,17.905959010483333
2749D56E-5D44-549F-E053-CC2BA8C0814F,0403,0403043,0089371,148883,Witoldowo,wieś,340.0,53.26267314982965,17.83968207972606
2749D56E-5D45-549F-E053-CC2BA8C0814F,0403,0403043,0088779,14184,Byszewo,wieś,134.0,53.30195743092893,17.829404530655637
2749D56E-5D46-549F-E053-CC2BA8C0814F,0403,0403022,0084304,132544,Strzyżawa,wieś,250.0,53.12256993861685,18.182289663293762
2749D56E-5D72-549F-E053-CC2BA8C0814F,0403,0403012,0079540,69274,Lisi Ogon,wieś,906.0,53.13201129514502,17.871698009474738
2749D56E-5D73-549F-E053-CC2BA8C0814F,0403,0403072,0095584,98638,Pawłówek,wieś,559.0,53.15481091668276,17.87042748130266
2749D56E-5DA0-549F-E053-CC2BA8C0814F,0403,0403052,0092723,44422,Januszkowo,wieś,213.0,52.97771383541699,18.063646543670064
2749D56E-5DA4-549F-E053-CC2BA8C0814F,0403,0403032,0084422,113534,Pyszczyn,wieś,161.0,53.267580323707094,18.107483552882297
2749D56E-5DA1-549F-E053-CC2BA8C0814F,0403,0403062,0093510,44671,Jarużyn,wieś,744.0,53.19151249801925,18.148498742198324
2749D56E-5DA2-549F-E053-CC2BA8C0814F,0403,0403032,0084557,149319,Włóki,wieś,225.0,53.24309711762348,18.188680303889356
2749D56E-5DA3-549F-E053-CC2BA8C0814F,0403,0403032,0084327,9230,Borówno,wieś,772.0,53.23936539540027,18.138376646123092
2749D56E-5DA5-549F-E053-CC2BA8C0814F,0403,0403032,0084385,59749,Kotomierz,wieś,995.0,53.29685254162477,18.11295241226419
2749D56E-5E1F-549F-E053-CC2BA8C0814F,0403,0403043,1027975,92874,Olszyniec,osada,5.0,53.236166253700155,17.942665076845643
2749D56E-5E20-549F-E053-CC2BA8C0814F,0403,0403043,0089170,73981,Ługowo,osada leśna,2.0,53.251559474228785,17.94066279302406
2749D56E-5E21-549F-E053-CC2BA8C0814F,0403,0403043,0089112,131520,Stopka,osada,283.0,53.284902620676604,17.9301207820133
2749D56E-5E22-549F-E053-CC2BA8C0814F,0403,0403062,0093504,9620,Zdroje,osada,10.0,53.203098182982124,17.94464897570085
2749D56E-5E26-549F-E053-CC2BA8C0814F,0403,0403043,0089164,4234,Białe,osada leśna,2.0,53.27269392222693,17.974800513352385
2749D56E-5E23-549F-E053-CC2BA8C0814F,0403,0403043,1027930,81391,Młotki,część wsi,25.0,53.26473759994659,17.90380491827664
2749D56E-5E24-549F-E053-CC2BA8C0814F,0403,0403043,0089282,5918,Bieskowo,osada,121.0,53.31006879678383,17.908714830749872
2749D56E-5E25-549F-E053-CC2BA8C0814F,0403,0403062,0093480,72122,Łącznica,część wsi,40.0,53.23246220121336,17.959257400018377
2749D56E-5D47-549F-E053-CC2BA8C0814F,0403,0403022,0084215,146057,Wielka Kępa,wieś,7.0,53.17136126723651,18.205756608864757
2749D56E-5DA6-549F-E053-CC2BA8C0814F,0403,0403032,0084379,32035,Gądecz,wieś,254.0,53.22686630939415,18.17029450112891
2749D56E-5D48-549F-E053-CC2BA8C0814F,0403,0403032,0084511,140963,Trzebień,wieś,253.0,53.30371597298056,18.148030793750085
2749D56E-5D49-549F-E053-CC2BA8C0814F,0403,0403032,0084528,141135,Trzeciewiec,wieś,432.0,53.26441128709321,18.202007101818356
2749D56E-5D75-549F-E053-CC2BA8C0814F,0403,0403062,0093562,86787,Niemcz,wieś,4170.0,53.18612955372542,18.0325712960039
2749D56E-5D76-549F-E053-CC2BA8C0814F,0403,0403043,0089313,83391,Morzewiec,wieś,221.0,53.220572799621856,17.904652986118787
2749D56E-5D77-549F-E053-CC2BA8C0814F,0403,0403043,0089307,140692,Tryszczyn,wieś,1135.0,53.226196911070204,17.92679399657302
2749D56E-5DA7-549F-E053-CC2BA8C0814F,0403,0403032,0084570,42199,Hutna Wieś,wieś,81.0,53.23262560218812,18.18325761578503
2749D56E-5D4A-549F-E053-CC2BA8C0814F,0403,0403032,0084540,161855,Zła Wieś,wieś,10.0,53.23707910088075,18.23453612921831
2749D56E-5DA8-549F-E053-CC2BA8C0814F,0403,0403072,0095532,22331,Dąbrówczyn,wieś,37.0,53.197058199934105,17.816476977927582
2749D56E-5DA9-549F-E053-CC2BA8C0814F,0403,0403072,0095756,149662,Wojnowo,wieś,660.0,53.21072373553815,17.83109422158035
2749D56E-5DAA-549F-E053-CC2BA8C0814F,0403,0403052,0092835,138865,Tarkowo Dolne,wieś,474.0,52.95119484604545,18.116422828955592
2749D56E-5D7A-549F-E053-CC2BA8C0814F,0403,0403062,0093645,163927,Żołędowo,wieś,1911.0,53.239064439623185,18.04577595423071
2749D56E-5D4B-549F-E053-CC2BA8C0814F,0403,0403043,0088905,42009,Huta,wieś,171.0,53.34699720859701,17.70776898903278
2749D56E-5D78-549F-E053-CC2BA8C0814F,0403,0403043,0088800,14209,Bytkowice,wieś,111.0,53.273624921995264,17.88582978625054
2749D56E-5D79-549F-E053-CC2BA8C0814F,0403,0403062,0093533,75889,Maksymilianowo,wieś,1678.0,53.20986020087628,18.03317562181835
2749D56E-5E0E-549F-E053-CC2BA8C0814F,0403,0403062,0093473,9619,Bożenkowo,wieś,486.0,53.21228777072166,17.985098327817038
2749D56E-5D7B-549F-E053-CC2BA8C0814F,0403,0403012,0079510,17359,Ciele,wieś,1775.0,53.06764539911398,17.90489621846822
2749D56E-5DAB-549F-E053-CC2BA8C0814F,0403,0403052,0092781,88526,Nowa Wioska,wieś,162.0,52.962039817313595,18.12947252174168
2749D56E-5DAC-549F-E053-CC2BA8C0814F,0403,0403022,0084280,114376,Rafa,wieś,122.0,53.20653828144102,18.2104638831951
2749D56E-5DAD-549F-E053-CC2BA8C0814F,0403,0403032,0084497,132355,Strzelce Górne,wieś,907.0,53.2120711165209,18.15013564623283
2749D56E-5E0D-549F-E053-CC2BA8C0814F,0403,0403022,1027863,198356,Nowa Wieś Szlachecka,część wsi,52.0,53.23851058607419,18.274100716611265
2749D56E-5E0F-549F-E053-CC2BA8C0814F,0403,0403022,0084244,95031,Ostromecko,wieś,991.0,53.142211675966166,18.227440377115443
2749D56E-5D7F-549F-E053-CC2BA8C0814F,0403,0403072,0095590,120668,Samsieczno,wieś,190.0,53.22284740502587,17.703876687463328
2749D56E-5E10-549F-E053-CC2BA8C0814F,0403,0403022,0084250,76358,Mała Kępa,wieś,46.0,53.12314019338255,18.15098281521785
2749D56E-5E11-549F-E053-CC2BA8C0814F,0403,0403043,1027998,186786,Stara Huta,część wsi,10.0,53.36312838580718,17.717245767991653
2749D56E-5D4C-549F-E053-CC2BA8C0814F,0403,0403043,0089365,148546,Wiskitno,wieś,499.0,53.33380902322767,17.756108457769603
2749D56E-5D4D-549F-E053-CC2BA8C0814F,0403,0403022,0084209,83822,Mozgowina,wieś,60.0,53.164929344690144,18.216575872224332
2749D56E-5D7C-549F-E053-CC2BA8C0814F,0403,0403012,0079527,26609,Drzewce,wieś,268.0,53.10304482120518,17.857779159442103
2749D56E-5D7D-549F-E053-CC2BA8C0814F,0403,0403012,0079496,4538,Białe Błota,wieś,6021.0,53.09384670372182,17.921472823312502
2749D56E-5D7E-549F-E053-CC2BA8C0814F,0403,0403012,0079645,140822,Trzciniec,wieś,423.0,53.08317084254897,17.946765431145604
2749D56E-5E2A-549F-E053-CC2BA8C0814F,0403,0403043,0088740,147757,Wilcze Gardło,osada leśna,25.0,53.309267477389255,17.992727394053777
2749D56E-5DAE-549F-E053-CC2BA8C0814F,0403,0403072,0095555,88577,Nowaczkowo,wieś,103.0,53.23853274168822,17.81458308467987
2749D56E-5DAF-549F-E053-CC2BA8C0814F,0403,0403043,0088874,34296,Gogolinek,wieś,172.0,53.2472909393618,17.847787888978942
2749D56E-5E27-549F-E053-CC2BA8C0814F,0403,0403043,0929374,141889,Tuszyny,część miasta,900.0,53.30428391156187,17.96864931431402
2749D56E-5E28-549F-E053-CC2BA8C0814F,0403,0403043,0088727,186782,Osiedle Awaryjne,osada,10.0,53.27776422646579,17.971431588785215
2749D56E-5E29-549F-E053-CC2BA8C0814F,0403,0403043,0929322,186726,Probostwo,część miasta,2.0,53.29904356760046,17.955018943011556
2749D56E-5E2B-549F-E053-CC2BA8C0814F,0403,0403043,0088762,186744,Grzmotny Młyn,część wsi,5.0,53.35850545780459,17.86028223250491
2749D56E-5E2C-549F-E053-CC2BA8C0814F,0403,0403043,0089218,168091,Kadzionka,osada leśna,2.0,53.36627178567089,17.873157222035747
ab413bc0-c288-11e8-89b2-f01faf546c5e,0403,0403043,0088785,14185,Byszewo,osada leśna,5.0,53.300582815381,17.844126117830523
ab413bc1-c288-11e8-a84d-f01faf546c5e,0403,0403062,0093496,90218,Nowy Mostek,osada leśna,2.0,53.25454785404471,18.025369582879993
2749D56E-5D51-549F-E053-CC2BA8C0814F,0403,0403022,0084184,40518,Gzin Dolny,wieś,89.0,53.21789029465586,18.29632351934785
2749D56E-5D4E-549F-E053-CC2BA8C0814F,0403,0403022,0084273,100467,Pień,wieś,53.0,53.18390102535705,18.219315214504594
2749D56E-5D4F-549F-E053-CC2BA8C0814F,0403,0403083,0095868,111963,Przyłubie,wieś,216.0,53.02507125447808,18.271141608362257
2749D56E-5D50-549F-E053-CC2BA8C0814F,0403,0403083,0929552,126426,Solec Kujawski,miasto,13876.0,53.073231710230665,18.23590256724943
2749D56E-5D84-549F-E053-CC2BA8C0814F,0403,0403062,0093651,173933,Jastrzębie,wieś,213.0,53.20669270436824,18.086790085157922
2749D56E-5D80-549F-E053-CC2BA8C0814F,0403,0403072,0095615,139450,Teresin,wieś,233.0,53.20044772298947,17.72303751108827
2749D56E-5D81-549F-E053-CC2BA8C0814F,0403,0403043,0089141,120506,Salno,wieś,217.0,53.28949393645299,17.85630410922395
2749D56E-5DB0-549F-E053-CC2BA8C0814F,0403,0403052,0092775,88504,Nowa Wieś Wielka,wieś,2348.0,52.97684057338076,18.09796714190169
2749D56E-5DB1-549F-E053-CC2BA8C0814F,0403,0403052,0092692,24748,Dobromierz,wieś,210.0,52.992436547991794,18.101026131866355
2749D56E-5DB2-549F-E053-CC2BA8C0814F,0403,0403052,0092829,110007,Prądocin,wieś,939.0,52.995687316694934,18.063436460317664
2749D56E-5D52-549F-E053-CC2BA8C0814F,0403,0403022,0084103,8556,Borki,wieś,55.0,53.22434110611302,18.30649733148573
2749D56E-5D53-549F-E053-CC2BA8C0814F,0403,0403043,0089129,94284,Osiek,wieś,77.0,53.35493636969989,17.736541883329764
2749D56E-5D82-549F-E053-CC2BA8C0814F,0403,0403043,0089336,147406,Więzowno,wieś,392.0,53.30104105448988,17.883719442932183
2749D56E-5D83-549F-E053-CC2BA8C0814F,0403,0403043,0088880,35416,Gościeradz,wieś,444.0,53.26495907625338,17.924482518372212
2749D56E-5E13-549F-E053-CC2BA8C0814F,0403,0403043,0088940,173927,Wilcza Góra,część wsi,5.0,53.366745434630964,17.835188136757125
2749D56E-5DB3-549F-E053-CC2BA8C0814F,0403,0403032,0084480,132354,Strzelce Dolne,wieś,209.0,53.21077035993858,18.185554561119705
2749D56E-5DB4-549F-E053-CC2BA8C0814F,0403,0403032,0084333,331,Aleksandrowo,wieś,255.0,53.222474583456936,18.14101865427215
2749D56E-5E12-549F-E053-CC2BA8C0814F,0403,0403043,1027923,49678,Kamionka,część wsi,15.0,53.37325577005561,17.713041607562786
2749D56E-5E17-549F-E053-CC2BA8C0814F,0403,0403043,0089017,78756,Rybkowo,część wsi,32.0,53.407372598698586,17.790497121421943
2749D56E-5E14-549F-E053-CC2BA8C0814F,0403,0403043,1027952,186771,Na Nowej Szosie,część wsi,10.0,53.36775023208022,17.843202805388128
2749D56E-5E15-549F-E053-CC2BA8C0814F,0403,0403043,1028006,144876,Wejnowo,część wsi,15.0,53.38677079584174,17.78613436349302
2749D56E-5E16-549F-E053-CC2BA8C0814F,0403,0403043,0089023,186789,Szmytowo,część wsi,2.0,53.411971567016636,17.776187647059675
2749D56E-5DB7-549F-E053-CC2BA8C0814F,0403,0403043,0089069,186762,Lipie,część wsi,10.0,53.33157157173465,17.905473724694865
2749D56E-5D54-549F-E053-CC2BA8C0814F,0403,0403043,0089187,122941,Sitowiec,wieś,181.0,53.37080676838595,17.739134803899276
2749D56E-5D55-549F-E053-CC2BA8C0814F,0403,0403022,0084238,115332,Reptowo,wieś,169.0,53.17351600500774,18.23479720553026
2749D56E-5D85-549F-E053-CC2BA8C0814F,0403,0403062,0093585,147698,Wilcze,wieś,337.0,53.20886393975274,18.117178274700425
2749D56E-5D86-549F-E053-CC2BA8C0814F,0403,0403072,0095704,142505,Ugoda,wieś,83.0,53.19956150408077,17.751330334957334
2749D56E-5D87-549F-E053-CC2BA8C0814F,0403,0403072,0095414,33200,Gliszcz,wieś,345.0,53.23284683998579,17.72661059273784
2749D56E-5DB5-549F-E053-CC2BA8C0814F,0403,0403072,0095740,147161,Wierzchucinek,wieś,252.0,53.252041104990255,17.77960533736874
2749D56E-5DB6-549F-E053-CC2BA8C0814F,0403,0403043,0089342,81685,Młynkowo,osada,41.0,53.31661174933254,17.902729328494686
2749D56E-5DB8-549F-E053-CC2BA8C0814F,0403,0403043,0089052,44161,Janowo,część wsi,5.0,53.33848085451795,17.898353797013122
ab413bc3-c288-11e8-8e6e-f01faf546c5e,0403,0403083,0929569,248209,Kabat,część miasta,1.0,53.02086378088168,18.261139416460946
2749D56E-5D88-549F-E053-CC2BA8C0814F,0403,0403072,0095503,84317,Murucin,wieś,127.0,53.26294916987204,17.714216296724036
e35d2596-e245-4b65-8376-0c7dfea22996,0403,0403062,0093674,132360,Strzelce Leśne,osada leśna,10.0,53.240594002525334,18.059067102756188
2749D56E-5D56-549F-E053-CC2BA8C0814F,0403,0403022,0084221,89926,Nowy Dwór,wieś,478.0,53.163255973638584,18.2437874283855
2749D56E-5D57-549F-E053-CC2BA8C0814F,0403,0403022,0084190,44152,Janowo,wieś,279.0,53.186986081311915,18.248936295207734
2749D56E-5D89-549F-E053-CC2BA8C0814F,0403,0403072,0095443,74098,Łukowiec,wieś,224.0,53.27752312484101,17.734560030643383
2749D56E-5D8D-549F-E053-CC2BA8C0814F,0403,0403043,0089276,129719,Stary Dwór,wieś,424.0,53.29764466101194,17.916784804898402
2749D56E-5D8A-549F-E053-CC2BA8C0814F,0403,0403043,0089106,91751,Okole,wieś,343.0,53.290685711284766,17.943539665679474
2749D56E-5D8B-549F-E053-CC2BA8C0814F,0403,0403043,0089158,120616,Samociążek,wieś,577.0,53.25833791701091,17.973087341373173
2749D56E-5D8C-549F-E053-CC2BA8C0814F,0403,0403043,0089299,129815,Stary Jasiniec,wieś,319.0,53.30116518415132,18.02036239218992
2749D56E-5D8E-549F-E053-CC2BA8C0814F,0403,0403043,0089193,123359,Skarbiewo,wieś,86.0,53.32209038658733,17.858203689276653
2749D56E-5D8F-549F-E053-CC2BA8C0814F,0403,0403043,0088756,13822,Buszkowo,wieś,411.0,53.347382816573216,17.867211029784183
2749D56E-5DB9-549F-E053-CC2BA8C0814F,0403,0403043,0929351,186729,Sólnica,część miasta,112.0,53.3189536562806,17.919789728193532
2749D56E-5E01-549F-E053-CC2BA8C0814F,0403,0403072,0095472,15572,Chmielewo,osada,58.0,53.231814049966225,17.832988606097334
2749D56E-5DBA-549F-E053-CC2BA8C0814F,0403,0403043,0929291,42631,Iwickowo,część miasta,110.0,53.32278285274184,17.93705713960361
2749D56E-5DBB-549F-E053-CC2BA8C0814F,0403,0403043,0929300,68618,Lipinki,część miasta,38.0,53.33777136518332,17.922912354227964
2749D56E-5E00-549F-E053-CC2BA8C0814F,0403,0403072,0095762,125295,Smolary,osada,33.0,53.22237472264652,17.811262984986133
2749D56E-5D58-549F-E053-CC2BA8C0814F,0403,0403032,0084391,60540,Kozielec,wieś,238.0,53.248672358223395,18.25251607853762
2749D56E-5E02-549F-E053-CC2BA8C0814F,0403,0403072,0095495,101405,Piotrkówko,osada,112.0,53.226155308757704,17.8415733867236
2749D56E-5E03-549F-E053-CC2BA8C0814F,0403,0403032,0084340,65734,Kusowo,osada,464.0,53.2394094738734,18.15558789103215
2749D56E-5E04-549F-E053-CC2BA8C0814F,0403,0403032,0084563,15332,Chełmszczonka,część wsi,6.0,53.22803411813056,18.19692272844023
2749D56E-5DBD-549F-E053-CC2BA8C0814F,0403,0403043,0088934,48235,Kadzionka,część wsi,135.0,53.37829542841943,17.857338849700643
2749D56E-5D59-549F-E053-CC2BA8C0814F,0403,0403022,0084126,19938,Czemlewo,wieś,284.0,53.19564426942063,18.269373944729356
2749D56E-5D5A-549F-E053-CC2BA8C0814F,0403,0403022,0084110,19739,Czarże,wieś,1045.0,53.222271706942195,18.270052910162416
2749D56E-5D90-549F-E053-CC2BA8C0814F,0403,0403032,0084451,1079,Augustowo,wieś,204.0,53.227342907011796,18.101786526957167
2749D56E-5D91-549F-E053-CC2BA8C0814F,0403,0403032,0084439,86224,Nekla,wieś,511.0,53.2429179997109,18.092711612025788
2749D56E-5DBC-549F-E053-CC2BA8C0814F,0403,0403043,0089075,186781,Nowy Dwór-Kolonia,część wsi,58.0,53.35147567416133,17.906030033514998
2749D56E-5DBE-549F-E053-CC2BA8C0814F,0403,0403043,0089247,113416,Puszczyn,osada leśna,5.0,53.405804204515476,17.861308772857797
2749D56E-5DBF-549F-E053-CC2BA8C0814F,0403,0403043,0089224,62431,Krówka,osada leśna,4.0,53.416216637894685,17.89765596116398
2749D56E-5E18-549F-E053-CC2BA8C0814F,0403,0403043,0088986,186743,Barlikowo,część wsi,5.0,53.399048132587204,17.792938811013137
2749D56E-5DC0-549F-E053-CC2BA8C0814F,0403,0403043,0929339,112253,Przyrzecze,część miasta,98.0,53.319244716528914,17.956461841976886
2749D56E-5DC1-549F-E053-CC2BA8C0814F,0403,0403043,0929368,127580,Srebrnica,część miasta,490.0,53.338981569390036,17.944886345060592
2749D56E-5DC2-549F-E053-CC2BA8C0814F,0403,0403043,0929316,100077,Pieczyska,część miasta,1200.0,53.32794604339836,17.974801830406722
2749D56E-5E19-549F-E053-CC2BA8C0814F,0403,0403043,0089000,71216,Łakomowo,część wsi,20.0,53.422014967972004,17.780941115913365
2749D56E-5E1A-549F-E053-CC2BA8C0814F,0403,0403043,0089030,173926,Motyl,osada,18.0,53.42811362814819,17.823007326709682
2749D56E-5E1E-549F-E053-CC2BA8C0814F,0403,0403043,0089394,152061,Wtelenko,część wsi,10.0,53.22511265257203,17.88625108513585
2749D56E-5E1B-549F-E053-CC2BA8C0814F,0403,0403043,0088992,186756,Kencerowo,część wsi,25.0,53.417319395893735,17.82565956360361
2749D56E-5E1C-549F-E053-CC2BA8C0814F,0403,0403072,0095466,173934,Mochełek,część wsi,73.0,53.20657330095414,17.859642664738775
2749D56E-5E1D-549F-E053-CC2BA8C0814F,0403,0403072,0095489,88120,Nowa Ruda,osada,76.0,53.234232731601665,17.85830690889863
2749D56E-5D5B-549F-E053-CC2BA8C0814F,0403,0403043,0088816,28619,Dziedzinek,wieś,146.0,53.387921461931825,17.751807176804697
2749D56E-5D5C-549F-E053-CC2BA8C0814F,0403,0403043,0088957,72431,Łąsko Małe,wieś,184.0,53.3330294900447,17.801301274975586
2749D56E-5D5D-549F-E053-CC2BA8C0814F,0403,0403043,0089359,147699,Wilcze,wieś,222.0,53.36802353861791,17.7885477049965
2749D56E-5D5E-549F-E053-CC2BA8C0814F,0403,0403043,0088963,72432,Łąsko Wielkie,wieś,364.0,53.34775579694498,17.824717614744802
2749D56E-5D93-549F-E053-CC2BA8C0814F,0403,0403072,0095638,122915,Sitno,wieś,72.0,53.19946635222161,17.780689555223365
2749D56E-5D5F-549F-E053-CC2BA8C0814F,0403,0403043,0088928,70544,Lucim,wieś,501.0,53.38244414399731,17.835433821601946
2749D56E-5D60-549F-E053-CC2BA8C0814F,0403,0403043,0088970,78755,Mąkowarsko,wieś,1121.0,53.41175238930644,17.806082495696295
2749D56E-5D92-549F-E053-CC2BA8C0814F,0403,0403043,0089135,108133,Popielewo,wieś,83.0,53.30483672001319,17.72872859849472
2749D56E-5DC3-549F-E053-CC2BA8C0814F,0403,0403043,0929345,116404,Romanowo,część miasta,40.0,53.34816593033218,17.961944958276653
2749D56E-5DC7-549F-E053-CC2BA8C0814F,0403,0403043,0088839,11722,Brzozowo,osada leśna,2.0,53.36397918574628,18.01005670629273
2749D56E-5DC4-549F-E053-CC2BA8C0814F,0403,0403043,0089260,142073,Tylna Góra,osada leśna,3.0,53.356925708924955,17.96726767180479
2749D56E-5DC5-549F-E053-CC2BA8C0814F,0403,0403043,1028012,186790,Wiktorowo,część wsi,355.0,53.340313529747135,18.014286410616645
2749D56E-5DC6-549F-E053-CC2BA8C0814F,0403,0403043,0089098,109703,Pólko,część wsi,5.0,53.33821751796375,18.02617652753284
2749D56E-5DC8-549F-E053-CC2BA8C0814F,0403,0403043,0088851,152988,Wymysłowo,osada leśna,1.0,53.372645402640906,17.9716141859076
2749D56E-5DC9-549F-E053-CC2BA8C0814F,0403,0403043,0089230,102889,Pobrdzie,osada leśna,2.0,53.406055870274834,17.943069293686417
2749D56E-5DCA-549F-E053-CC2BA8C0814F,0403,0403043,0089253,117504,Różanna,osada leśna,13.0,53.385109528402026,17.961317852387502
2749D56E-5DCB-549F-E053-CC2BA8C0814F,0403,0403043,1028035,203293,Wybudowanie Glinkowskie,część wsi,22.0,53.37328310475346,18.009051039408988
2749D56E-5DCC-549F-E053-CC2BA8C0814F,0403,0403052,0092657,15643,Chmielniki,osada,47.0,53.00659203680516,18.04233050146661
2749D56E-5D2C-549F-E053-CC2BA8C0814F,0403,0403072,0095644,132404,Strzelewo,wieś,399.0,53.16266619065867,17.77085381233631
2749D56E-5D2D-549F-E053-CC2BA8C0814F,0403,0403072,0095779,159658,Zawada,wieś,76.0,53.185693008158815,17.782527280291234
2749D56E-5D2E-549F-E053-CC2BA8C0814F,0403,0403012,0079579,73029,Łochowo,wieś,5051.0,53.1294385460086,17.83518250449658
2749D56E-5D29-549F-E053-CC2BA8C0814F,0403,0403012,0079591,84285,Murowaniec,wieś,1998.0,53.0931487721627,17.853488414056407
2749D56E-5D2A-549F-E053-CC2BA8C0814F,0403,0403012,0079562,73026,Łochowice,wieś,974.0,53.13270278778985,17.797478914349004
2749D56E-5D2B-549F-E053-CC2BA8C0814F,0403,0403072,0095785,161324,Zielonczyn,wieś,629.0,53.14937536370485,17.80613987532417
2749D56E-5D25-549F-E053-CC2BA8C0814F,0403,0403072,0095437,62790,Kruszyniec,wieś,109.0,53.14647343888092,17.84477495494677
2749D56E-5D26-549F-E053-CC2BA8C0814F,0403,0403072,0095420,62752,Kruszyn,wieś,980.0,53.159942261431894,17.838979620043165
272D70DB-644B-34A7-E053-CA2BA8C05298,0404,0404022,0841544,25954,Dorposz Chełmiński,wieś,183.0,53.41945821711066,18.587125698170315
2749D56E-5D27-549F-E053-CC2BA8C0814F,0403,0403072,0095526,22588,Dąbrówka Nowa,wieś,524.0,53.18121639566416,17.83322552407448
2749D56E-5D28-549F-E053-CC2BA8C0814F,0403,0403012,0079533,62757,Kruszyn Krajeński,wieś,1525.0,53.05992916763531,17.882094700116447
272D70DB-6447-34A7-E053-CA2BA8C05298,0404,0404072,0849793,34805,Gołoty,wieś,201.0,53.23372618433841,18.400424857797727
272D70DB-6448-34A7-E053-CA2BA8C05298,0404,0404032,0845045,140909,Trzebcz Szlachecki,wieś,450.0,53.21716717220724,18.483346500956518
272D70DB-644A-34A7-E053-CA2BA8C05298,0404,0404072,1028590,89162,Nowe Stablewice,część wsi,18.0,53.20564126090817,18.417667976642072
131ADAFA-B82F-4B99-9086-68440EBB607E,0404,0404072,1028561,248211,Garwolin,część wsi,8.0,53.21109308558538,18.44442221203814
272D70DB-6481-34A7-E053-CA2BA8C05298,0404,0404052,0848010,81884,Młyńsk,osada,35.0,53.27516779223345,18.63401458807841
272D70DB-6482-34A7-E053-CA2BA8C05298,0404,0404042,0846040,6435,Błachta,wieś,95.0,53.29324256130709,18.629977323583656
272D70DB-6483-34A7-E053-CA2BA8C05298,0404,0404032,0844940,53271,Kijewo Królewskie,wieś,689.0,53.27395128673337,18.460515765198096
123e6b01-144a-11ee-97bb-5404a6a68038,0404,0404042,1028472,198510,Sepety,część wsi,25.0,53.32447628335999,18.636429091758675
12A927A9-04AF-41FE-A62A-066FA85C07B7,0404,0404072,1028609,198375,Pod Głażewo,część wsi,70.0,53.191431502484605,18.421037854564617
19019A82-E1A1-4081-A6C5-CC87CF1E2971,0404,0404042,1028360,198503,Pod Dubielno,część wsi,36.0,53.249481569386845,18.662278254157073
215FCB71-EBFE-40E7-951E-111984C7B206,0404,0404032,0845000,248210,Warszawa,część wsi,20.0,53.25515392883197,18.43073757401923
272D70DB-644C-34A7-E053-CA2BA8C05298,0404,0404042,0846168,75921,Malankowo,wieś,260.0,53.32000898302735,18.69506139197541
272D70DB-644D-34A7-E053-CA2BA8C05298,0404,0404072,0849824,113702,Raciniewo,wieś,579.0,53.191751324599196,18.36587927722091
272D70DB-644E-34A7-E053-CA2BA8C05298,0404,0404062,0849132,120934,Sarnowo,wieś,119.0,53.37286461645768,18.697225737578115
272D70DB-644F-34A7-E053-CA2BA8C05298,0404,0404072,1028549,15385,Chiny,część wsi,59.0,53.20555888316239,18.45845051917795
272D70DB-6487-34A7-E053-CA2BA8C05298,0404,0404042,0846085,58446,Kornatowo,wieś,306.0,53.286340951683236,18.654340075636576
272D70DB-6450-34A7-E053-CA2BA8C05298,0404,0404072,1028578,58349,Korea,część wsi,44.0,53.21151033574799,18.449998807739327
272D70DB-6451-34A7-E053-CA2BA8C05298,0404,0404072,0849770,10582,Bruki Unisławskie,wieś,434.0,53.2287807763519,18.35613201013822
272D70DB-6484-34A7-E053-CA2BA8C05298,0404,0404032,0844962,159035,Zaroślak,część wsi,90.0,53.269405075112175,18.466286692461118
272D70DB-6485-34A7-E053-CA2BA8C05298,0404,0404032,0844956,136014,Sztokowo,część wsi,48.0,53.28328403132328,18.46152145530427
272D70DB-6486-34A7-E053-CA2BA8C05298,0404,0404022,0849830,117551,Różnowo,wieś,128.0,53.27506295391655,18.363141193971032
272D70DB-640F-34A7-E053-CA2BA8C05298,0404,0404022,0841640,88730,Nowe Dobra,wieś,653.0,53.37552998065142,18.461028917789502
21E364C0-8276-43D9-A326-2E8AFD978C10,0404,0404072,1028555,198374,Duże Kokocko,część wsi,393.0,53.25687238231627,18.311656341537734
272D70DB-640D-34A7-E053-CA2BA8C05298,0404,0404022,0841716,173128,Starogród Dolny,wieś,117.0,53.337686555839696,18.376486008200704
272D70DB-640E-34A7-E053-CA2BA8C05298,0404,0404011,0983066,15302,Chełmno,miasto,15763.0,53.34921452601288,18.427876854149783
272D70DB-6412-34A7-E053-CA2BA8C05298,0404,0404052,0848121,96973,Papowo Biskupie,wieś,815.0,53.25362342234902,18.563746175974437
272D70DB-6453-34A7-E053-CA2BA8C05298,0404,0404032,0844991,85906,Napole,wieś,107.0,53.25975151118536,18.449575161654117
272D70DB-6454-34A7-E053-CA2BA8C05298,0404,0404032,0845039,140908,Trzebcz Królewski,wieś,177.0,53.23691095782213,18.482602561879165
272D70DB-6488-34A7-E053-CA2BA8C05298,0404,0404042,0846205,131943,Strucfoń,wieś,84.0,53.27244131183895,18.687030224822525
272D70DB-6489-34A7-E053-CA2BA8C05298,0404,0404062,1028510,198373,Parowy,część wsi,7.0,53.29744353511182,18.463929338369898
272D70DB-648A-34A7-E053-CA2BA8C05298,0404,0404052,0848032,46119,Jeleniec,wieś,458.0,53.27242605640171,18.496319396323127
272D70DB-6410-34A7-E053-CA2BA8C05298,0404,0404052,0847995,29692,Falęcin,wieś,320.0,53.23044109203836,18.543003262635864
272D70DB-6411-34A7-E053-CA2BA8C05298,0404,0404052,0848084,64630,Kucborek,wieś,65.0,53.23181864876889,18.580431298033147
272D70DB-6415-34A7-E053-CA2BA8C05298,0404,0404022,1028070,198367,Babie Błota,część wsi,16.0,53.35911200114949,18.518443299408666
272D70DB-648D-34A7-E053-CA2BA8C05298,0404,0404062,0849149,131464,Stolno,wieś,780.0,53.32084273274065,18.51641640298476
272D70DB-6455-34A7-E053-CA2BA8C05298,0404,0404042,0846174,79062,Mgoszcz,wieś,382.0,53.30794398907573,18.7234169329951
272D70DB-6457-34A7-E053-CA2BA8C05298,0404,0404042,0846056,16620,Chrusty,wieś,106.0,53.3376843743665,18.69478634005779
272D70DB-6458-34A7-E053-CA2BA8C05298,0404,0404072,1028621,198376,Pod Unisław,część wsi,87.0,53.19951831609297,18.424275119665047
272D70DB-648B-34A7-E053-CA2BA8C05298,0404,0404062,0849066,146389,Wielkie Czyste,wieś,122.0,53.28674157160757,18.502034420623907
272D70DB-648C-34A7-E053-CA2BA8C05298,0404,0404062,0849050,85849,Nałęcz,część wsi,25.0,53.306042848612215,18.508156435919027
272D70DB-648E-34A7-E053-CA2BA8C05298,0404,0404062,0848983,14774,Cepno,wieś,398.0,53.31015651819502,18.541550048587354
272D70DB-6416-34A7-E053-CA2BA8C05298,0404,0404022,1028199,163144,Żaki,część wsi,5.0,53.356137209239726,18.546777566907178
272D70DB-641C-34A7-E053-CA2BA8C05298,0404,0404042,0846145,68572,Lipienek,wieś,302.0,53.26215239265081,18.66304032527431
272D70DB-6417-34A7-E053-CA2BA8C05298,0404,0404052,0847972,26743,Dubielno,wieś,434.0,53.24303605107953,18.64021388022126
272D70DB-6459-34A7-E053-CA2BA8C05298,0404,0404072,0849818,55738,Kokocko,wieś,442.0,53.258120029899935,18.317432825588146
272D70DB-645A-34A7-E053-CA2BA8C05298,0404,0404062,0848990,35184,Gorzuchowo,wieś,159.0,53.35417163934405,18.691204575750803
272D70DB-648F-34A7-E053-CA2BA8C05298,0404,0404022,0841567,48772,Kałdus,wieś,312.0,53.32514413600984,18.395170370970558
272D70DB-6490-34A7-E053-CA2BA8C05298,0404,0404022,0841700,129518,Starogród,wieś,353.0,53.30709858245988,18.382778043931797
272D70DB-6492-34A7-E053-CA2BA8C05298,0404,0404062,0849020,55233,Kobyły,wieś,138.0,53.32702877275566,18.558591671857524
272D70DB-641A-34A7-E053-CA2BA8C05298,0404,0404042,0846079,49886,Kamlarki,wieś,175.0,53.310760869433736,18.584066413946818
272D70DB-641B-34A7-E053-CA2BA8C05298,0404,0404042,0846228,146991,Wierzbowo,wieś,85.0,53.322652405713,18.588781123431563
272D70DB-645B-34A7-E053-CA2BA8C05298,0404,0404062,0849103,101142,Pilewice,wieś,67.0,53.35933227507696,18.714390022557684
272D70DB-645C-34A7-E053-CA2BA8C05298,0404,0404032,0845080,140910,Trzebczyk,wieś,64.0,53.23231355112206,18.455729776832644
272D70DB-6495-34A7-E053-CA2BA8C05298,0404,0404032,0844910,11723,Brzozowo,wieś,688.0,53.315468307986954,18.437616430534952
272D70DB-645D-34A7-E053-CA2BA8C05298,0404,0404032,0845022,136543,Szymborno,wieś,237.0,53.24998703762042,18.403645039726502
272D70DB-6493-34A7-E053-CA2BA8C05298,0404,0404032,0845097,144532,Watorowo,wieś,187.0,53.30256767155655,18.425097951303414
272D70DB-6494-34A7-E053-CA2BA8C05298,0404,0404032,0845105,186867,Lęda,część wsi,24.0,53.30851116924012,18.416689251975388
272D70DB-645F-34A7-E053-CA2BA8C05298,0404,0404022,0849758,9235,Borówno,wieś,261.0,53.288875372518305,18.34349663926673
272D70DB-6496-34A7-E053-CA2BA8C05298,0404,0404022,0841573,143370,Uść,wieś,44.0,53.33266567778886,18.404158229716305
272D70DB-641D-34A7-E053-CA2BA8C05298,0404,0404042,0846122,62676,Krusin,wieś,263.0,53.31098078137817,18.62276381176511
272D70DB-641E-34A7-E053-CA2BA8C05298,0404,0404042,0846139,68335,Linowiec,wieś,188.0,53.32821819845797,18.614021666347863
272D70DB-641F-34A7-E053-CA2BA8C05298,0404,0404062,0849178,143536,Wabcz,wieś,462.0,53.34354166983892,18.568429925343736
